PROVNUM,FACNAME,PHYADDR1,PHYADDR2,PHYCITY,PHYSTATE,PHYZIP,PHONENUM,OWNTYPE,In-center Hemo,in-center PD,ref_id,Lat,Lon
362598,FMC - AKRON EAST,199 PERKINS STREET,,AKRON,OH,44304,3303767600,Profit,Y,Y,362598,41.0854963,-81.5092264
362599,FMC - KNOX COUNTY KIDNEY CENTER,14 WOOD LAKE TRAIL,,MOUNT VERNON,OH,43050,7403931624,Profit,Y,N,362599,40.3961095,-82.4504745
362600,BELDEN COMMUNITY DIALYSIS,4685 FULTON ROAD NW,,CANTON,OH,44718,3306494059,Profit,Y,Y,362600,40.8240327,-81.3956743
362602,FAIRFIELD DIALYSIS,1210 HICKS BLVD,,FAIRFIELD,OH,45014,5139391110,Profit,Y,N,362602,39.34716,-84.539163
362603,CDC - HEATHER HILL,12340 BASSLAKE ROAD,,HEATHER HILL,OH,44024,4402864103,Non-Profit,Y,N,362603,41.5616786,-81.1857736
362604,FMC- ARROWHEAD DIALYSIS CENTER,322 W DUSSEL DRIVE,,MAUMEE,OH,43537,4198912200,Profit,Y,N,362604,41.5836747,-83.6710867
362607,FMC - TOLEDO CENTRAL DIALYSIS,"3100 WEST CENTRAL AVENUE, SUITE 100",,TOLEDO,OH,43606,4195394000,Profit,Y,N,362607,41.678006,-83.6190589
362608,FAIRFIELD HOME TRAINING DIALYSIS,1210 HICKS BLVD,,FAIRFIELD,OH,45014,5139391120,Profit,N,Y,362608,39.34716,-84.539163
362609,FMC - WESTLAKE DIALYSIS CENTER,26024 DETROIT ROAD,,WESTLAKE,OH,44145,4408351139,Profit,Y,Y,362609,41.470332,-81.908557
362610,ROCKY RIVER DIALYSIS,"20220 CENTER RIDGE ROAD, STE 50",,ROCKY RIVER,OH,44116,4403565744,Profit,Y,Y,362610,41.464543,-81.845578
362611,WINTON ROAD DIALYSIS,6550 WINTON ROAD,,CINCINNATI,OH,45224,5135912900,Profit,Y,N,362611,39.2014074,-84.5208261
362612,CDC - CANFIELD,3695 STUTZ DRIVE,,CANFIELD,OH,44406,3307023040,Non-Profit,Y,N,362612,41.0224307,-80.7136769
362613,DSI - SUMMIT RENAL CARE,73 MASSILLON ROAD,,AKRON,OH,44312,3307331861,Profit,Y,Y,362613,41.060265,-81.462232
362614,LAKE COUNTY DIALYSIS,1963 HUBBARD ROAD,,MADISON,OH,44057,4404286877,Profit,Y,Y,362614,41.8206633,-81.0485306
362616,FMCNA - REGENCY,2000 REGENCY MANOR CIRCLE  SUITE 100,,COLUMBUS,OH,43207,6144435500,Profit,Y,N,362616,39.9350301,-82.9431289
362617,FMC - STREETSBORO KIDNEY CENTER,"9200 STAPLES DRIVE, STE A",,STREETSBORO,OH,44241,3304220160,Profit,Y,N,362617,41.2416578,-81.3523898
362618,FMC - BOARDMAN DIALYSIS,257 BOARDMAN-CANFIELD RD.,,BOARDMAN,OH,44512,3306298856,Profit,Y,N,362618,41.024412,-80.6715925
362619,FMC - RICHLAND COUNTY,680 BALLY ROW,,MANSFIELD,OH,44906,4197740180,Profit,Y,N,362619,40.7408516,-82.5504373
362620,DAVITA - PARMA DIALYSIS,6735 AMES ROAD,,PARMA,OH,44129,4407430690,Profit,Y,N,362620,41.3813488,-81.7468372
362621,DCI - WESTERN HILLS,6432 GLENWAY AVENUE,,CINCINNATI,OH,45211,5135989050,Non-Profit,Y,N,362621,39.1483194,-84.6273791
362622,DAVITA - SENECA  DIALYSIS LLC.,65 ST FRANCIS AVENUE,,TIFFIN,OH,44883,4194477283,Profit,Y,N,362622,41.0980619,-83.17263
362623,DSI - WHITE PONDS,534 WHITE POND DRIVE STE A,,AKRON,OH,44320,3308731150,Profit,Y,N,362623,41.102473,-81.588533
362624,WILDWOOD DIALYSIS CENTER,2249 NORTH REYNOLDS ROAD,,TOLEDO,OH,43615,4195357415,Profit,Y,N,362624,41.6633803,-83.6678056
362625,FMC - DIALYSIS SERVICES - CAMPUS,456 W. 10TH AVE. SUITE 1410,,COLUMBUS,OH,43210,6142936493,Profit,Y,Y,362625,0,0
362626,FMC - COLUMBUS SOUTHSIDE DIALYSIS CENTER,"3700  S. HIGH ST., SUITE 163",,COLUMBUS,OH,43207,6144099880,Profit,Y,N,362626,39.8856142,-82.9992168
362627,"FMC - GREATER COLUMBUS REGIONAL DIALYSIS, LLC","285 E. STATE ST., SUITE 170",,COLUMBUS,OH,43215,6142289114,Profit,Y,Y,362627,39.9606629,-82.992479
362628,WESTERN HILLS DIALYSIS,3267 WESTBOURNE AVE.,,CINCINNATI,OH,45248,5133470444,Profit,Y,N,362628,39.145724,-84.629564
362629,COLUMBUS EAST DIALYSIS,299 OUTERBELT STREET,,COLUMBUS,OH,43213,6145017224,Profit,Y,N,362629,39.987012,-82.83127
362630,US RENAL CARE OF BOWLING GREEN,"1037 CONNEAUT STREET, SUITE 101",,BOWLING GREEN,OH,43402,4193531080,Profit,Y,Y,362630,41.3789207,-83.6684455
362631,FREMONT DIALYSIS CENTER,2400 ENTERPRISE DRIVE,,FREMONT,OH,43420,4193329104,Profit,Y,N,362631,41.3792683,-83.114763
362632,FMC - NORTH LIMA,9174 MARKET STREET,,NORTH LIMA,OH,44452,3307299061,Profit,Y,N,362632,40.9859045,-80.6627961
362633,SILVERTON DIALYSIS,6929 SILVERTON AVENUE,,CINCINNATI,OH,45236,5137930555,Profit,Y,N,362633,39.1945971,-84.3996108
362634,SILVERTON HOMETRAINING DIALYSIS,6929  SILVERTON AVENUE,,CINCINNATI,OH,45236,5137934376,Profit,N,Y,362634,39.1945971,-84.3996108
362635,CDC - WARREN,1950  NILES CORTLAND RD. SUITE 12,,WARREN,OH,44484,3306090370,Profit,Y,N,362635,41.265107,-80.739847
362636,FMC - ELYRIA RENAL CARE - AMHERST,1168 CLEVELAND AVENUE,,AMHERST,OH,44001,4409852280,Profit,Y,N,362636,41.405465,-82.2104722
362637,OHIO RENAL CARE GROUP-WILLOUGHBY,"5105 SOM CENTER RD., 3RD FLOOR",,WILLOUGHBY,OH,44094,4409751494,Profit,Y,N,362637,41.6230708,-81.4398713
362638,FMC - DIALYSIS SERVICES OF LONDON,306 LAFAYETTE ST. SUITE J,,LONDON,OH,43140,7408451594,Profit,Y,N,362638,39.8944362,-83.4413508
362639,FMC -  VAN WERT DIALYSIS,140 FOX RD SUITE 405,,VAN WERT,OH,45891,4192389333,Profit,Y,N,362639,40.8516646,-84.5854929
362640,MERCY CANTON DIALYSIS,1320 MERCY DRIVE N W,,CANTON,OH,44708,3305804001,Profit,Y,Y,362640,40.814336,-81.395072
362641,ALEXIS DIALYSIS CENTER,5719 JACKMAN RD,,TOLEDO,OH,43613,4194711710,Profit,Y,N,362641,41.719986,-83.585894
362642,FMC - TRISTATE DIALYSIS,517 3RD AVENUE,,CHESAPEAKE,OH,45619,7408674471,Profit,Y,Y,362642,38.4277559,-82.4576421
362643,DCI - PORTSMOUTH,1207 17TH STREET,,PORTSMOUTH,OH,45662,7403510596,Non-Profit,Y,Y,362643,0,0
362644,CHOICE ONE RENAL CARE OF NEWARK,65 SOUTH TERRACE AVE,,NEWARK,OH,43055,7405222955,Profit,Y,Y,362644,0,0
362645,DAVITA - MIDWEST FAIRBORN  DIALYSIS,1266 NORTH BROAD ST.,,FAIRBORN,OH,45324,9378790433,Profit,Y,Y,362645,39.8347307,-84.0127507
362646,FMC - GALLIPOLIS,"137 PINE STREET, STE 101",,GALLIPOLIS,OH,45631,7404419300,Profit,Y,Y,362646,38.8149091,-82.198877
362647,BUTLER COUNTY DIALYSIS,3497 SOUTH DIXIE HWY,,FRANKLIN,OH,45005,5134221467,Profit,Y,N,362647,39.4961428,-84.3363498
362648,FMC - MT. CARMEL WEST,745 WEST STATE ST SUITE 660,,COLUMBUS,OH,43222,6142242344,Profit,Y,Y,362648,39.9578237,-83.0202099
362649,MID-AMERICA DIALYSIS LLC.,2355 SOUTH HAMILTON RD,,COLUMBUS,OH,43232,6143671679,Profit,Y,Y,362649,39.9270811,-82.8799124
362650,COLUMBUS DOWNTOWN DIALYSIS,415 EAST MOUND STREET,,COLUMBUS,OH,43215,6142281773,Profit,Y,N,362650,39.9560353,-82.9879339
362651,DSI- MUNROE FALLS,265 NORTH MAIN STREET,,MUNROE FALLS,OH,44262,3306891400,Profit,Y,N,362651,41.1466459,-81.44095
362652,KIDNEY CENTER OF COLUMBUS NORTH,5700 KARL ROAD,,COLUMBUS,OH,43229,6148469722,Profit,Y,N,362652,40.082665,-82.974159
362653,KIDNEY CENTER OF COLUMBUS EAST,1805 EAST MAIN STREET,,COLUMBUS,OH,43205,6142533300,Profit,Y,Y,362653,39.957079,-82.950541
362654,DEFIANCE DIALYSIS CENTER,220 STADIUM DRIVE,,DEFIANCE,OH,43512,4197842100,Profit,Y,N,362654,41.301498,-84.355576
362655,DCA OF CINCINNATI,7600 AFFINITY PLACE,,MT HEALTHY,OH,45231,5139317900,Profit,Y,Y,362655,39.231834,-84.5373709
362656,KIDNEY SERVICES OF WEST CENTRAL OHIO,"750 W HIGH STREET, SUITE 100",,LIMA,OH,45801,4192270918,Profit,Y,Y,362656,40.7420789,-84.115202
362657,FMC - MT. CARMEL EAST,"85 MCNAUGHTEN RD., SUITE 140",,COLUMBUS,OH,43213,6143220433,Profit,Y,Y,362657,39.9780998,-82.8363778
362659,DIALYSIS CENTERS OF DARKE COUNTY,"1111 SWEITZER ST., STE B",,GREENVILLE,OH,45331,9375487019,Profit,Y,N,362659,40.084649,-84.633364
362660,"HOME DIALYSIS SERVICES OF SANDUSKY, INC.","2819 SOUTH HAYES, SUITE 2",,SANDUSKY,OH,44870,4196278403,Profit,N,Y,362660,41.425695,-82.719859
362661,KIDNEY CENTER OF COLUMBUS SOUTH,2046 LOCKBOURNE RD,,COLUMBUS,OH,43207,6144497300,Profit,Y,N,362661,39.923159,-82.963358
362662,"DCA OF COLUMBUS, LLC",2360 CITYGATE DRIVE,,COLUMBUS,OH,43219,6144284001,Profit,Y,Y,362662,40.017581,-82.921076
362663,COSHOCTON DIALYSIS,1404 CHESTNUT STREET,,COSHOCTON,OH,43812,7406232917,Profit,Y,N,362663,40.2764,-81.847944
362664,DCI - WESTCHESTER,7625 UNIVERSITY COURT,,WEST CHESTER,OH,45069,5137770855,Non-Profit,Y,Y,362664,39.3603646,-84.3657137
362665,FMC - DEFIANCE,"1850 EAST SECOND STREET, SUITES 1850 & 1846",,DEFIANCE,OH,43512,4197829090,Profit,Y,Y,362665,33.4913029,-111.927199
362666,FMC - SOLON,6020 ENTERPRISE PARKWAY,,SOLON,OH,44139,4402487061,Profit,Y,N,362666,41.395646,-81.46456
362667,FMC -  VALLEY CITY,2400 COLUMBIA ROAD,,MEDINA,OH,44256,3304834666,Profit,Y,N,362667,41.208392,-81.927752
362668,FMC - HAMILTON,"3090 MCBRIDE COURT, STE.  A",,HAMILTON,OH,45011,5138957300,Profit,Y,N,362668,39.377168,-84.514156
362669,ALLIANCE COMMUNITY DIALYSIS,"270 E STATE STREET, SUITE 110",,ALLIANCE,OH,44601,3308211657,Profit,Y,Y,362669,40.902195,-81.101768
362670,FMC - MASSILLON DIALYSIS CENTER,2474 LINCOLN WAY EAST,,MASSILLON,OH,44646,3308372575,Profit,Y,Y,362670,40.7978775,-81.4889549
362671,DAVITA - BELPRE DIALYSIS,2906 WASHINGTON BLVD.,,BELPRE,OH,45714,7404010607,Profit,Y,Y,362671,39.279917,-81.621706
362672,DIALYSIS CENTERS OF WARREN  COUNTY,90 COMMERCIAL WAY,,SPRINGBORO,OH,45066,9377040589,Profit,Y,N,362672,39.5584473,-84.2672155
362674,PUTNAM CTY AMBULATORY CARE CTR-DIALYSIS,601 STATE RT 224,P.O. BOX 100,GLANDORF,OH,45848,4192264420,Profit,Y,N,362674,41.019687,-84.06877
362675,FMC - WASHINGTON COURTHOUSE,1280 RAWLING STREET,,WASHINGTON COURT HOU,OH,43160,7403354267,Profit,Y,Y,362675,39.5510528,-83.4267778
362677,CHILLICOTHE REGIONAL DIALYSIS CENTER,465  SHAWNEE LANE,,CHILLICOTHE,OH,45601,7407744777,Profit,Y,Y,362677,39.3702859,-82.9771918
362678,CDC - GARFIELD,"5595 TRANSPORTATION BLVD.,  SUITE 110",,GARFIELD HEIGHTS,OH,44125,2165810801,Profit,Y,N,362678,41.409658,-81.6153209
362679,FMC - HERITAGE DIALYSIS,1160 EAST BROAD ST.,,ELYRIA,OH,44035,4403651811,Profit,Y,Y,362679,41.3632283,-82.0725825
362680,NORTHWOOD DIALYSIS,611 LEMOYNE ROAD,,NORTHWOOD,OH,43619,4196983423,Profit,Y,Y,362680,41.6079787,-83.4740166
362681,US RENAL CARE OF  NORWOOD DIALYSIS,1721 TENNESSEE AVE.,,CINCINNATI,OH,45229,5132426733,Profit,Y,Y,362681,39.1674484,-84.4690435
362682,DCI - SEAMAN,65 COMMERCE DR,,SEAMAN,OH,45679,9373860818,Non-Profit,Y,Y,362682,38.936714,-83.589924
362683,FAIRBORN DIALYSIS,"3070 PRESIDENTIAL DRIVE, SUITE  120",,FAIRBORN,OH,45324,9374266475,Profit,Y,N,362683,39.775718,-84.064855
362684,DAVITA DIALYSIS - STRONGSVILLE,17792 PEARL RD.,,STRONGSVILLE,OH,44136,4402389270,Profit,Y,N,362684,41.28936,-81.8361369
362685,DIALYSIS CLINIC INC.,4227 MALL DRIVE,,STEUBENVILLE,OH,43952,7402666687,Non-Profit,Y,N,362685,40.3695848,-80.6731687
362686,FMC- WESTERVILLE DIALYSIS,"477 COOPER ROAD, SUITE 140",,WESTERVILLE,OH,43081,6148952705,Profit,Y,Y,362686,40.1143499,-82.942523
362687,DAVITA - WHITE OAK HOME DIALYSIS,"5520 CHEVIOT ROAD, SUITE B",,CINCINNATI,OH,45247,5133853580,Profit,N,Y,362687,39.1909098,-84.5992484
362688,WHITE OAK DIALYSIS,"5520 CHEVIOT ROAD, SUITE B",,CINCINNATI,OH,45247,5137411062,Profit,Y,N,362688,39.1909098,-84.5992484
362689,BUTLER COUNTY HOME TRAINING DIALYSIS,3497 S. DIXIE HIGHWAY,,FRANKLIN,OH,45005,5134238098,Profit,N,Y,362689,39.4961428,-84.3363498
362690,DAVITA -  KETTERING DIALYSIS,5721 BIGGER ROAD,,KETTERING,OH,45440,9374354030,Profit,Y,Y,362690,39.660516,-84.128188
362691,FMC - TOLEDO LASKEY DIALYSIS,2532 W. LASKEY ROAD,,TOLEDO,OH,43613,4194748995,Profit,Y,Y,362691,41.7070099,-83.605354
362692,CDC -  HARBORSIDE,3800 PARK EAST DRIVE,,BEACHWOOD,OH,44122,2165931234,Profit,Y,N,362692,41.457738,-81.495025
362693,FAIRFIELD KIDNEY CENTER,"618 PLEASANTVILLE  ROAD, STE 102",,LANCASTER,OH,43130,7406876480,Profit,Y,Y,362693,39.718836,-82.578064
362694,ANDOVER DIALYSIS,488 SOUTH MAIN STREET,,ANDOVER,OH,44003,4402936028,Profit,Y,Y,362694,41.6001613,-80.5712961
362695,DIALYSIS SERVICES OF BELPRE,"809 FARSON STREET,   SUITE 108",,BELPRE,OH,45714,7404010880,Profit,Y,Y,362695,39.2831347,-81.6108811
362696,BLANCHARD VALLEY DIALYSIS SERVICES,1717 MEDICAL BLVD # C,,FINDLAY,OH,45840,4194201633,Profit,Y,Y,362696,0,0
362697,PICKAWAY DIALYSIS CENTER,1180 NORTH COURT ST.,,CIRCLEVILLE,OH,43113,7404772072,Profit,Y,Y,362697,39.6211521,-82.9404675
362698,PIKETON REGIONAL DIALYSIS CENTER,7143 U.S. RT. 23,,PIKETON,OH,45661,7402892423,Profit,Y,N,362698,39.0495526,-83.1771628
362699,DAVITA - HILLIARD DIALYSIS,19133 HILLIARD BLVD,,ROCKY RIVER,OH,44116,2167124700,Profit,Y,Y,362699,41.471293,-81.834637
362700,SANDUSKY DIALYSIS CENTER,795 BARDSHAR ROAD,,SANDUSKY,OH,44870,4196091847,Profit,Y,N,362700,41.438553,-82.774961
362701,JACKSON DIALYSIS & KIDNEY CENTER,500 MCCARTY LANE,,JACKSON,OH,45640,7402861600,Profit,Y,Y,362701,39.031421,-82.619582
362702,DAVITA - EASTGATE HOME,"4435 AICHOLTZ DRIVE, SUITE 800A",,CINCINNATI,OH,45245,5137528301,Profit,N,Y,362702,39.09608,-84.28324
362703,EATON DIALYSIS CENTER,105 EAST WASHINGTON JACKSON ROAD,,EATON,OH,45320,9374561174,Profit,Y,Y,362703,39.766114,-84.63375
362704,DAVITA - PARMA HEIGHTS DIALYSIS,9050 NORTH CHURCH DRIVE,,PARMA HEIGHTS,OH,44130,4402920231,Profit,Y,Y,362704,41.380859,-81.747651
362705,COLUMBUS WEST DIALYSIS,1395 GEORGESVILLE ROAD,,COLUMBUS,OH,43228,6142798495,Profit,Y,Y,362705,39.9230351,-83.1207148
362706,WAUSEON DIALYSIS,721 S. SHOOP AVE.,,WAUSEON,OH,43567,4193350695,Profit,Y,Y,362706,41.5431432,-84.1342944
362707,DAVITA LEBANON DIALYSIS,918 B COLUMBUS AVENUE,,LEBANON,OH,45036,5139340272,Profit,Y,N,362707,39.4471041,-84.1880776
362708,DAVITA - DELHI DIALYSIS,5040 DELHI PIKE,,CINCINNATI,OH,45238,5139225900,Profit,Y,N,362708,39.0950873,-84.6116151
362709,PATASKALA DIALYSIS,642 EAST BROAD STREET,,PATASKALA,OH,43062,7409641306,Profit,Y,N,362709,40.0044539,-82.667064
362710,FMC ASHLAND COUNTY,1100 REDWOOD DRIVE,,ASHLAND,OH,44805,4192817800,Profit,Y,N,362710,40.842481,-82.337395
362711,DAVITA - LEBANON HOME TRAINING,"918 B COLUMBUS AVENUE, # 1",,LEBANON,OH,45036,5139341130,Profit,N,Y,362711,0,0
362712,DAVITA POINT PLACE,"4747 SUDER AVE., SUITE 107",,TOLEDO,OH,43611,4197279692,Profit,Y,N,362712,0,0
362713,DCA OF DELAWARE,1788 COLUMBUS PIKE,,DELAWARE,OH,43015,7403694870,Profit,Y,Y,362713,0,0
362715,DAVITA  - ANDERSON DIALYSIS,"7502 STATE ROAD SUITE, 1160",,ANDERSON,OH,45255,5136240400,Profit,Y,N,362715,39.0844318,-84.3496376
362716,GROVE CITY DIALYSIS,4155 KELNOR DRIVE,,GROVE CITY,OH,43123,6148010323,Profit,Y,N,362716,39.878004,-83.0668365
362717,CDC - OAKWOOD,"7690 FIRST PLACE, SUITE E, BLDG D",,OAKWOOD VILLAGE,OH,44146,4404391526,Profit,Y,N,362717,41.3752785,-81.5113117
362718,WARRENSVILLE HOME DIALYSIS,"4200 WARRENSVILLE CENTER RD. , BLDG A - SUITE 210",,WARRENSVILLE HEIGHTS,OH,44122,2167517967,Profit,N,Y,362718,41.4453181,-81.5361075
362719,DSI - AKRON RENAL CENTER,525 EAST MARKET STREET,,AKRON,OH,44304,3303756848,Profit,Y,N,362719,41.081607,-81.500071
362720,"FMC - PREBLE COUNTY REGIONAL DIALYSIS, INC.",450 D. WASHINGTON - JACKSON RD.,,EATON,OH,45320,9374560400,Profit,Y,N,362720,39.76688,-84.646449
362721,CDC - YOUNGSTOWN HOME CARE,807 SOUTHWESTERN RUN,,POLAND,OH,44514,3307580995,Profit,N,Y,362721,40.98807,-80.637749
362723,FMC - DELAWARE DIALYSIS,36 TROY ROAD,,DELAWARE,OH,43015,7403637171,Profit,Y,Y,362723,40.3076454,-83.0902541
362724,FMC - OF TALAWANDA,5148 COLLEGE CORNER PIKE,,OXFORD,OH,45056,5135235960,Profit,Y,N,362724,39.5150298,-84.7535103
362725,FMC - KINGS MILLS,1992 KING AVENUE,,KINGS MILLS,OH,45034,5132045555,Profit,Y,N,362725,39.357382,-84.253035
362726,DAVITA DIALYSIS - URBANA,1880 US 36 E.,,URBANA,OH,43078,9374843500,Profit,Y,Y,362726,40.1062672,-83.7145688
362727,DAVITA - COLUMBUS WEST AT HOME,1391 GEORGESVILLE RD.,,COLUMBUS,OH,43228,6143081648,Profit,N,N,362727,39.9231386,-83.1206318
362728,DAVITA - DUBLIN,6770 PERIMETER DRIVE,,DUBLIN,OH,43016,6147988359,Profit,Y,N,362728,40.1046899,-83.1682364
362729,DAVITA - MIDWEST URBANA  DIALYSIS,"1430 U.S.HWY 36 E., SUITE A",,URBANA,OH,43078,9374844600,Profit,Y,N,362729,40.1063546,-83.7242015
362730,WADSWORTH DIALYSIS,"195 WADSWORTH ROAD, STE 302,  FOUNDERS HALL",,WADSWORTH,OH,44281,3303352300,Profit,Y,Y,362730,41.0256101,-81.7298519
362731,ROCKSIDE DIALYSIS,4801 ACORN DRIVE,,INDEPENDENCE,OH,44131,2165250990,Profit,Y,Y,362731,41.3927589,-81.6583019
362732,LOGAN DIALYSIS,12880 GREY STREET,,LOGAN,OH,43138,7403806049,Profit,Y,Y,362732,39.5407118,-82.4481038
362733,KIDNEY CARE CENTERS OF ZANESVILLE,3239 MAPLE AVENUE,,ZANESVILLE,OH,43701,7404501655,Profit,Y,Y,362733,39.980761,-82.0180389
362734,DAVITA - FOREST FAIR DIALYSIS,1145 KEMPER MEADOW DRIVE,,FOREST PARK,OH,45240,5136741691,Profit,Y,N,362734,39.2922748,-84.5246708
362735,US GRANT DIALYSIS,458 HOME STREET,,GEORGETOWN,OH,45121,9373781323,Profit,Y,N,362735,38.8553428,-83.8982925
362736,DAVITA - BATAVIA DIALYSIS,4000 GOLDEN AGE DRIVE,,BATAVIA,OH,45103,5137350700,Profit,Y,N,362736,39.079673,-84.141692
362737,KIDNEY SERVICES OF WEST CENTRAL OHIO - MERCER COUNTY,"801 PRO DRIVE, STE B",,CELINA,OH,45822,4195861686,Profit,Y,Y,362737,40.555357,-84.554081
362738,FMC - INDIAN HILLS,820 VETERANS DRIVE,,JACKSON,OH,45640,7402865556,Profit,Y,Y,362738,39.0367934,-82.6199184
362739,OHIO PIKE DIALYSIS,"1761 STATE ROUTE 125, SUITE G",,AMELIA,OH,45102,5137970713,Profit,Y,N,362739,39.0187311,-84.2005567
362740,EAST GALBRAITH DIALYSIS,"3877 E. GALBRAITH RD., BLDG C",,CINCINNATI,OH,45236,5137915900,Profit,Y,N,362740,39.208011,-84.404509
362741,HILLSBORO REGIONAL DIALYSIS,"1487 NORTH HIGH STREET, UNIT 1A",,HILLSBORO,OH,45133,9373939020,Profit,Y,Y,362741,39.23202,-83.611643
362742,DAVITA - NORWOOD DIALYSIS,2300 WALL STREET,,CINCINNATI,OH,45211,5135312111,Profit,Y,N,362742,39.1614802,-84.4524349
362743,REDBANK VILLAGE DIALYSIS,"3960 REDBANK RD., STE 160",,CINCINNATI,OH,45227,5132715420,Profit,Y,N,362743,39.1448481,-84.4049412
362744,CHERRY VALLEY DIALYSIS,1627 W. MAIN STREET,,NEWARK,OH,43055,7405221699,Profit,Y,Y,362744,40.042385,-82.4598
362745,FMC - AKRON WEST,3558 RIDGEWOOD RD,,AKRON,OH,44333,3306686200,Profit,Y,N,362745,41.1101821,-81.6412211
362746,LIBERTY DIALYSIS - KENWOOD,"8251 PINE ROAD, SUITE 110",,KENWOOD,OH,45236,5137450800,Profit,Y,Y,362746,39.207864,-84.3846613
362747,LIBERTY DIALYSIS - NORWOOD,2071 SHERMAN AVENUE,,NORWOOD,OH,45212,5138411800,Profit,Y,Y,362747,39.160497,-84.4573602
362748,RIVERS EDGE DIALYSIS,"1006 E. STATE ST., STE. B",,ATHENS,OH,45701,7405921364,Profit,Y,N,362748,39.3354418,-82.0555389
362749,DAVITA - VILLA OF GREAT NORTHERN,"22710 FAIRVIEW CENTER DR., STE 100",,FAIRVIEW PARK,OH,44126,4407344630,Profit,Y,N,362749,41.4608281,-81.8552568
362750,HIGHLAND COUNTY DIALYSIS,"120 ROBERTS LANE, SUITE 4",,HILLSBORO,OH,45133,9373933852,Profit,Y,Y,362750,39.2263925,-83.6186075
362751,DAVITA - CLERMONT INC,"5901 MONTCLAIR BLVD, SUITE 100",,MILFORD,OH,45150,5132480593,Profit,Y,N,362751,39.1912357,-84.2606005
362752,WARREN DIALYSIS CENTER,"8720 EAST MARKET STREET, STE 1A",,HOWLAND,OH,44484,3306095502,Profit,Y,Y,362752,41.237215,-80.73397
362753,DIALYSIS CENTER OF DAYTON - HOME HEMODIALYSIS,"1431 BUSINESS CENTER COURT, STE B",,DAYTON,OH,45410,9372089071,Profit,N,N,362753,39.7473174,-84.1293278
362754,DAVITA - DETROIT ROAD DIALYSIS,7901 DETROIT AVENUE,,CLEVELAND,OH,44102,2169616498,Profit,Y,N,362754,41.4816671,-81.7392892
362755,DAVITA - WESTSHORE DIALYSIS,29000 CENTER RIDGE RD - DIALYSIS,,WESTLAKE,OH,44145,4408351734,Profit,Y,N,362755,41.4553232,-81.9179173
362756,ST VINCENT QUADRANGLE DIALYSIS,2302 COMMUNITY COLLEGE AVENUE,,CLEVELAND,OH,44115,2165744805,Profit,Y,N,362756,41.4949508,-81.6720678
362757,FMC - WADSWORTH DIALYSIS,1160 WILLIAMS RESERVE BLVD.,,WADSWORTH,OH,44281,3303368070,Profit,Y,Y,362757,0,0
362758,CDC - BEACHWOOD DIALYSIS,27350 CEDAR ROAD,,BEACHWOOD,OH,44122,2163781580,Profit,Y,N,362758,41.498965,-81.486093
362759,US RENAL CARE OF KENWOOD,"5150 E. GALBRAITH RD., SUITE 101",,CINCINNATI,OH,45236,5137912698,Profit,Y,Y,362759,39.2070099,-84.377397
362760,DAVITA - VILLA OF FAIRVIEW PARK,19050 LORAIN ROAD,,FAIRVIEW PARK,OH,44126,4403331172,Profit,Y,N,362760,41.453483,-81.831171
362761,"BOARDMAN DIALYSIS CENTER, LLC",7153 TIFFANY BLVD.,,BOARDMAN,OH,44514,3307291355,Profit,Y,Y,362761,41.0254263,-80.6300225
362762,DCA OF EASTGATE,"4600 BEECHWOOD RD., SUITE 900",,CINCINNATI,OH,45245,5135283222,Profit,Y,N,362762,39.1138634,-84.3051449
362763,FMC - BRUNSWICK DIALYSIS CENTER,2583-2585 CENTER ROAD,,HINCKLEY,OH,44233,3302204366,Profit,Y,Y,362763,41.239996,-81.778761
362764,VILLA OF NORTH RIDGEVILLE,35143 CENTER RIDGE RD.,,NORTH RIDGEVILLE,OH,44039,4403530114,Profit,Y,Y,362764,41.392878,-82.008045
362765,DAVITA - DOVER DIALYSIS,899 E. IRON AVE.,,DOVER,OH,44622,3303646309,Profit,Y,Y,362765,40.515039,-81.451125
362766,DAVITA - AMHERST DIALYSIS,3200 COOPER FOSTER PARK RD. W.,,LORAIN,OH,44053,4409891410,Profit,Y,Y,362766,41.4183408,-82.2143617
363300,CINCINNATI CHILDRENS HOSPITAL MED CTR,"3333 BURNET AVENUE, UNIT - MLC 5008",,CINCINNATI,OH,45229,5136364443,Non-Profit,Y,Y,363300,39.1540971,-84.485507
363303,CHILDRENS HOSPITAL MEDICAL CTR - AKRON,ONE PERKINS SQUARE - DIALYSIS,,AKRON,OH,44308,3305438773,Non-Profit,Y,Y,363303,41.0825138,-81.5171254
363304,CLEVELAND CLINIC CHILDRENS HOSP FOR REHABILITATION,2801 MARTIN LUTHER KING JR DR,,CLEVELAND,OH,44104,2164486195,Non-Profit,Y,Y,363304,41.4827083,-81.6091834
363501,UVMC DIALYSIS SERVICES,3130 NORTH COUNTY RD. 25 A,OUTPATIENT DIALYSIS CENTER,TROY,OH,45373,9374404990,Non-Profit,Y,N,363501,40.3376454,-83.0380139
363504,LMH SATELLITE AT ST MARYS-DIALYSIS,200 ST CLAIR ST,,SAINT MARYS,OH,45885,4193946089,Non-Profit,Y,N,363504,40.5451822,-84.3701043
363509,AULTMAN DIALYSIS CENTER OF CANTON,2912 WEST TUSCARAWAS STREET,,CANTON,OH,44708,3304580150,Non-Profit,Y,Y,363509,40.7986094,-81.4069495
363510,ATRIUM MEDICAL CENTER OUTPATIENT DIALYSIS,"4421 ROOSEVELT BLVD., SUITE D",,MIDDLETOWN,OH,45044,5137272700,Non-Profit,Y,N,363510,39.4993398,-84.3528232
363511,FIRELANDS BELLEVUE DIALYSIS CENTER,"290 PROGRESS DRIVE, SUITE A",,BELLEVUE,OH,44811,4194832070,Non-Profit,Y,N,363511,41.289754,-82.8827
364000,"WRIGHT PATTERSON MEDICAL CENTER, HEMODIALYSIS DEPT.",4881 SUGAR MAPLE DRIVE,88MDOS/SGOMKH,WRIGHT PATTERSON AFB,OH,45433,9372570957,Non-Profit,Y,N,364000,39.8054924,-84.0348361
370018,JANE PHILLIPS DIALYSIS CTR,3500 SE STATE ST,,BARTLESVILLE,OK,74006,9183311770,Non-Profit,Y,N,370018,36.7530127,-95.9279508
370091,ST FRANCIS HOSPITAL-DIALYSIS,6161 S YALE AVE,,TULSA,OK,74136,9184945575,Non-Profit,Y,Y,370091,36.072803,-95.9194179
370093,OU MEDICAL CENTER-CHILDRENS DIALYSIS,DIALYSIS UNIT 6 EAST,1200 EVERETT DR STE 6015,OKLAHOMA CITY,OK,73104,4052713302,Profit,Y,Y,370093,35.4664084,-97.5057737
370114,ST JOHN KIDNEY DIALYSIS CTR-DIALYSIS,1923 E 21ST ST,,TULSA,OK,74114,9187443540,Non-Profit,Y,Y,370114,36.1333344,-95.9642081
372500,FMCNA - MEDICAL PLAZA DIALYSIS,3435 NW 56TH ST #600,,OKLAHOMA CITY,OK,73112,4059454440,Non-Profit,Y,Y,372500,0,0
372504,DAVITA - TULSA DIALYSIS,4436 S HARVARD AVE,,TULSA,OK,74135,9187440448,Profit,Y,Y,372504,36.100414,-95.940787
372505,DAVITA - STILLWATER,406 E HALL OF FAME AVE STE 300,,STILLWATER,OK,74075,4057070408,Profit,Y,N,372505,36.12756,-97.054107
372511,DAVITA - MIDWEST CITY,7221 E RENO AVE,,MIDWEST CITY,OK,73110,4058699600,Profit,Y,N,372511,35.464571,-97.401755
372512,DAVITA - TAHLEQUAH,228 N BLISS AVE,,TAHLEQUAH,OK,74464,9184562026,Profit,Y,N,372512,35.9145618,-94.9489315
372513,DAVITA - SHAWNEE,4409 N KICKAPOO SUITE 113,,SHAWNEE,OK,74804,4058786762,Profit,Y,Y,372513,35.363226,-96.929498
372514,DAVITA - CLAREMORE,202 E BLUE STARR DR,,CLAREMORE,OK,74017,9183421119,Profit,Y,N,372514,36.3218456,-95.6033715
372515,DAVITA - NORTHWEST BETHANY,7800 NW 23RD STE A,,BETHANY,OK,73008,4054958606,Profit,Y,Y,372515,35.4931011,-97.6506536
372518,DVA RENAL HEALTHCARE - OKLAHOMA CITY SOUTH,5730 S MAY AVE,,OKLAHOMA CITY,OK,73119,4056812221,Profit,Y,Y,372518,35.408124,-97.56458
372520,FMCNA - SOUTH OKC,5419 S WESTERN,,OKLAHOMA CITY,OK,73109,4056361570,Profit,Y,N,372520,35.411538,-97.530686
372522,DAVITA - DUNCAN,2645 W ELK,,DUNCAN,OK,73533,5802552205,Profit,Y,N,372522,34.521633,-97.9839291
372523,FMCNA - LAWTON WEST,EISENHOWER SQUARE,5110 WEST GORE BLVD STE 12,LAWTON,OK,73505,5802483733,Profit,Y,Y,372523,34.6102566,-98.4670717
372524,DAVITA - ALTUS,205 S PARK LN STE 130,,ALTUS,OK,73521,5804821197,Profit,Y,N,372524,34.635829,-99.316998
372527,DAVITA - NORMAN,1818 W LINDSEY BLDG B STE104,,NORMAN,OK,73069,4053609815,Profit,Y,N,372527,35.2585957,-97.4705935
372529,DVA RENAL HEALTHCARE - PRYOR,309 E GRAHAM,,PRYOR,OK,74361,9188253100,Profit,Y,N,372529,36.3073825,-95.3153837
372530,DVA RENAL HEALTHCARE - HEARTLAND DIALYSIS,925 NE EIGHTH,,OKLAHOMA CITY,OK,73104,4052363043,Profit,Y,Y,372530,35.476569,-97.495527
372531,DAVITA - ELK CITY DIALYSIS,1601 W 2ND ST,,ELK CITY,OK,73644,5802252700,Profit,Y,Y,372531,35.4127959,-99.4231697
372532,FMCNA - OKLAHOMA CITY,1011 N DEWEY STE 300,,OKLAHOMA CITY,OK,73102,4052363290,Profit,Y,Y,372532,35.477333,-97.5227305
372533,FMCNA - SHAWNEE,3807 N HARRISON,,SHAWNEE,OK,74801,4058789300,Profit,Y,Y,372533,35.3719332,-96.9120415
372536,FMCNA - MIAMI MIDWEST,2111 DENVER HARNER DR,,MIAMI,OK,74354,9185402700,Profit,Y,N,372536,36.898787,-94.859233
372538,FMCNA - SOUTH TULSA,8260 S LEWIS,,TULSA,OK,74137,9182992841,Profit,Y,Y,372538,36.0442416,-95.9577927
372539,FMCNA - NORTH CENTRAL OKLAHOMA CITY,200 NE 50TH ST,,OKLAHOMA CITY,OK,73105,4055570025,Profit,Y,Y,372539,35.522298,-97.5075988
372540,FMCNA - NORTHWEST OKLAHOMA CITY,3107 NW 50TH ST,,OKLAHOMA CITY,OK,73112,4059490237,Profit,Y,Y,372540,35.522535,-97.570383
372541,"DAVITA - RENAL TREATMENT CENTERS WEST, INC.",50 S BAUMANN AVE,,EDMOND,OK,73034,4053306646,Profit,Y,N,372541,35.654165,-97.4668859
372542,FMCNA - ARDMORE,1402 BROOKVIEW DR,,ARDMORE,OK,73401,5802269390,Profit,Y,Y,372542,34.18936,-97.152115
372544,FMCNA - EL RENO,1629 - B E HWY 66,,EL RENO,OK,73036,4052626900,Profit,Y,N,372544,35.5181527,-97.9503745
372545,DAVITA - STILWELL DIALYSIS,319 N SECOND ST,,STILWELL,OK,74960,9186962072,Profit,Y,N,372545,35.8176618,-94.6278478
372546,DAVITA - CENTRAL TULSA,1124 S ST LOUIS AVE,,TULSA,OK,74120,9185855557,Profit,Y,Y,372546,36.146943,-95.971271
372547,DAVITA - TRI-STATE DIALYSIS,2510 N MAIN,,MIAMI,OK,74354,9185401827,Profit,Y,N,372547,36.9055279,-94.8768769
372548,DAVITA - OKMULGEE,201 S DELAWARE,,OKMULGEE,OK,74447,9187563526,Profit,Y,N,372548,35.622396,-95.9666471
372549,DAVITA - MUSKOGEE COMMUNITY DIALYSIS CTR,2316 W SHAWNEE ST,,MUSKOGEE,OK,74401,9186870016,Profit,Y,N,372549,35.7698374,-95.3930494
372552,FMCNA - PONCA CITY,1208 E HARTFORD,,PONCA CITY,OK,74601,5807189357,Profit,Y,N,372552,36.72377,-97.068557
372553,FMCNA - HERITAGE PARK,310 S HIGHLAND AVE,,MIDWEST CITY,OK,73110,4057331891,Profit,Y,Y,372553,35.46295,-97.408044
372554,FMCNA - PAULS VALLEY,310 S CHICKASAW,,PAULS VALLEY,OK,73075,4052387252,Profit,Y,Y,372554,34.7394981,-97.2183837
372555,FMCNA - WOODWARD,909 18TH ST,,WOODWARD,OK,73801,5802560371,Profit,Y,Y,372555,36.4382315,-99.4022546
372556,STILLWATER MEDICAL CTR DIALYSIS,"1921 W SIXTH ST, BLDG B",,STILLWATER,OK,74074,4057079152,Profit,Y,N,372556,36.115301,-97.08238
372557,FMCNA - LAWTON EAST,4516 SE LEE BLVD  STE 108,,LAWTON,OK,73501,5803511430,Profit,Y,N,372557,0,0
372558,FMCNA - ENID DIALYSIS CTR,121 W OWEN K GARRIOTT,,ENID,OK,73701,5802334444,Profit,Y,Y,372558,0,0
372559,POTEAU DIALYSIS CTR,1200 CENTRAL ST,,POTEAU,OK,74953,9186479373,Profit,Y,N,372559,35.0635482,-94.6202458
372560,DAVITA - SAPULPA DIALYSIS,9647 RIDGEVIEW ST,,TULSA,OK,74131,9182249996,Profit,Y,N,372560,36.0290982,-96.082719
372561,DAVITA - CLINTON DIALYSIS CTR,150 S 31ST,,CLINTON,OK,73601,5803234349,Profit,Y,N,372561,35.5141553,-98.9995047
372562,SOONER DIALYSIS CTR - NORMAN,1561 N PORTER AVE,,NORMAN,OK,73071,4053293830,Profit,Y,Y,372562,35.237022,-97.440546
372563,DIALYSIS SPECIALISTS OF SEMINOLE,12581 N S 3540 CR,,SEMINOLE,OK,74818,4053829809,Profit,Y,N,372563,35.310034,-96.708741
372564,MCALESTER REGIONAL DIALYSIS CTR,2 CLARK BASS BLVD #101,,MCALESTER,OK,74501,9184218373,Profit,Y,Y,372564,0,0
372565,DAVITA - DURANT DIALYSIS,411 WESTSIDE DR,,DURANT,OK,74701,5809200808,Profit,Y,N,372565,34.000431,-96.4054275
372566,FMCNA - MUSKOGEE,3371 W BROADWAY,,MUSKOGEE,OK,74401,9186822272,Profit,Y,N,372566,35.7560228,-95.4045332
372567,DAVITA - SOUTHCREST,9001 S 101 EAST AVE STE 110,,TULSA,OK,74133,9183920920,Profit,Y,N,372567,36.0335283,-95.8646294
372568,DAVITA - CINEMA DIALYSIS,3909 S WESTERN AVE,,OKLAHOMA CITY,OK,73109,4056313775,Profit,Y,N,372568,35.4249272,-97.5302518
372569,DAVITA - GREENWOOD DIALYSIS,1345 N LANSING AVE,,TULSA,OK,74106,9185858811,Profit,Y,Y,372569,36.174702,-95.980026
372570,FMCNA - EAST TULSA,5147 S GARNETT RD STE C,,TULSA,OK,74146,9182503427,Profit,Y,N,372570,36.087795,-95.85022
372571,FMCNA - SOUTHWEST OKLAHOMA CITY,10301 GREENBRIAR PKWY,,OKLAHOMA CITY,OK,73159,4056913433,Profit,Y,N,372571,35.365507,-97.545067
372572,DAVITA - CHICKASHA DIALYSIS CTR,228 S 29TH ST,,CHICKASHA,OK,73018,4052249901,Profit,Y,Y,372572,35.0490516,-97.9703368
372573,NRA - ADA DIALYSIS CTR,324 NW J.A. RICHARDSON LOOP,,ADA,OK,74820,5804219131,Profit,Y,Y,372573,0,0
372574,SOONER DIALYSIS - LAWTON,924 SW 38TH ST,,LAWTON,OK,73505,5803511716,Profit,Y,Y,372574,0,0
372575,DAVITA - ANADARKO,412 SE 11TH,,ANADARKO,OK,73005,4052472299,Profit,Y,Y,372575,35.072562,-98.2436625
372576,FMCNA - HENRYETTA,2405 W MAIN ST STE A,,HENRYETTA,OK,74437,9186524418,Profit,Y,N,372576,35.4397692,-96.0090437
372577,"OKLAHOMA KIDNEY CARE DX, LLC","13901 MCAULEY BLVD, STE 102",,OKLAHOMA CITY,OK,73134,4057485812,Profit,Y,Y,372577,35.612575,-97.5983558
372578,FMCNA - NORTH TULSA,2309 W EDISON STE A,,TULSA,OK,74127,9185920724,Profit,Y,N,372578,36.1612989,-96.017647
372579,HOME DIALYSIS CTR,1059 SE 82ND,,OKLAHOMA CITY,OK,73149,4055126912,Profit,N,Y,372579,35.3844538,-97.493679
372580,EUFAULA DIALYSIS CTR,480 EUNICE BURNS RD,,EUFAULA,OK,74432,9186897919,Profit,Y,N,372580,35.2873206,-95.5824846
372581,FMCNA - EDMOND EAST,301 KATIE MICHELLE BLVD,,EDMOND,OK,73034,4053419926,Profit,Y,N,372581,35.6514743,-97.4320257
373508,ST JOHN KIDNEY CTR-N HARVARD,1515 N HARVARD STE D,,TULSA,OK,74115,9188355599,Non-Profit,Y,N,373508,36.177864,-95.939568
373509,ST JOHN-SAPULPA DIALYSIS,1013 E CLEVELAND,,SAPULPA,OK,74066,9182273351,Non-Profit,Y,N,373509,35.992424,-96.099878
380006,RAY YASUI DIALYSIS CENTER,1125 MAY ST,,HOOD RIVER,OR,97031,5413876377,Non-Profit,Y,N,380006,45.703856,-121.522968
380061,PROVIDENCE PORTLAND MEDICAL CENTER DIALYSIS UNIT,4805 NE GLISAN,,PORTLAND,OR,97213,5032156021,Non-Profit,Y,N,380061,45.526532,-122.614665
382500,DSI NORTHEAST OREGON RENAL CENTER,5318 NE IRVING,,PORTLAND,OR,97213,5032841939,Profit,Y,N,382500,45.528201,-122.6081126
382502,SALEM DIALYSIS,3550 LIBERTY RD S SUITE 100,,SALEM,OR,97302,5033718047,Profit,Y,Y,382502,44.90384,-123.050033
382505,ROGUE VALLEY DIALYSIS SERVICES,760 GOLF VIEW DR STE 100,,MEDFORD,OR,97504,5417764805,Profit,Y,Y,382505,42.315081,-122.82369
382507,QUALICENTERS - ALBANY LTD,1050 7TH AVE SW,,ALBANY,OR,97321,5419281021,Profit,Y,Y,382507,44.6313244,-123.1160864
382508,QUALICENTERS - EUGENE-SPRINGFIELD LTD,304 Q ST,,SPRINGFIELD,OR,97477,5417418005,Profit,Y,N,382508,44.062601,-123.022103
382509,PNRS HOME DIALYSIS,2300 SW 6TH AVE STE 101,,PORTLAND,OR,97201,5032214932,Profit,N,Y,382509,45.506379,-122.683828
382510,FMC COOS BAY,1971 THOMPSON RD,,COOS BAY,OR,97420,5412669204,Profit,Y,Y,382510,43.3860358,-124.2357976
382511,PORTLAND DIALYSIS CENTER,10595 SE STARK ST,,PORTLAND,OR,97216,5032520019,Profit,Y,N,382511,45.5192003,-122.5542318
382512,FMC EUGENE,201 RIVER AVE,,EUGENE,OR,97404,5417434335,Profit,Y,Y,382512,44.09648,-123.123925
382513,REDWOOD DIALYSIS SERVICES,"201 SW ""L"" STREET",,GRANTS PASS,OR,97526,5414740776,Profit,Y,N,382513,42.435705,-123.330946
382514,ROSEBURG/MERCY DIALYSIS,2599 NW EDENBOWER BLVD,,ROSEBURG,OR,97471,5416777357,Profit,Y,Y,382514,43.2359588,-123.3668474
382515,QUALICENTERS - SALEM LTD,3878 BEVERLY AVE NE STE 11 BLDG H,,SALEM,OR,97305,5033636065,Profit,Y,Y,382515,44.9602239,-122.984085
382516,WOODBURN DIALYSIS,1840 NEWBERG HWY STE 140,,WOODBURN,OR,97071,5039822005,Profit,Y,N,382516,45.148983,-122.868204
382518,QUALICENTERS - BEND LLC,2275 NE DOCTORS DR  SUITE 1,,BEND,OR,97701,5413858668,Profit,Y,Y,382518,44.069895,-121.267937
382519,FOUR RIVERS DIALYSIS CENTER,515 EAST LANE,,ONTARIO,OR,97914,5418899557,Profit,Y,Y,382519,44.020216,-116.940935
382520,DSI WILLAMETTE VALLEY RENAL CENTER,1510 DIVISION ST STE 90,,OREGON CITY,OR,97045,5035571373,Profit,Y,N,382520,45.357248,-122.587605
382521,PNRS BEAVERTON,2715 SW 153RD DR,,BEAVERTON,OR,97006,5035201363,Profit,Y,N,382521,45.499926,-122.836358
382522,PNRS ROSE QUARTER,4905 NE MARTIN LUTHER KING BLVD,,PORTLAND,OR,97211,5032887020,Profit,Y,N,382522,45.5578072,-122.6616142
382523,PNRS EMANUEL,2801 N GANTENBEIN AVE STE 4400,,PORTLAND,OR,97227,5034134346,Profit,Y,N,382523,45.5428235,-122.6694497
382524,PNRS TUALATIN,7780 SW MOHAWK ST,,TUALATIN,OR,97062,9712244000,Profit,Y,N,382524,45.3764055,-122.7574315
382525,PNRS TWIN OAKS,"1815 NW 169TH PL, STE 1000 BLDG 1",,BEAVERTON,OR,97006,5036904883,Profit,Y,N,382525,45.5329732,-122.852211
382526,PNRS CLACKAMAS KIDNEY CENTER,13560 SE 97TH AVE,,PORTLAND,OR,97015,5036598200,Profit,Y,N,382526,45.4219916,-122.5591762
382527,PNRS HOLLYWOOD DIALYSIS,2824 NE WASCO ST,,PORTLAND,OR,97232,5034938227,Profit,Y,N,382527,45.5319302,-122.6369465
382529,SAMARITAN DIALYSIS CORVALLIS,3580 NW SAMARITAN DR,,CORVALLIS,OR,97330,5417685182,Profit,Y,Y,382529,44.603541,-123.253539
382530,SALEM NORTH DIALYSIS,1220 LIBERTY ST NE,,SALEM,OR,97301,5033152212,Profit,Y,N,382530,44.951877,-123.033357
382531,PNRS EASTERN OREGON DIALYSIS CLINIC,710 SUNSET DR STE A,,LA GRANDE,OR,97850,5416638420,Profit,Y,Y,382531,45.318398,-118.105077
382532,SAMARITAN DIALYSIS LEBANON,100 MULLINS DR STE C2,,LEBANON,OR,97355,5414517865,Profit,Y,Y,382532,44.5365119,-122.9070339
382534,DSI SUNNYSIDE RENAL CENTER,"6902 SE LAKE RD, SUITE 100",,MILWAUKIE,OR,97267,5037941288,Profit,Y,N,382534,45.422829,-122.592364
382535,PNRS ASTORIA DIALYSIS,"2120 EXCHANGE ST, STE 100",,ASTORIA,OR,97103,5033383885,Profit,Y,N,382535,46.188798,-123.818235
382536,PNRS RAINES DIALYSIS,1809 MAPLE ST,,FOREST GROVE,OR,97116,5033597972,Profit,Y,Y,382536,45.517168,-123.090251
382537,PNRS EVERGREEN DIALYSIS,345 SE NORTON LN STE B,,MCMINNVILLE,OR,97128,5034742680,Profit,Y,N,382537,45.2020382,-123.1665824
382538,GRESHAM DIALYSIS CENTER,1360 E POWELL BLVD,,GRESHAM,OR,97030,5034651650,Profit,Y,N,382538,45.4979208,-122.4178996
382540,DSI NORTHEAST PORTLAND RENAL CENTER,703 NE HANCOCK,,PORTLAND,OR,97212,5034933322,Profit,Y,Y,382540,45.536786,-122.658275
382543,FMC DIALYSIS MT HOOD,100 SE CLEVELAND,,GRESHAM,OR,97080,5036744955,Profit,Y,N,382543,45.497373,-122.420759
382544,HERMISTON COMMUNITY DIALYSIS CENTER,1155 WEST LINDA AVE SUITE A,,HERMISTON,OR,97838,5412891122,Profit,Y,Y,382544,45.8460056,-119.3127682
382545,TILLAMOOK DIALYSIS CENTER,1000 THIRD ST,,TILLAMOOK,OR,97141,5038420444,Profit,Y,N,382545,45.4565145,-123.8547261
382546,SHERWOOD DIALYSIS CENTER,21035 SW PACIFIC HIGHWAY,,SHERWOOD,OR,97140,5039250105,Profit,Y,Y,382546,45.36755,-122.848157
382547,PORTLAND HOME DIALYSIS CLINIC,11300 NE HALSEY SUITE 220,,PORTLAND,OR,97220,5032544426,Profit,N,Y,382547,45.532932,-122.545904
382548,PNRS NEWBERG DIALYSIS CENTER,3100 HAWORTH AVE,,NEWBERG,OR,97132,5035370100,Profit,Y,N,382548,45.307406,-122.948075
382549,MERIDIAN PARK DIALYSIS CENTER,19255 SW 65TH AVE SUITE 100,,TUALATIN,OR,97062,5036928159,Profit,Y,Y,382549,45.381328,-122.744526
382550,HILLSBORO DIALYSIS CENTER,2500 NW 229TH AVE SUITE 300 BLDG E,,HILLSBORO,OR,97124,5036819460,Profit,Y,Y,382550,45.545944,-122.908941
382551,FMC REDMOND,916 SW 17TH ST STE 100,,REDMOND,OR,97756,5415482778,Profit,Y,N,382551,44.268505,-121.18617
382552,GRANTS PASS DIALYSIS CENTER,1055 REDWOOD AVE,,GRANTS PASS,OR,97527,5416777357,Profit,Y,Y,382552,42.422063,-123.349815
382553,WEST LINN DIALYSIS CENTER,19056 WILLAMETTE DRIVE,,WEST LINN,OR,97068,5036360244,Profit,Y,N,382553,45.3874884,-122.6417852
382554,BLUE MOUNTAIN KIDNEY CENTER,72556 COYOTE RD,,PENDLETON,OR,97801,5419668563,Profit,Y,Y,382554,45.6442692,-118.6858192
382555,PNRS ST HELENS DIALYSIS,500 N COLUMBIA RIVER HWY STE 510,,SAINT HELENS,OR,97051,5033979777,Profit,Y,N,382555,45.8641106,-122.8203447
382556,FMC WEST SALEM,1060 2ND ST NW,,SALEM,OR,97304,5037633257,Profit,Y,N,382556,44.9426555,-123.056069
382557,KLAMATH FALLS DIALYSIS,2230 N ELDORADO,,KLAMATH FALLS,OR,97601,5418838989,Profit,Y,N,382557,42.2480775,-121.7860608
382558,MCMINNVILLE DIALYSIS,200 NE NORTON LANE,,MCMINNVILLE,OR,97128,5034350597,Profit,Y,Y,382558,45.2009423,-123.1665384
383510,SAMARITAN PACIFIC DIALYSIS,957 SW COAST HWY,,NEWPORT,OR,97365,5415744870,Non-Profit,Y,Y,383510,44.6272183,-124.0613814
390006,GEISINGER HEALTH SYSTEM,100 NORTH ACADEMY AVENUE,,DANVILLE,PA,17822,5702716392,Non-Profit,Y,Y,390006,40.9678905,-76.6050616
390035,ST. LUKES QUAKERTOWN HOSPITAL,1021 PARK AVENUE,PO BOX 9003,QUAKERTOWN,PA,18951,2155384665,Non-Profit,Y,N,390035,40.4384996,-75.3489542
390046,WELLSPAN DIALYSIS-YORK,308 ST. CHARLES WAY,,YORK,PA,17402,7178516500,Non-Profit,Y,Y,390046,39.9295931,-76.6921797
390049,ST. LUKES HOSPITAL DIALYSIS CENTER,801 OSTRUM STREET,,BETHLEHEM,PA,18015,6109544894,Non-Profit,Y,N,390049,40.608805,-75.393333
390073,ALTOONA REGIONAL HEALTH SYSTEM,DIALYSIS UNIT,620 HOWARD AVENUE,ALTOONA,PA,16601,8148892847,Non-Profit,Y,Y,390073,40.5186809,-78.3947359
390079,ROBERT PACKER HOSPITAL,GUTHRIE SQUARE,,SAYRE,PA,18840,5708824431,Non-Profit,Y,Y,390079,41.9789631,-76.515499
390100,LANCASTER GENERAL HEALTH CAMPUS,2100 HARRISBURG PIKE,,LANCASTER,PA,17604,7175443122,Non-Profit,Y,Y,390100,40.062165,-76.3518689
390119,MOSES TAYLOR HOSPITAL RENAL UNIT,700 QUINCY AVENUE,,SCRANTON,PA,18510,5703402880,Non-Profit,Y,Y,390119,41.411074,-75.650908
390123,RENAL CARE CENTER - POTTSTOWN MEMORIAL MEDICAL CENTER,13 ARMAND HAMMER BLVD.,,POTTSTOWN,PA,19464,6103277700,Profit,Y,N,390123,40.2430113,-75.6139864
39012F,VA PITTSBURGH HEALTHCARE SYSTEM,UNIVERSITY DRIVE C,,PITTSBURGH,PA,15240,4123606181,Non-Profit,Y,Y,39012F,40.4460484,-79.9612433
390142,ALBERT EINSTEIN MEDICAL CENTER,5501 OLD YORK ROAD,LEVY GROUND FLOOR,PHILADELPHIA,PA,19141,2154566980,Non-Profit,Y,Y,390142,40.0368315,-75.1444505
390164,UPMC PRESBYTERIAN - RENAL UNIT,200 LOTHROP STREET,SUITE MUH N-739,PITTSBURGH,PA,15213,4126473114,Non-Profit,Y,N,390164,40.441939,-79.9605179
390256,M.S. HERSHEY MEDICAL CENTER,"M.C. HU23, UNIVERSITY PHYSICIANS CENTER 1400",500 UNIVERSITY DRIVE,HERSHEY,PA,17033,7175315033,Non-Profit,Y,Y,390256,40.2859239,-76.6502468
392501,FRESENIUS MEDICAL CARE PHILADELPHIA,4216 MARKET STREET,,PHILADELPHIA,PA,19104,2156625990,Profit,Y,N,392501,39.957445,-75.206715
392502,DAVITA - WAVERLY DIALYSIS,WAVERLY,407 BALTIMORE PIKE,MORTON,PA,19070,6106901100,Profit,Y,Y,392502,39.9168957,-75.3306254
392503,FRESENIUS MEDICAL CARE PITTSBURGH,5301 FIFTH AVENUE,,PITTSBURGH,PA,15232,4126838814,Profit,Y,Y,392503,40.448319,-79.935253
392505,FRESENIUS MEDICAL CARE ALLENTOWN,3136 HAMILTON STREET,,ALLENTOWN,PA,18103,6104356718,Profit,Y,Y,392505,40.579965,-75.520728
392506,FRESENIUS MEDICAL CARE ABINGTON,1036 NORTH EASTON ROAD,,WILLOWGROVE,PA,19090,2156575595,Profit,Y,Y,392506,40.1550579,-75.122263
392507,FRESENIUS MEDICAL CARE CENTRAL PHILADELPHIA,417 NORTH 8TH STREET,,PHILADELPHIA,PA,19123,2154133050,Profit,Y,N,392507,39.9590317,-75.151926
392508,UPLAND DIALYSIS CENTER,"PROFESSIONAL OFFICE BUILDING 2, SUITE 120",ONE MEDICAL CENTER BLVD,UPLAND,PA,19013,6104472825,Profit,Y,N,392508,39.8526124,-75.3826921
392509,NRI/DSI NORTHERN PHILADELPHIA,5933 NORTH BROAD STREET,,PHILADELPHIA,PA,19141,2155495000,Profit,Y,N,392509,40.0438608,-75.143644
392511,FRESENIUS MEDICAL CARE BETHLEHEM,"2014 CITY LINE ROAD, SUITE 200",(REAR OF VALLEY ACCESS CENTER),BETHLEHEM,PA,18017,6102649660,Profit,Y,Y,392511,40.654973,-75.419447
392512,FRESENIUS MEDICAL CARE WILKES-BARRE,"307 LAIRD STREET, SUITE #1",,WILKES-BARRE,PA,18702,5708259531,Profit,Y,Y,392512,0,0
392513,DAVITA - WEST PHILADELPHIA DIALYSIS,7609 LINDBERG BOULEVARD,,PHILADELPHIA,PA,19153,2159371103,Profit,Y,N,392513,39.9049477,-75.2377255
392515,FRESENIUS MEDICAL CARE EAST NORRITON,2925 DEKALB PIKE,,NORRISTOWN,PA,19401,6102790776,Profit,Y,Y,392515,40.1422496,-75.3122198
392516,DAVITA - ROXBOROUGH DIALYSIS,5003 UMBRIA STREET,,PHILADELPHIA,PA,19128,2154871869,Profit,Y,N,392516,40.036506,-75.236019
392517,FRESENIUS MEDICAL CARE EASTON,3501 NORTHWOOD AVENUE,,EASTON,PA,18045,6102534278,Profit,Y,Y,392517,40.709604,-75.277021
392518,FRESENIUS MEDICAL CARE POTTSVILLE,278 INDUSTRIAL PARK ROAD,,POTTSVILLE,PA,17901,5704291900,Profit,Y,Y,392518,0,0
392520,FRESENIUS MEDICAL CARE GREENSBURG,"MEDICAL ARTS BUILDING, GROUND FLOOR",562 SHEARER STREET,GREENSBURG,PA,15601,7248328061,Profit,Y,Y,392520,40.3014581,-79.5389289
392521,DAVITA - PHILADELPHIA - 42ND STREET,4126 WALNUT STREET,,PHILADELPHIA,PA,19104,2153870500,Profit,Y,Y,392521,39.954198,-75.206163
392522,EXTON DIALYSIS CENTER,710 SPRINGDALE DRIVE,,EXTON,PA,19341,6105243700,Profit,Y,Y,392522,40.02942,-75.608229
392523,DAVITA - BRADFORD DIALYSIS,665 EAST MAIN STREET,,BRADFORD,PA,16701,8143627417,Profit,Y,Y,392523,41.9707206,-78.6207151
392524,FRESENIUS MEDICAL CARE HAZLETON,110 BUTLER DRIVE,,HAZLETON,PA,18201,5704543558,Profit,Y,Y,392524,40.9350871,-75.9763239
392528,DIALYSIS CENTER OF ERIE,1641 SASSAFRAS STREET,,ERIE,PA,16502,8144556455,Profit,Y,Y,392528,42.1184264,-80.0825045
392530,FRESENIUS MEDICAL CARE TEMPLE DIALYSIS - GERMANTOWN,"3401 FOX STREET, SUITE C",,PHILADELPHIA,PA,19129,2152213120,Non-Profit,Y,N,392530,40.0089451,-75.1730303
392531,DAVITA - FRANKLIN DIALYSIS CENTER,150 SOUTH INDEPENDENCE WEST,101 PUBLIC LEDGER BUILDING,PHILADELPHIA,PA,19106,2159222801,Profit,Y,N,392531,39.949128,-75.15099
392532,DAVITA - MCKEESPORT DIALYSIS,OAK PARK MALL,2001 LINCOLN WAY,WHITE OAK,PA,15131,4126780183,Profit,Y,Y,392532,40.33799,-79.806931
392533,FRESENIUS MEDICAL CARE NORTHEAST PHILADELPHIA,"900 EAST HOWELL STREET, SUITE A",,PHILADELPHIA,PA,19149,2158316170,Profit,Y,Y,392533,40.0383116,-75.0912491
392534,DAVITA - CAMP HILL DIALYSIS CENTER,"PLAZA 21 BUILDING, 1ST FLOOR",425 NORTH 21ST STREET,CAMP HILL,PA,17011,7177377795,Profit,Y,Y,392534,40.2375722,-76.9188757
392535,DCI OF NEW KENSINGTON,722 FOURTH AVENUE,,NEW KENSINGTON,PA,15068,7243391772,Non-Profit,Y,Y,392535,40.563217,-79.765698
392536,DAVITA - COBBS CREEK DIALYSIS,1700 SOUTH 60TH STREET,,PHILADELPHIA,PA,19142,2157300500,Profit,Y,N,392536,39.935484,-75.234259
392537,DAVITA - MEADVILLE DIALYSIS,19050 PARK AVENUE PLAZA,,MEADVILLE,PA,16335,8143366044,Profit,Y,Y,392537,41.643064,-80.2272264
392538,DAVITA - PHILADELPHIA - PMC,51 NORTH 39TH STREET,,PHILADELPHIA,PA,19104,2156620691,Profit,Y,Y,392538,39.9572391,-75.1995344
392539,FRESENIUS MEDICAL CARE WYNNEWOOD,"LANKENAU HOSPITAL MEDICAL OFFICE BUILDING - EAST, GROUND FLOOR","100 WEST LANCASTER AVENUE, SUITE 165",WYNNEWOOD,PA,19096,6108968539,Profit,Y,Y,392539,40.002778,-75.271111
392540,FRESENIUS MEDICAL CARE FAIRMOUNT,1241 NORTH TANEY STREET,,PHILADELPHIA,PA,19121,2152366634,Profit,Y,Y,392540,39.9750877,-75.179366
392541,"RENAL CARE OF OIL CITY, INC.",6945 US ROUTE 322,"CRANBERRY MALL, SUITE 640",CRANBERRY,PA,16319,8146777034,Profit,Y,Y,392541,41.35331,-79.716386
392542,FRESENIUS MEDICAL CARE WESTERN PENNSYLVANIA,5124 LIBERTY AVENUE,,PITTSBURGH,PA,15224,4126820205,Profit,Y,Y,392542,40.458015,-79.942789
392543,DAVITA - ERIE DIALYSIS,350 EAST BAYFRONT PARKWAY,SUITE A,ERIE,PA,16507,8144540480,Profit,Y,Y,392543,42.138396,-80.081362
392544,FRESENIUS MEDICAL CARE SOUTH HILLS,4651 LIBRARY ROAD,,BETHEL PARK,PA,15102,4128351229,Profit,Y,Y,392544,40.34959,-80.02272
392545,BELMONT COURT DIALYSIS - DOYLESTOWN CAMPUS,252 BELMONT AVENUE,,DOYLESTOWN,PA,18901,2153487333,Profit,Y,N,392545,40.315138,-75.124512
392546,FRESENIUS MEDICAL CARE HERMITAGE,"2425 GARDEN WAY, SUITE 102",,HERMITAGE,PA,16148,7243470700,Profit,Y,N,392546,41.2373391,-80.4641377
392547,FRESENIUS MEDICAL CARE EAST STROUDSBURG,125 SOUTH COURTLAND STREET,,EAST STROUDSBURG,PA,18301,5704761606,Profit,Y,Y,392547,40.997191,-75.1829805
392548,DCI OF PHILADELPHIA,3300 HENRY AVENUE,4TH FLOOR,PHILADELPHIA,PA,19129,2158483127,Non-Profit,Y,Y,392548,40.012694,-75.183778
392549,PENNSYLVANIA DIALYSIS CLINIC OF READING,625 SPRING STREET,,WYOMISSING,PA,19610,6103751215,Profit,Y,Y,392549,40.34667,-75.963388
392551,FRESENIUS MEDICAL CARE DELCO,1740 SOUTH STATE ROAD,,UPPER DARBY,PA,19082,6107343501,Profit,Y,Y,392551,39.9603123,-75.2837441
392552,FRESENIUS MEDICAL CARE NEW CASTLE,207 WEST LAUREL AVENUE,,NEW CASTLE,PA,16101,7246581216,Profit,Y,Y,392552,41.009004,-80.3494611
392553,FRESENIUS MEDICAL CARE UNIONTOWN,100 WOODLAWN AVENUE,SUITE 175,UNIONTOWN,PA,15401,7244393320,Profit,Y,Y,392553,39.9009333,-79.737687
392554,"CENTRAL KITTANNING DIALYSIS CENTER, LLC",ONE NOLTE DRIVE,"700 MEDICAL ARTS, SUITE 720",KITTANNING,PA,16201,7245433151,Profit,Y,Y,392554,40.808716,-79.5604253
392555,NORTHEAST PHILADELPHIA DIALYSIS CENTER,518 KNORR STREET,,PHILADELPHIA,PA,19111,2157454859,Profit,Y,N,392555,40.053885,-75.0900116
392556,SOUTH PHILADELPHIA DIALYSIS CENTER,109 DICKINSON STREET,,PHILADELPHIA,PA,19147,2154686616,Profit,Y,N,392556,39.9290714,-75.1471959
392557,"GSH DIALYSIS, INC.",440 OAK STREET,,LEBANON,PA,17042,7172747552,Non-Profit,Y,Y,392557,40.333494,-76.418073
392559,FRESENIUS MEDICAL CARE THREE RIVERS,1401 FORBES AVENUE,,PITTSBURGH,PA,15219,4122818233,Profit,Y,Y,392559,40.4377362,-79.9853444
392560,FRESENIUS MEDICAL CARE NORTHWEST PHILADELPHIA,"4190 CITY AVENUE, SUITE 124",ROWLAND HALL,PHILADELPHIA,PA,19131,2158717774,Profit,Y,Y,392560,40.0049048,-75.2179507
392561,FRESENIUS MEDICAL CARE LATROBE,121 WEST 2ND STREET,ONE MELLON WAY,LATROBE,PA,15650,7245379830,Profit,Y,Y,392561,40.3218512,-79.3929883
392562,FRESENIUS MEDICAL CARE LIMERICK,420 WEST LINFIELD TRAPPE ROAD,BUILDING B SUITE 100,LIMERICK,PA,19468,6104950010,Profit,Y,Y,392562,40.2161392,-75.5409858
392563,"DCI RENAL SERVICES OF PITTSBURGH, LLC - MONROEVILLE",4445 OLD WILLIAM PENN HIGHWAY,,MONROEVILLE,PA,15146,4123723455,Profit,Y,Y,392563,40.4459,-79.761826
392565,FRESENIUS MEDICAL CARE MON VALLEY,VISTA ONE PROFESSIONAL CENTER,"17 ARENTZEN BOULEVARD, SUITE 105",CHARLEROI,PA,15022,7244890850,Profit,Y,Y,392565,40.1378499,-79.8981035
392567,"DCI RENAL SERVICES OF PITTSBURGH, LLC - BANKSVILLE",2727 BANKSVILLE ROAD,,PITTSBURGH,PA,15216,4123417410,Profit,Y,Y,392567,40.4050101,-80.0383959
392568,FRESENIUS MEDICAL CARE EPISCOPAL,FRONT STREET & LEHIGH AVENUE,"MEDICAL ARTS BUILDING, SUITE L-7",PHILADELPHIA,PA,19125,2157070478,Profit,Y,N,392568,42.025158,-97.6708649
392569,FRESENIUS MEDICAL CARE PARKVIEW,1333 EAST WYOMING AVENUE,"SUITE 1090, MEDICAL BUILDING",PHILADELPHIA,PA,19124,2157449028,Profit,Y,Y,392569,40.0183319,-75.0984337
392572,BELMONT COURT DIALYSIS - WARMINSTER CAMPUS,225 NEWTOWN ROAD,,WARMINSTER,PA,18974,2159577990,Profit,Y,Y,392572,40.184454,-75.0807398
392573,DAVITA - JEFFERSON DIALYSIS,14 CLAIRTON BOULEVARD,,PITTSBURGH,PA,15236,4126536007,Profit,Y,Y,392573,40.3419583,-79.9664026
392574,DCI OF JEANNETTE,"520 JEFFERSON AVENUE, SUITE 301",,JEANNETTE,PA,15644,7245236386,Non-Profit,Y,Y,392574,40.319642,-79.611053
392575,FRESENIUS MEDICAL CARE BRYN MAWR,130 SOUTH BRYN MAWR AVENUE,THE CLOTHIER BUILDING,BRYN MAWR,PA,19010,4843373465,Profit,Y,N,392575,40.018826,-75.321154
392576,FRESENIUS MEDICAL CARE CLAIRTON,SOUTH HILLS MEDICAL BUILDING,"575 COAL VALLEY ROAD, SUITE 262",CLAIRTON,PA,15025,4124697011,Profit,Y,Y,392576,40.292292,-79.881715
392577,BELMONT COURT DIALYSIS - NORTHEAST CAMPUS,"2200 MICHENER STREET, SUITE 20",,PHILADELPHIA,PA,19115,2156768800,Profit,Y,Y,392577,40.0797918,-75.0313037
392578,FRESENIUS MEDICAL CARE ELLWOOD CITY,1407 WOODSIDE AVENUE,,ELLWOOD CITY,PA,16117,7247583446,Profit,Y,Y,392578,40.8737672,-80.2640427
392579,FRESENIUS MEDICAL CARE OHIO VALLEY,ROBINSON PLAZA #3,"ROUTE 60, SUITE 110",PITTSBURGH,PA,15205,4124946902,Profit,Y,Y,392579,0,0
392580,DAVITA - CORRY DIALYSIS,300 YORK STREET,,CORRY,PA,16407,8146647520,Profit,Y,Y,392580,41.923682,-79.652357
392581,DCI OF NORTH HILLS,3412 BABCOCK BLVD.,,PITTSBURGH,PA,15237,4126350211,Non-Profit,Y,Y,392581,40.53868,-80.023049
392582,HONESDALE DIALYSIS CENTER,STOURBRIDGE MALL,ROUTE 6 AND MAPLE AVENUE,HONESDALE,PA,18431,5702530952,Profit,Y,N,392582,41.5767552,-75.2587871
392584,PALMERTON DIALYSIS CENTER,185-C DELAWARE AVENUE,,PALMERTON,PA,18071,6108265929,Profit,Y,Y,392584,40.800689,-75.613572
392586,"DCI RENAL SERVICES OF PITTSBURGH, LLC - POINT BREEZE",7620 MEADE STREET,,PITTSBURGH,PA,15221,4122475223,Profit,Y,Y,392586,0,0
392587,READING DIALYSIS CENTER,2201 DENGLER STREET,,READING,PA,19606,6103705323,Profit,Y,Y,392587,40.329199,-75.893634
392588,DCI OF MOUNT PLEASANT,20 EAST MAIN STREET,,MOUNT PLEASANT,PA,15666,7245476511,Non-Profit,Y,Y,392588,40.147141,-79.533883
392590,FRESENIUS MEDICAL CARE MOUNT PLEASANT,208 CROSS ROADS PLAZA,"R D 7, BOX 1040",MOUNT PLEASANT,PA,15666,7245471939,Profit,Y,Y,392590,40.1239931,-79.554082
392591,GIRARD DIALYSIS CENTER,8TH STREET AND GIRARD AVENUE,,PHILADELPHIA,PA,19122,2157872278,Profit,Y,N,392591,39.9705754,-75.1499437
392592,FRESENIUS MEDICAL CARE SHADYSIDE,4925 BAUM BOULEVARD,,PITTSBURGH,PA,15213,4126872279,Profit,Y,Y,392592,40.4550217,-79.9455981
392594,FRESENIUS MEDICAL CARE HARRISBURG,4343 UNION DEPOSIT ROAD,UNION COURT,HARRISBURG,PA,17111,7175645690,Profit,Y,Y,392594,40.278283,-76.812192
392595,DAVITA - PARIS DIALYSIS,32 STEUBENVILLE PIKE,,PARIS,PA,15021,7247293350,Profit,Y,Y,392595,40.4041389,-80.5155949
392597,DCI OF WASHINGTON,280 NORTH AVENUE,,WASHINGTON,PA,15301,7242298834,Non-Profit,Y,N,392597,40.1783304,-80.2359292
392598,DAVITA - LEWISTOWN DIALYSIS,611 ELECTRIC AVENUE,,LEWISTOWN,PA,17044,7172482344,Profit,Y,Y,392598,40.618916,-77.5638953
392600,DAVITA - DELAWARE VALLEY DIALYSIS CENTER,102 DAVITA DRIVE,,MILFORD,PA,18337,5704919210,Profit,Y,N,392600,41.322316,-74.8023882
392601,NRI/DSI PHILADELPHIA,3310-24 MEMPHIS STREET,,PHILADELPHIA,PA,19134,2157399558,Profit,Y,N,392601,39.990523,-75.103947
392602,DCA OF WELLSBORO,223 TIOGA STREET,,WELLSBORO,PA,16901,5707243188,Profit,Y,Y,392602,41.7514389,-77.2976301
392603,FRESENIUS MEDICAL CARE WHITEHALL,1320 MICKLEY ROAD,,WHITEHALL,PA,18052,6102642228,Profit,Y,Y,392603,40.642645,-75.484602
392604,DAVITA - ELIZABETHTOWN DIALYSIS,844 NORTH HANOVER STREET,,ELIZABETHTOWN,PA,17022,7173610151,Profit,Y,N,392604,40.1633344,-76.609034
392605,FRESENIUS MEDICAL CARE TEMPLE DIALYSIS - ONTARIO,"3401 FOX STREET, BUILDING 5",SUITE A,PHILADELPHIA,PA,19129,2152213160,Profit,Y,Y,392605,40.0089451,-75.1730303
392606,DAVITA - POCONO DIALYSIS CENTER,"447 OFFICE PLAZA, BUILDING 100, SUITE B",,EAST STROUDSBURG,PA,18301,5704765630,Profit,Y,N,392606,41.004762,-75.161822
392609,DAVITA - LANCASTER,1412 EAST KING STREET,,LANCASTER,PA,17602,7173921552,Profit,Y,N,392609,40.0379488,-76.275703
392610,"DCI RENAL SERVICES OF PITTSBURGH, LLC - OAKLAND",3260 FIFTH AVENUE,,PITTSBURGH,PA,15213,4126473700,Profit,Y,Y,392610,40.4377513,-79.9644686
392612,DCA OF BEDFORD,141 MEMORIAL DRIVE,,EVERETT,PA,15537,8146232977,Profit,Y,N,392612,40.0263345,-78.4315764
392613,DAVITA - NORTHUMBERLAND DIALYSIS,103 WEST STATE ROUTE 61,,MT. CARMEL,PA,17851,5703395558,Profit,Y,N,392613,40.7987005,-76.4159614
392614,DAVITA - ABINGTON DIALYSIS,3940-A COMMERCE AVENUE,,WILLOW GROVE,PA,19090,2158301115,Profit,Y,Y,392614,40.162109,-75.133066
392616,NEWTOWN DIALYSIS CENTER,60 BLACKSMITH ROAD,,NEWTOWN,PA,18940,2677578060,Profit,Y,Y,392616,40.2224867,-74.9151741
392617,DAVITA - SELLERSVILLE DIALYSIS,1112 OLD BETHLEHEM PIKE,,SELLERSVILLE,PA,18960,2152570950,Profit,Y,Y,392617,40.344623,-75.303571
392618,BELMONT COURT DIALYSIS - ROOSEVELT CAMPUS,6593 ROOSEVELT BOULEVARD,,PHILADELPHIA,PA,19149,2155376000,Profit,Y,Y,392618,40.0360113,-75.064953
392619,PALMER DIALYSIS CENTER,30 COMMUNITY DRIVE,,EASTON,PA,18045,6102588855,Profit,Y,Y,392619,40.685829,-75.255146
392620,FRESENIUS MEDICAL CARE CARBON COUNTY,168 SARGENT STANLEY HOFFMAN BOULEVARD,,LEHIGHTON,PA,18235,6103790330,Profit,Y,Y,392620,40.8355608,-75.7075959
392621,FRESENIUS MEDICAL CARE PITTSTON,455 NORTH MAIN STREET,,PITTSTON,PA,18640,5706554115,Profit,Y,N,392621,41.3353124,-75.7864866
392622,DCI OF BEAVER FALLS / CHIPPEWA,2562 CONSTITUTION BOULEVARD,,BEAVER FALLS,PA,15010,7248915044,Non-Profit,Y,N,392622,40.772643,-80.372111
392623,DCI OF GROVE CITY,631 NORTH BROAD STREET EXTENSION,,GROVE CITY,PA,16127,7244580877,Non-Profit,Y,Y,392623,41.1578377,-80.0886703
392626,FRESENIUS MEDICAL CARE REDSTONE,685 B NATIONAL PIKE WEST,,BROWNSVILLE,PA,15417,7246325800,Profit,Y,Y,392626,40.0128418,-79.8705466
392627,DCA OF CARLISLE,"101 NOBLE BOULEVARD, SUITE 103",,CARLISLE,PA,17013,7172583099,Profit,Y,Y,392627,40.191856,-77.193376
392628,DAVITA - SELINSGROVE DIALYSIS,1030 NORTH SUSQUEHANNA TRAIL,,SELINSGROVE,PA,17870,5703741160,Profit,Y,Y,392628,40.82456,-76.843867
392629,FRESENIUS MEDICAL CARE CAMBRIA,2850 NORTH 21ST STREET,,PHILADELPHIA,PA,19132,2152276883,Profit,Y,N,392629,39.9979147,-75.1654381
392630,DAVITA - RADNOR DIALYSIS,250 KING OF PRUSSIA ROAD,,RADNOR,PA,19087,6102540070,Profit,Y,Y,392630,40.042598,-75.3584
392631,JENNERSVILLE DIALYSIS CENTER,1011 WEST BALTIMORE PIKE,SUITE 107,WEST GROVE,PA,19390,6103450188,Profit,Y,N,392631,39.821722,-75.88899
392632,FRESENIUS MEDICAL CARE PENN HILLS,11624 KELEKET DRIVE,,PITTSBURGH,PA,15235,4122443931,Profit,Y,Y,392632,40.4586216,-79.8184684
392633,FRESENIUS MEDICAL CARE ALTOONA,1602 NINTH AVENUE,,ALTOONA,PA,16602,8149402440,Profit,Y,Y,392633,40.5104712,-78.4020579
392634,FRESENIUS MEDICAL CARE CUMBERLAND COUNTY,254 EAST HIGH STREET,,CARLISLE,PA,17013,7172402944,Profit,Y,Y,392634,40.200508,-77.182867
392635,DAVITA - WYNCOTE,CEDARBROOK PLAZA,"1000 EASTON ROAD, SUITE 250",WYNCOTE,PA,19095,2158843398,Profit,Y,N,392635,40.081737,-75.168997
392636,DCI OF SEVEN FIELDS,201 HIGHPOINTE DRIVE,,SEVEN FIELDS,PA,16046,7247793930,Non-Profit,Y,Y,392636,40.687508,-80.060973
392637,FRESENIUS MEDICAL CARE GREENE COUNTY,11 INDUSTRIAL PARK ROAD,,CARMICHAELS,PA,15320,7249669292,Profit,Y,Y,392637,39.8967425,-79.9744992
392638,FRESENIUS MEDICAL CARE SLATEBELT,525 EAST WEST STREET,,WIND GAP,PA,18091,6108637852,Profit,Y,N,392638,40.8475351,-75.2840818
392639,DCI OF NORTH BOROUGH CLINIC,100 SOUTH JACKSON AVENUE,7TH CENTRAL,PITTSBURGH,PA,15202,4127666590,Non-Profit,Y,N,392639,40.494134,-80.060205
392640,FRESENIUS MEDICAL CARE MONTGOMERY EAST,1350 POWELL STREET,,NORRISTOWN,PA,19401,6102777535,Profit,Y,N,392640,40.124151,-75.335539
392641,DAVITA - WAYNESBURG DIALYSIS,248 ELM DRIVE,,WAYNESBURG,PA,15370,7246273997,Profit,Y,Y,392641,39.89577,-80.1474122
392642,FRESENIUS MEDICAL CARE CRANBERRY,5 ST FRANCIS WAY,,CRANBERRY TOWNSHIP,PA,16066,7247799770,Profit,Y,N,392642,40.6843677,-80.0990382
392644,DIALYSIS CENTER AT OXFORD COURT,"930 TOWN CENTER DRIVE, SUITE G-100",,LANGHORNE,PA,19047,2157509831,Profit,Y,N,392644,40.1871969,-74.8777216
392646,DCI OF SHENANGO VALLEY,737 BROOKSHIRE DRIVE,,HERMITAGE,PA,16148,7243423040,Non-Profit,Y,Y,392646,41.2433464,-80.4525957
392647,FRESENIUS MEDICAL CARE STATE COLLEGE,3901 SOUTH ATHERTON STREET,SUITE 7,STATE COLLEGE,PA,16801,8144667029,Profit,Y,Y,392647,40.782101,-77.801356
392648,DCA OF CHAMBERSBURG,PARK FIFTH AVE. PROFESSIONAL CENTER,"765 FIFTH AVENUE, SUITE A",CHAMBERSBURG,PA,17201,7172639300,Profit,Y,Y,392648,39.9375911,-77.6611022
392649,FRESENIUS MEDICAL CARE SWARTHMORE,709 SOUTH CHESTER ROAD,,SWARTHMORE,PA,19081,6105410468,Profit,Y,Y,392649,39.8898561,-75.3540592
392650,FRESENIUS MEDICAL CARE MILLERSBURG,75 EVELYN DRIVE,,MILLERSBURG,PA,17061,7176922145,Profit,Y,N,392650,40.554416,-76.955614
392651,FRESENIUS MEDICAL CARE DONORA,470 GALIFFA DRIVE,,DONORA,PA,15033,7243797650,Profit,Y,Y,392651,40.1686177,-79.8591853
392653,FRESENIUS MEDICAL CARE CITYLINE,2601 NORTH 3RD STREET,SUITE 101,HARRISBURG,PA,17110,7179099450,Profit,Y,Y,392653,40.288044,-76.898667
392656,DCA OF HUNTINGDON,820 BRYAN STREET,SUITE 4,HUNTINGDON,PA,16652,8146433600,Profit,Y,N,392656,40.4931808,-78.0128209
392657,DCI OF PARKS BEND,1143 INDUSTRIAL PARK ROAD,,VANDERGRIFT,PA,15690,7248453313,Non-Profit,Y,Y,392657,40.630763,-79.578262
392658,FRESENIUS MEDICAL CARE MT. AIRY,6656-60 GERMANTOWN AVENUE,,PHILADELPHIA,PA,19119,2158431600,Profit,Y,Y,392658,0,0
392659,FRESENIUS MEDICAL CARE PALMYRA/LEBANON COUNTY,38-42 N. LONDONDERRY SQUARE,ROUTE 422,PALMYRA,PA,17078,7178386050,Profit,Y,Y,392659,40.3197239,-76.568305
392660,DCI OF CLARION,65 DOLBY STREET,,CLARION,PA,16214,8142272222,Non-Profit,Y,Y,392660,41.1959977,-79.3925094
392661,BELMONT COURT DIALYSIS - TORRESDALE CAMPUS,1 WOODHAVEN MALL,SUITE 100,BENSALEM,PA,19020,2156331231,Profit,Y,N,392661,40.119722,-75.014024
392662,DAVITA - HOMESTEAD DIALYSIS,207 WEST 7TH AVENUE,,WEST HOMESTEAD,PA,15120,4124768700,Profit,Y,Y,392662,40.405507,-79.914409
392663,FRESENIUS MEDICAL CARE GRADUATE,"1740 SOUTH STREET, SUITE 100",,PHILADELPHIA,PA,19146,2155462183,Profit,Y,N,392663,39.944183,-75.171728
392664,FRESENIUS MEDICAL CARE OLNEY,2154-58 STENTON AVENUE,,PHILADELPHIA,PA,19138,2155483704,Profit,Y,N,392664,40.0547316,-75.156974
392665,"RENAL CENTER OF PHILADELPHIA, LLC","5630 CHESTNUT STREET, 2ND FLOOR",,PHILADELPHIA,PA,19139,2154768301,Profit,Y,N,392665,39.9594949,-75.2343155
392666,WARREN DIALYSIS,2 CRESCENT PARK WEST,,WARREN,PA,16365,8147285570,Profit,Y,Y,392666,41.843272,-79.154769
392667,FRESENIUS MEDICAL CARE DOYLESTOWN,708 SHADY RETREAT ROAD,SUITE 5,DOYLESTOWN,PA,18901,2153489690,Profit,Y,Y,392667,40.3172634,-75.1437378
392669,FRESENIUS MEDICAL CARE SHALER,880 BUTLER STREET,SHALER PLAZA,PITTSBURGH,PA,15223,4127823790,Profit,Y,Y,392669,40.5108329,-79.9464599
392670,FRESENIUS MEDICAL CARE NANTICOKE,450 WEST MAIN STREET,,NANTICOKE,PA,18634,5707404820,Profit,Y,Y,392670,41.1949029,-76.01203
392671,FRESENIUS MEDICAL CARE LANSDALE,120 MEDICAL CAMPUS DRIVE,,LANSDALE,PA,19446,2158538300,Profit,Y,N,392671,40.2504711,-75.2695327
392672,FRESENIUS MEDICAL CARE CAPITAL AREA,1300 LINGLESTOWN ROAD,1ST FLOOR,HARRISBURG,PA,17110,7172348840,Profit,Y,Y,392672,40.326804,-76.882311
392674,"DCI RENAL SERVICES OF PITTSBURGH, LLC - NORTH VERSAILLES",613 EAST PITTSBURGH MCKEESPORT BOULEVARD,,NORTH VERSAILLES,PA,15137,4126750960,Profit,Y,Y,392674,40.3714726,-79.8283838
392676,"DCI RENAL SERVICES OF PITTSBURGH, LLC - HARMAR VILLAGE",725 FREEPORT ROAD,,CHESWICK,PA,15024,7242757801,Profit,Y,Y,392676,40.5409696,-79.8188703
392677,BUTLER COUNTY DIALYSIS CENTER,229 WEST DIAMOND STREET,,BUTLER,PA,16001,7244312241,Profit,Y,Y,392677,40.8584467,-79.897102
392678,LOCK HAVEN DIALYSIS CLINIC,257 SOUTH HANNA STREET,,LOCK HAVEN,PA,17745,5707483800,Profit,Y,N,392678,41.1297152,-77.4361405
392680,FRESENIUS MEDICAL CARE EAST HILLS,10922 (REAR) FRANKSTOWN ROAD,,PITTSBURGH,PA,15235,4127313656,Profit,Y,N,392680,40.4647536,-79.8528167
392681,DCI OF PUNXSUTAWNEY,158 ELMWOOD DRIVE,,PUNXSUTAWNEY,PA,15767,8149389045,Non-Profit,Y,Y,392681,40.961191,-78.997191
392682,DAVITA - HUNTINGDON VALLEY DIALYSIS,769 HUNTINGDON PIKE,,HUNTINGDON VALLEY,PA,19006,2153791788,Profit,Y,N,392682,40.0877595,-75.0936913
392683,DCI OF INDIANA,841 HOSPITAL ROAD,SUITE 3500,INDIANA,PA,15701,7244657010,Non-Profit,Y,Y,392683,40.6021411,-79.1619615
392684,WILLIAMSPORT DIALYSIS CLINIC,1660 SYCAMORE ROAD,SUITE B,MONTOURSVILLE,PA,17754,5703293300,Profit,Y,Y,392684,41.2621292,-76.9500304
392685,FRESENIUS MEDICAL CARE KUTZTOWN,45 CONSTITUTION BOULEVARD,,KUTZTOWN,PA,19530,6106839766,Profit,Y,Y,392685,40.517408,-75.7752129
392686,DAVITA - EBENSBURG,236 JAMESWAY ROAD,,EBENSBURG,PA,15931,8144722025,Profit,Y,N,392686,40.474548,-78.745238
392687,DAVITA - JOHNSTOWN,344 BUDFIELD STREET,,JOHNSTOWN,PA,15904,8142664949,Profit,Y,Y,392687,40.2699892,-78.8465987
392688,THE KIDNEY CENTER OF GREATER HAZLETON,426 AIRPORT ROAD,2 BELTWAY COMMONS,HAZLE TOWNSHIP,PA,18202,5704500870,Profit,Y,Y,392688,40.9910595,-76.0020809
392689,FRESENIUS MEDICAL CARE BERWICK,301 MARKET STREET,,BERWICK,PA,18603,5707529180,Profit,Y,N,392689,41.055962,-76.235125
392690,FRESENIUS MEDICAL CARE DUNMORE,"1416 MONROE AVENUE, FIRST FLOOR",,DUNMORE,PA,18509,5704961179,Profit,Y,Y,392690,41.4272224,-75.6499025
392691,DCA OF MECHANICSBURG,120 SOUTH FILBERT STREET,,MECHANICSBURG,PA,17055,7177906080,Profit,Y,Y,392691,40.214058,-76.9994789
392692,DAVITA - OAK SPRINGS DIALYSIS,764 LOCUST AVENUE,,WASHINGTON,PA,15301,7242297377,Profit,Y,N,392692,40.1937131,-80.238265
392694,FRESENIUS MEDICAL CARE HAHNEMANN,BROAD AND VINE STREETS,18TH FLOOR DIALYSIS,PHILADELPHIA,PA,19102,2157627039,Profit,Y,N,392694,39.9576659,-75.1625353
392695,DCI OF HILLPOINTE,131 HILLPOINTE DRIVE,,CANONSBURG,PA,15317,7248731242,Non-Profit,Y,Y,392695,40.2782157,-80.1730161
392696,"ST. LUKES NORTH DIALYSIS CENTER, L.P.","89 SOUTH COMMERCE WAY, SUITE 900",,BETHLEHEM,PA,18017,6109542888,Profit,Y,Y,392696,40.672039,-75.383788
392697,FRESENIUS MEDICAL CARE MT. OLIVER,1630 ARLINGTON AVENUE,P.O. BOX 59419,PITTSBURGH,PA,15210,4124815602,Profit,Y,Y,392697,40.417079,-79.987535
392698,"DCI RENAL SERVICES OF PITTSBURGH, LLC - FIVE POINTS",2534 MONROEVILLE BOULEVARD,,MONROEVILLE,PA,15146,4128235422,Profit,Y,Y,392698,40.427638,-79.786682
392699,DAVITA - PITTSBURGH DIALYSIS,4312 PENN AVENUE,,PITTSBURGH,PA,15224,4126818556,Profit,Y,Y,392699,40.465644,-79.953962
392700,DAVITA - MCKEESPORT WEST DIALYSIS,101 9TH STREET,,MCKEESPORT,PA,15132,4126723720,Profit,Y,N,392700,40.3465766,-79.867855
392701,FRESENIUS MEDICAL CARE WAYNESBORO,27 VISTA DRIVE,,WAYNESBORO,PA,17268,7177658880,Profit,Y,N,392701,39.7525812,-77.5663072
392702,DAVITA - WALNUT TOWERS,834 WALNUT STREET,,PHILADELPHIA,PA,19107,2156291490,Profit,Y,Y,392702,39.9482775,-75.1562076
392704,DAVITA - CLEARFIELD DIALYSIS,"1033 TURNPIKE AVENUE, SUITE 100",,CLEARFIELD,PA,16830,8147657585,Profit,Y,N,392704,41.034384,-78.4505779
392705,DAVITA - MOUNT POCONO DIALYSIS,100 COMMUNITY DRIVE,SUITE 106,TOBYHANNA,PA,18466,5708390900,Profit,Y,N,392705,41.152986,-75.390896
392706,DAVITA - EPHRATA,67 WEST CHURCH STREET,,STEVENS,PA,17578,7173357399,Profit,Y,N,392706,40.2203984,-76.1303286
392707,DCA OF POTTSTOWN,5 SOUTH SUNNYBROOK ROAD,SUITE 500,POTTSTOWN,PA,19464,6107181127,Profit,Y,Y,392707,40.2440361,-75.6094127
392708,FRESENIUS MEDICAL CARE TAMAQUA,1215 EAST BROAD STREET,,TAMAQUA,PA,18252,5706686494,Profit,Y,Y,392708,40.8028293,-75.95021
392710,DAVITA - ELIZABETH DIALYSIS,201 MCKEESPORT ROAD,,ELIZABETH,PA,15037,4123841822,Profit,Y,Y,392710,40.2746489,-79.8827691
392711,FRESENIUS MEDICAL CARE SOUTH ALLENTOWN,2820 MITCHELL AVENUE,,ALLENTOWN,PA,18103,6107977655,Profit,Y,Y,392711,40.560895,-75.480409
392713,RENAL CARE OF CLARION,825 EAST MAIN STREET,,CLARION,PA,16214,8142234655,Profit,Y,Y,392713,41.2122718,-79.3792413
392714,FRESENIUS MEDICAL CARE NAZARETH,2601 HOLME AVENUE,"GROUND FLOOR, MARION BUILDING",PHILADELPHIA,PA,19152,2153350668,Profit,Y,Y,392714,40.0583758,-75.043557
392715,NEW CASTLE DIALYSIS CENTER,"100 SOUTH JEFFERSON STREET, SUITE 187",,NEW CASTLE,PA,16101,7246522585,Profit,Y,Y,392715,40.9985227,-80.3471043
392716,LIBERTY DIALYSIS - WASHINGTON,90 WEST CHESTNUT STREET,100 EAST WING,WASHINGTON,PA,15301,7242287398,Profit,Y,N,392716,40.1720624,-80.2481573
392717,LIBERTY DIALYSIS - SOUTHPOINTE,1200 CORPORATE DRIVE,,CANONSBURG,PA,15317,7247455565,Profit,Y,Y,392717,40.2987897,-80.175986
392718,DAVITA - PHILADELPHIA - MARKET STREET,3701 MARKET STREET,,PHILADELPHIA,PA,19104,2153872658,Profit,Y,N,392718,39.9564491,-75.1961361
392719,DAVITA - LINCOLN WAY DIALYSIS,1303 LINCOLN WAY,SUITE A,WHITE OAK,PA,15131,4126731191,Profit,Y,N,392719,40.3512157,-79.8207615
392720,LIBERTY DIALYSIS - HOPEWELL,400 CORPORATION DRIVE,,ALIQUIPPA,PA,15001,7243786304,Profit,Y,Y,392720,40.560366,-80.272002
392721,LIBERTY DIALYSIS - BADEN,1682 STATE STREET,,BADEN,PA,15005,7248692830,Profit,Y,Y,392721,40.6466209,-80.2332829
392723,DUNMORE DIALYSIS,1212 O'NEAL HIGHWAY,,DUNMORE,PA,18512,5705580190,Profit,Y,Y,392723,41.4198027,-75.6324112
392724,CHILDS DIALYSIS,101 SOUTH MAIN STREET,,CHILDS,PA,18407,5702819201,Profit,Y,N,392724,41.568498,-75.502861
392725,TUNKHANNOCK DIALYSIS,880 STATE ROUTE 6W,BOX 273,TUNKHANNOCK,PA,18657,5708366139,Profit,Y,N,392725,41.5474657,-75.9182028
392726,OLD FORGE DIALYSIS,325 SOUTH MAIN STREET,,OLD FORGE,PA,18518,5704573174,Profit,Y,N,392726,41.369479,-75.737405
392727,LIBERTY DIALYSIS - BANKSVILLE,2875 BANKSVILLE ROAD,,PITTSBURGH,PA,15216,4123433060,Profit,Y,Y,392727,40.4039849,-80.0398672
392728,DCA OF SELINSGROVE,21 SUSQUEHANNA VALLEY MALL DRIVE,SUITE D,SELINSGROVE,PA,17870,5703745577,Profit,Y,N,392728,40.827623,-76.845693
392729,SCRANTON DIALYSIS,REAR 475 MORGAN HIGHWAY,,SCRANTON,PA,18508,5703418270,Profit,Y,N,392729,41.4445004,-75.6735024
392731,DCA OF YORK,1975 KENNETH ROAD,,YORK,PA,17408,7177648322,Profit,Y,Y,392731,39.9837803,-76.7819406
392732,LIBERTY DIALYSIS - FRIENDSHIP RIDGE,246 FRIENDSHIP CIRCLE,,BEAVER,PA,15009,7247284320,Profit,Y,N,392732,40.7073641,-80.3282364
392733,LIBERTY DIALYSIS - CHIPPEWA,100 PAPPAN BUSINESS DRIVE,,BEAVER FALLS,PA,15010,7248465030,Profit,Y,Y,392733,40.7776522,-80.3898061
392734,FRESENIUS MEDICAL CARE MURRYSVILLE,20 WESCO LANE,,EXPORT,PA,15632,7243255445,Profit,Y,Y,392734,40.403319,-79.6000835
392735,DIALYSIS CENTER OF BUCKS COUNTY,1900 FROST ROAD,,BRISTOL,PA,19007,2157850382,Profit,Y,Y,392735,40.1153622,-74.8975194
392736,LANGHORNE DIALYSIS CENTER,880 TOWN CENTER DRIVE,,LANGHORNE,PA,19047,2157574115,Profit,Y,Y,392736,40.1880047,-74.8813056
392738,"PRODIGY DIALYSIS, LLC - RICHLAND SQUARE",RICHLAND SQUARE I,"1405 EISENHOWER BLVD, SUITE 200",JOHNSTOWN,PA,15904,8142627560,Profit,Y,N,392738,40.2895226,-78.8548957
392739,RIDDLE DIALYSIS CENTER,"100 GRANITE DRIVE, SUITE 106",,MEDIA,PA,19063,6108924701,Profit,Y,Y,392739,39.910905,-75.433846
392740,DCI OF HASTINGS,"264 HAIDA AVENUE, SUITE D",,HASTINGS,PA,16646,8142478075,Non-Profit,Y,N,392740,40.6594147,-78.7094515
392741,FRESENIUS MEDICAL CARE CHAMBERSBURG,755 NORLAND AVENUE,SUITE 104,CHAMBERSBURG,PA,17201,7172638505,Profit,Y,Y,392741,39.9434225,-77.6389271
392742,BENSALEM DIALYSIS CENTER,1336 BRISTOL PIKE,,BENSALEM,PA,19020,2156388671,Profit,Y,Y,392742,40.0719855,-74.9650983
392743,LIBERTY DIALYSIS - DOYLESTOWN,2800 KELLY ROAD,SUITE 110,WARRINGTON,PA,18976,2154887226,Profit,Y,Y,392743,40.26615,-75.135713
392745,PHYSICIANS DIALYSIS OF LANCASTER LLC,"2110 HARRISBURG PIKE, SUITE 310",,LANCASTER,PA,17601,7175440560,Profit,N,Y,392745,40.0670207,-76.3533833
392746,KIDNEY CARE SERVICES OF DUBOIS,635 D MAPLE AVENUE,,DUBOIS,PA,15801,8143756295,Profit,Y,Y,392746,41.1158441,-78.7487522
392747,KIDNEY CARE SERVICES OF PHILIPSBURG,1031 NORTH FRONT STREET,,PHILIPSBURG,PA,16866,8143420280,Profit,Y,Y,392747,40.901876,-78.232017
392748,DAVITA - EAST END PITTSBURGH,7714 PENN AVENUE,,PITTSBURGH,PA,15221,4122416790,Profit,Y,Y,392748,40.4466468,-79.8937087
392749,DAVITA - CALLOWHILL,313 CALLOWHILL STREET,,PHILADELPHIA,PA,19123,2156293580,Profit,Y,N,392749,39.9576955,-75.1451095
392750,DCA OF CAMP HILL,158 SOUTH 32ND STREET #19,,CAMP HILL,PA,17011,7177310506,Profit,Y,Y,392750,0,0
392751,DAVITA - BLOOMFIELD - PITTSBURGH,5171 LIBERTY AVENUE,SUITE C,PITTSBURGH,PA,15224,4126833212,Profit,Y,Y,392751,40.4575899,-79.941479
392752,DAVITA - MONROEVILLE,2690 MONROEVILLE BOULEVARD,,MONROEVILLE,PA,15146,4128565950,Profit,Y,Y,392752,40.435479,-79.7807009
392753,DAVITA - BROAD STREET,1172-74 SOUTH BROAD STREET,,PHILADELPHIA,PA,19146,2158756720,Profit,Y,N,392753,39.935958,-75.1677909
392754,"PRODIGY DIALYSIS, LLC - EBENSBURG",429 MANOR DRIVE,,EBENSBURG,PA,15931,8144198107,Profit,Y,N,392754,40.4890037,-78.7043777
392755,FRESENIUS MEDICAL CARE CAMP HILL,"240 GRANDVIEW AVENUE, SUITE 200",,CAMP HILL,PA,17011,7177377800,Profit,Y,Y,392755,40.259306,-76.920371
392756,DAVITA - FRANKLIN DIALYSIS AT HOME,301 CALLOWHILL STREET,,PHILADELPHIA,PA,19123,2158730711,Profit,N,Y,392756,39.9575839,-75.1442488
392757,"PRODIGY DIALYSIS, LLC - SOMERSET",211 GEORGIAN PLACE,,SOMERSET,PA,15501,8144431600,Profit,Y,N,392757,40.0199486,-79.0745201
392758,"PRODIGY DIALYSIS, LLC - MEYERSDALE",312 SHERMAN STREET,,MEYERSDALE,PA,15552,8146347032,Profit,Y,N,392758,39.8076578,-79.025949
392759,ARA DIALYSIS UNIT AT OHIO VALLEY HOSPITAL LLC,MEDICAL ARTS BUILDING,"27 HECKEL ROAD, SUITE 113",MCKEES ROCKS,PA,15136,4123312423,Profit,Y,Y,392759,40.4656244,-80.0656106
392760,"PRODIGY DIALYSIS, LLC - OSBORNE STREET",88 OSBORNE STREET,,JOHNSTOWN,PA,15905,8145390798,Profit,Y,Y,392760,40.3030146,-78.9146718
392763,"NORTH CENTRAL PENNSYLVANIA DIALYSIS CENTER - LEWISBURG, LLC",135 JPM ROAD,,LEWISBURG,PA,17837,5707684660,Profit,Y,N,392763,40.9782439,-76.891793
392764,DAVITA - WILLOW GROVE DIALYSIS CENTER,1849 DAVISVILLE ROAD,,WILLOW GROVE,PA,19090,2156593426,Profit,Y,N,392764,40.1388662,-75.1187791
392765,"RENAL CARE-PARTNERS OF ST MARYS, LLC",765 JOHNSONBURG ROAD,,SAINT MARYS,PA,15857,8147885005,Profit,Y,Y,392765,41.4256027,-78.5760763
392766,COTTMAN KIDNEY CENTER,7198 CASTER AVENUE,,PHILADELPHIA,PA,19149,2157454060,Profit,Y,Y,392766,40.0490542,-75.0681842
392768,DAVITA - ALLEGHENY VALLEY DIALYSIS,1620 PACIFIC AVENUE,HEIGHTS PLAZA SHOPPING CENTER,NATRONA HEIGHTS,PA,15065,7242244382,Profit,Y,N,392768,40.62196,-79.7232594
392769,DAVITA - NORTHSIDE DIALYSIS,320 EAST NORTH AVENUE,"4TH FLOOR, SOUTH TOWER",PITTSBURGH,PA,15212,4123594898,Profit,Y,Y,392769,40.456532,-80.002592
392770,FRESENIUS MEDICAL CARE HARSTON HALL,350 HAWS LANE,,FLOURTOWN,PA,19031,2152330181,Profit,Y,N,392770,40.1032099,-75.2013331
392771,FRANKLIN COMMONS DIALYSIS,"720 JOHNSVILLE BOULEVARD, SUITE 800",,WARMINSTER,PA,18974,2156827691,Profit,Y,N,392771,40.1975167,-75.0742529
392772,DAVITA - PITTSBURGH HOME MODALITY CENTER OF EXCELLENCE,5171 LIBERTY AVENUE,BUILDING A,PITTSBURGH,PA,15224,4126050415,Profit,N,Y,392772,40.4575899,-79.941479
392773,WOODHAVEN DIALYSIS CENTER,"1336 BRISTOL PIKE, SUITE B",,BENSALEM,PA,19020,2156391070,Profit,Y,Y,392773,40.0719855,-74.9650983
392776,DAVITA - FRACKVILLE,801 SCHUYLKILL MALL ROAD,,FRACKVILLE,PA,17931,5708741238,Profit,Y,N,392776,40.7711818,-76.2368094
392777,"RENAL CARE PARTNERS, INC. - PHILADELPHIA",2910 SOUTH 70TH STREET,SUITE 3A,PHILADELPHIA,PA,19142,2159371673,Profit,Y,Y,392777,39.9133565,-75.2328978
392778,DAVITA - SOMERSET COUNTY DIALYSIS,229 SOUTH KIMBERLY AVENUE,SUITE 100,SOMERSET,PA,15501,8144456127,Profit,Y,Y,392778,40.0069808,-79.0764184
392779,DAVITA - THORN RUN DIALYSIS,1136 THORN RUN ROAD,SUITE J1,MOON TOWNSHIP,PA,15108,4122692304,Profit,Y,N,392779,40.5041769,-80.2092813
393302,CHILDRENS HOSPITAL OF PITTSBURGH OF UPMC DIALYSIS UNIT,ONE CHILDREN'S HOSPITAL DRIVE,4401 PENN AVENUE,PITTSBURGH,PA,15224,4128648717,Non-Profit,Y,Y,393302,40.4621606,-79.9444526
393303,CHILDRENS HOSPITAL OF PHILADELPHIA,34TH STREET AND CIVIC CENTER BOULEVARD,DIALYSIS UNIT - 2143 MAIN BUILDING,PHILADELPHIA,PA,19104,2155904600,Non-Profit,Y,Y,393303,39.9488219,-75.192923
393307,ST. CHRISTOPHERS HOSPITAL FOR CHILDREN,ERIE AVENUE AT FRONT STREET,,PHILADELPHIA,PA,19134,2154275118,Profit,Y,Y,393307,40.0076627,-75.1273323
393505,LITTLESTOWN DIALYSIS CENTER,43 COLUMBUS AVENUE,,LITTLESTOWN,PA,17340,7173598110,Non-Profit,Y,Y,393505,39.7435921,-77.0976781
393515,ROBERT PACKER HOSPITAL - TOWANDA SATELLITE UNIT,603 WILLIAMS STREET,,TOWANDA,PA,18848,5702652209,Non-Profit,Y,Y,393515,41.7832279,-76.4456897
393518,GMC OUTPATIENT DIALYSIS UNIT - JUSTIN DRIVE,100 JUSTIN DRIVE,,DANVILLE,PA,17822,5702716392,Non-Profit,Y,N,393518,42.905927,-71.1453724
400013,CAYEY DIALYSIS CNTR,BO. RINCON SECTOR LOMAS,CARR. 14 KM 12.1,CAYEY,PR,737,7872631001,Non-Profit,Y,Y,400013,0,0
400044,PONCE REGIONAL HOSPITAL DIALYSIS,609 AVE TITO CASTRO STE 102,PMB 380,PONCE,PR,716,7878433315,Non-Profit,Y,Y,400044,18.0261089,-66.5993352
400061,CENTRO RENAL UNIVERSITARIO,PO BOX 2116,CAPARRA HEIGHTS STATION,SAN JUAN,PR,922,7877540101,Non-Profit,Y,Y,400061,18.169102,-65.843722
402501,FMC SAN JUAN DIALYSIS CENTER,461 CALLE FRANCIA STE A-101,ANTILLAS WAREHOUSE,SAN JUAN,PR,917,7877645640,Profit,Y,Y,402501,0,0
402502,FMC PONCE DIALYSIS CENTER,SAN JORGE PROFESSIONAL BUILDING,610 CALLE DAMAS SUITE 101,PONCE,PR,730,7878446050,Profit,Y,Y,402502,0,0
402503,FMC MAYAGUEZ DIALYSIS CENTER,1050 AVENUE LOS CORAZONES,SUITE 101,MAYAGUEZ,PR,680,7878345335,Profit,Y,Y,402503,0,0
402504,FMC BAYAMON DIALYSIS CENTER,CARR  NUMBER  2,KM 11.2,BAYAMON,PR,961,7877879353,Profit,Y,Y,402504,18.3563466,-66.1240325
402505,FMC CAGUAS DIALYSIS CENTER,CARR NO. 1 KM 34.6,CAGUITAS MALL,CAGUAS,PR,725,7877431334,Profit,Y,Y,402505,0,0
402506,FMC SAN GERMAN DIALYSIS CENTER,CARR # 2 KM 173.4,EDIF SAN VICENTE DE PAUL FL 2,SAN GERMAN,PR,683,7878924660,Profit,Y,Y,402506,0,0
402507,FMC CAROLINA DIALYSIS CENTER,CENTRO COMMERCIAL GOLDEN TOWER,C-8 PONTZUELA AVENUE  URB VISTAMAR,CAROLINA,PR,983,7872572770,Profit,Y,N,402507,0,0
402508,FMC ARECIBO DIALYSIS CENTER,1072 AVENUE MIRAMAR,CARR 2  KM 78.5,ARECIBO,PR,612,7878785956,Profit,Y,Y,402508,18.4731996,-66.7429438
402509,FMC GUAYAMA DIALYSIS CENTER,5 AVENUE LOS VETERANOS,CARR 3  KM 135.7,GUAYAMA,PR,784,7878644288,Profit,Y,N,402509,17.9808517,-66.1091169
402510,ATLANTIS PONCE CNDS,917 AVE TITO CASTRO  FL 1,HOSPITAL SAN LUCAS II  BO. MACHUELO,PONCE,PR,731,7872927979,Profit,Y,Y,402510,0,0
402513,FMC AGUADILLA DIALYSIS CENTER,CARR 459 KM 0.7 BO CAMASEYES,,AGUADILLA,PR,603,7878821212,Profit,Y,Y,402513,0,0
402514,FMC HUMACAO DIALYSIS CENTER,TREMENDO SHOPPING CENTER,ROAD 3 KM 33.8  PO BOX 9100,HUMACAO,PR,792,7878500033,Profit,Y,Y,402514,0,0
402515,FMC RIO PIEDRAS DIALYSIS CENTER,1535 PONCE DE LEON AVE,SECTOR EL CINCO,RIO PIEDRAS,PR,926,7877662296,Profit,Y,Y,402515,18.4000571,-66.0522672
402517,FMC WEST PONCE DIALICENTRO,URB PUNTO ORO,500 AVENUE PUNTO ORO,PONCE,PR,728,7872590688,Profit,Y,Y,402517,0,0
402518,FMC VEGA BAJA RENAL DC,LAS VEGAS SHOPPING CENTER,ROAD  NO.2 SUITE 14,VEGA BAJA,PR,693,7878583290,Profit,Y,Y,402518,36.114646,-115.172816
402519,ATLANTIS AGUADILLA DIALYSIS,107 AVE KENNEDY  FL 4,COMMUNITY HOSP. OF THE GOOD SAMARITAN,AGUADILLA,PR,605,7878826110,Profit,Y,Y,402519,0,0
402521,ATLANTIS FAJARDO RENAL CENTER,410 AVE GENERAL VALERO  STE 101,TORRE SAN PABLO DEL ESTE,FAJARDO,PR,738,7872927979,Profit,Y,Y,402521,0,0
402525,FMC MAYAGUEZ NO,ROAD 64 KM 0.5 BO. SABANETAS,MARINA STATION,MAYAGUEZ,PR,681,7878341550,Profit,Y,Y,402525,0,0
402527,ATLANTIS MAYAGUEZ MC,410 AVE HOSTOS,HOSPITAL RAMON E. BETANCES - DIALYSIS,MAYAGUEZ,PR,681,7878322100,Profit,Y,Y,402527,0,0
402528,FMC PONCE CENTRO,7309 CALLE RAMON POWER,,PONCE,PR,717,7878480045,Profit,Y,Y,402528,0,0
402529,FMC ARECIBO NORTE DIALYSIS CENTER,CARR. 129 AVE. SAN LUIS HOSPITAL,CAYETANO COLL Y TOSTE SUITE 108,ARECIBO,PR,612,7878151640,Profit,Y,N,402529,0,0
402530,FMC AUXILIO MUTUO DIALYSIS CENTER,CARR 199 KM .3,AVE LAS CUMBRES,SAN JUAN,PR,926,7879994884,Profit,Y,Y,402530,0,0
402531,FMC YAUCO DIALYSIS CENTER,25 CALLE PROLONGACION COMERCIO,EDIF. TORRE NAVEL SUITE 102 C,YAUCO,PR,698,7872674884,Profit,Y,Y,402531,0,0
402533,ATLANTIS MANATI DC,THE RENAL CENTER OF MANATI; HOSPITAL DR. CENTER,CARR. 2 KM 47.7,MANATI,PR,674,7878543322,Profit,Y,Y,402533,0,0
402534,ATLANTIS HRG GUAYNABO DC,140  AVE LAS CUMBRES  SUITE 107,GUAYNABO MEDICAL MALL BLDG,GUAYNABO,PR,969,7872927979,Profit,Y,N,402534,18.362041,-66.1094192
402535,ATLANTIS LARES,"ATLANTIS HEALTHCARE GROUP OF PR, INC.","B.O. PILETAS, CARR 129",LARES,PR,669,7878976767,Profit,Y,Y,402535,0,0
402536,ATLANTIS SAN SEBASTIAN DC,120 PABIA HERNANDEZ,,SAN SEBASTIAN,PR,685,7872927979,Profit,Y,N,402536,0,0
402537,ATLANTIS ISABELA DC,CARRETERA MILITAR #2 KM 113.5,BO GUERRERO,ISABELA,PR,662,7872927979,Profit,Y,N,402537,0,0
402538,ATLANTIS CAGUAS DC,Q2 AVE LUIS MUNOZ MARIN,URB MARIOLGA,CAGUAS,PR,725,7872927979,Profit,Y,N,402538,18.2270107,-66.027318
402539,ATLANTIS TOA BAJA,CARR 167 AVENIDA COMERIO NORTE #600,A LA ORDEN SHOPPING CENTER LEVITTOWN,TOA BAJA,PR,949,7872927979,Profit,Y,Y,402539,0,0
402540,FMC CANOVANAS,EAST PROFESSIONAL MEDICAL CENTER,BO CANOVANS RD #3 KM 19.9,CANOVANAS,PR,729,7879579647,Profit,Y,Y,402540,0,0
402541,ATLANTIS CAROLINA,PASEO DEL PRADO SHOPPING CENTER,CARR PR 3 KM 8 HM 4,CAROLINA,PR,987,7872927979,Profit,Y,Y,402541,0,0
402542,FMC SANTA ROSA DIALYSIS,5 AVE LOS VETERANOS,,GUAYAMA,PR,784,7878665050,Profit,Y,N,402542,17.9808517,-66.1091169
402543,FMC SANTA JUANITA,URB SANTA JUANITA,2 SANTA JUANITA SHOPP CTR,BAYAMON,PR,956,7875231417,Profit,Y,Y,402543,0,0
402544,CENTRO DE SALUD FAMILIAR SUSANA CENTENO,BO DESTINO,CARR 997 KM 0 HM 1,VIEQUES,PR,765,7879680002,Profit,Y,N,402544,0,0
402545,CAGUAS DIALYSIS & NEPHROLOGY CENTER,CARR 172 URB TURABO GARDENS,HOSPITAL SAN JUAN BAUTISTA FL 3,CAGUAS,PR,725,7876532233,,Y,N,402545,0,0
403301,UNIVERSITY PEDIATRIC HOSPITAL,PEDIATRIC RENAL CTR DEPT. DE SALUD,DR ANTONIO ORTIZ PO BOX 191079,SAN JUAN,PR,919,7877773535,Non-Profit,Y,Y,403301,0,0
410007,RHODE ISLAND HOSPITAL,DIALYSIS UNIT,593 EDDY STREET,PROVIDENCE,RI,2903,4014445252,Non-Profit,Y,N,410007,0,0
410012,MIRIAM HOSPITAL,DIALYSIS UNIT,164 SUMMIT AVENUE,PROVIDENCE,RI,2906,4017933050,Non-Profit,Y,N,410012,0,0
412501,FRESENIUS MEDICAL CARE OF WARWICK,2814 POST ROAD,,WARWICK,RI,2886,4017384050,Profit,Y,Y,412501,0,0
412502,DIALYSIS CENTER OF WESTERLY,ONE RHODY DRIVE,,WESTERLY,RI,2891,4015960368,Profit,Y,N,412502,41.361449,-71.824019
412503,DIALYSIS CENTER OF WOONSOCKET,2100 DIAMOND HILL ROAD,,WOONSOCKET,RI,2895,4017654995,Profit,Y,N,412503,42.015138,-71.4675479
412504,DIALYSIS CENTER OF WEST WARWICK,1775 BALD HILL ROAD,,WARWICK,RI,2886,4018238420,Profit,Y,N,412504,41.6930932,-71.4992335
412505,NNA OF PROVIDENCE,125 CORLISS STREET,,PROVIDENCE,RI,2904,4015219300,Profit,Y,Y,412505,41.84142,-71.411919
412506,DSI NORTH PROVIDENCE RENAL CENTER,1635 MINERAL SPRING AVENUE,,NO. PROVIDENCE,RI,2904,4013545340,Profit,Y,Y,412506,41.864665,-71.450914
412507,WAKEFIELD DIALYSIS CENTER,10 HIGH STREET SUITE C,,WAKEFIELD,RI,2879,4017923450,Profit,Y,Y,412507,41.437273,-71.502188
412508,DIALYSIS CENTER OF TIVERTON,22 HURST LANE,,TIVERTON,RI,2878,4016244403,Profit,Y,N,412508,41.6620289,-71.152573
412509,DIALYSIS CENTER OF PAWTUCKET,201 ARMISTICE BOULEVARD,,PAWTUCKET,RI,2860,4017223313,Profit,Y,N,412509,41.879738,-71.368342
412510,DIALYSIS CENTER OF PROVIDENCE,9 PLENTY STREET,,PROVIDENCE,RI,2907,4012734898,Profit,Y,N,412510,41.8072723,-71.4206463
412511,NNA - PAWTUCKET,79 DIVISION STREET,,PAWTUCKET,RI,2860,4017239995,Profit,Y,N,412511,41.8730398,-71.3811191
412512,DIALYSIS CENTER OF EAST PROVIDENCE,318 WATERMAN AVENUE,,EAST PROVIDENCE,RI,2914,4014355200,Profit,Y,Y,412512,41.820503,-71.368496
412514,DIALYSIS CENTER OF JOHNSTON,1526 ATWOOD AVENUE,,JOHNSTON,RI,2919,4015210400,Profit,Y,N,412514,41.8279319,-71.502529
413500,THE DIALYSIS CENTER OF RHODE ISLAND HOSPITAL,22 BAKER STREET,,PROVIDENCE,RI,2905,4014444440,Non-Profit,Y,Y,413500,41.7936807,-71.3982368
422503,DSI GREENVILLE RENAL CENTER,3 BUTTERNUT DRIVE SUITE A,,GREENVILLE,SC,29605,8642420802,Profit,Y,Y,422503,34.8142388,-82.4204053
422504,FRESENIUS MEDICAL CARE COLUMBIA,2125 ADAMS GROVE RD,,COLUMBIA,SC,29203,8037797511,Profit,Y,N,422504,33.8817737,-81.0763781
422505,FLORENCE DIALYSIS CENTER,435 NORTH CASHUA DR,,FLORENCE,SC,29501,8436690825,Profit,Y,N,422505,34.2028869,-79.800659
422506,FMC ANDERSON DIALYSIS CLINIC,416 E CALHOUN STREET STE A,,ANDERSON,SC,29621,8642241678,Profit,Y,Y,422506,0,0
422508,NORTH ORANGEBURG DIALYSIS,3031 ST MATTHEWS ROAD,,ORANGEBURG,SC,29118,8035331550,Profit,Y,N,422508,33.5518727,-80.8277099
422509,FRESENIUS MEDICAL CARE CAMDEN,7 HAILE LANE,,CAMDEN,SC,29020,8034259000,Profit,Y,N,422509,34.24989,-80.596633
422510,FRESENIUS MEDICAL CARE SUMTER,615 WEST WESMARK BLVD,,SUMTER,SC,29150,8034692800,Profit,Y,Y,422510,33.952272,-80.398522
422511,DCI SPARTANBURG,203 FREEMONT AVENUE,,SPARTANBURG,SC,29303,8645852046,Non-Profit,Y,N,422511,34.9607399,-81.948959
422512,AIKEN DIALYSIS,775 MEDICAL PARK DRIVE,,AIKEN,SC,29801,8036414222,Profit,Y,Y,422512,33.5720027,-81.7647648
422513,DCI WEST ASHLEY,46 B MARKFIELD ROAD,,CHARLESTON,SC,29407,8437662317,Non-Profit,Y,N,422513,32.783418,-80.006427
422514,BMA OF BEAUFORT INC LOW COUNTRY DIALYSIS,TWO PROFESSIONAL DRIVE,10 JOHNNY MORRALL CIRCLE,PORT ROYAL,SC,29935,8435242373,Profit,Y,Y,422514,32.4140045,-80.6514049
422515,GREENWOOD DIALYSIS,109 OVERLAND DRIVE,,GREENWOOD,SC,29646,8642276011,Profit,Y,Y,422515,34.169727,-82.155274
422516,RAI CARE CENTERS N CHARLESTON,9305 MEDICAL PLAZA DR,,CHARLESTON,SC,29406,8435721660,Profit,Y,N,422516,32.9767,-80.075824
422517,FRESENIUS MEDICAL CARE LEXINGTON,131 WHISPERING WINDS DR,,LEXINGTON,SC,29072,8033580145,Profit,Y,N,422517,33.976044,-81.214201
422518,BMA OF CHESTER INC,501 HEALTHWAY DRIVE,,CHESTER,SC,29706,8033778127,Profit,Y,N,422518,34.7048613,-81.2142561
422519,FMC OF GEORGETOWN INC,712 N FRASER STREET,,GEORGETOWN,SC,29440,8435273431,Profit,Y,Y,422519,33.38131,-79.286963
422520,FRESENIUS MEDICAL CARE BENNETTSVILLE,1104 FRANK W EVANS WAY,,BENNETTSVILLE,SC,29512,8434793817,Profit,Y,Y,422520,34.6344224,-79.7004746
422521,FMC KINGSTREE DIALYSIS,215 N BROOKS STREET,,KINGSTREE,SC,29556,8433559750,Profit,Y,Y,422521,33.6675323,-79.8245541
422522,DCI EAST SPARTANBURG,155 DILLON DRIVE,,SPARTANBURG,SC,29307,8645854840,Non-Profit,Y,Y,422522,34.982841,-81.90061
422524,DCI AZALEA PLACE,2270 TECHNICAL PARKWAY,,CHARLESTON,SC,29406,8438638974,Non-Profit,Y,N,422524,32.911727,-80.032351
422527,DCI EAST COOPER,1088 JOHNNIE DODDS BLVD,,MT PLEASANT,SC,29464,8438818344,Non-Profit,Y,N,422527,32.8124698,-79.8599429
422528,WALTERBORO DIALYSIS,302 RUBY STREET,,WALTERBORO,SC,29488,8435496743,Profit,Y,Y,422528,0,0
422529,CENTRAL COLUMBIA DIALYSIS,3511 MEDICAL DRIVE,,COLUMBIA,SC,29203,8037710518,Profit,Y,Y,422529,0,0
422530,DARLINGTON DIALYSIS CENTER INC,103 SALEEBY ROAD,,DARLINGTON,SC,29532,8433931682,Profit,Y,N,422530,0,0
422531,FMC OF NEWBERRY,2041 MEDICAL PARK DRIVE,,NEWBERRY,SC,29108,8032762860,Profit,Y,N,422531,34.2915149,-81.6083961
422532,FRESENIUS MEDICAL CARE DILLON,1304 HIGHWAY 301 SOUTH,,DILLON,SC,29536,8437743687,Profit,Y,N,422532,0,0
422533,RAI CARE CENTERS  MONCKS CORNER,112 MCCORMICK CIRCLE,,MONCKS CORNER,SC,29461,8438994953,Profit,Y,N,422533,33.208396,-79.9802799
422534,CENTRAL BAMBERG DIALYSIS,67 SUNSET DRIVE,,BAMBERG,SC,29003,8032455166,Profit,Y,N,422534,33.3091424,-81.0319247
422535,LORIS DIALYSIS CENTER,3827 BELL STREET,,LORIS,SC,29569,8437560300,Profit,Y,N,422535,34.056583,-78.893411
422536,FMC OCONEE DIALYSIS CLINIC INC,685 S OAK STREET,,SENECA,SC,29678,8648850273,Profit,Y,Y,422536,34.676754,-82.9553783
422537,FRESENIUS MEDICAL CARE MANNING,3701 SUMTER HWY,,MANNING,SC,29102,8035052121,Profit,Y,N,422537,33.7344608,-79.9676773
422538,FMC OF FORT MILL,535 RIVER CROSSING DRIVE,,FORT MILL,SC,29715,8038022480,Profit,Y,Y,422538,34.9414447,-80.8625004
422539,GREER KIDNEY CENTER INC,211 VILLAGE DRIVE,,GREER,SC,29651,8648778005,Profit,Y,N,422539,34.9515578,-82.2341192
422540,UPSTATE DIALYSIS CENTER,308 MILLS AVE,,GREENVILLE,SC,29605,8642713700,Profit,Y,Y,422540,34.829747,-82.409015
422541,DSI EASLEY RENAL CENTER,125 WHITMIRE ROAD,,EASLEY,SC,29640,8648556208,Profit,Y,N,422541,34.838982,-82.61038
422542,CONWAY DIALYSIS CENTER,838 FARRAR DRIVE,,CONWAY,SC,29526,8433475111,Profit,Y,N,422542,33.774864,-79.019765
422543,FRESENIUS MEDICAL CARE SOUTH COLUMBIA,2139 ADAMS GROVE ROAD,,COLUMBIA,SC,29203,8037794073,Profit,Y,N,422543,33.883595,-81.076317
422545,FMC MARION,109 MERRITT CT,,MARION,SC,29571,8434234673,Profit,Y,N,422545,34.178216,-79.4006069
422546,FRESENIUS MEDICAL CARE MIDTOWN,1301 TAYLOR STREET SUITE 4M,,COLUMBIA,SC,29203,8037710107,Profit,Y,Y,422546,34.0074477,-81.0340226
422547,SANTEE DIALYSIS,228 BRADFORD BLVD,,SANTEE,SC,29142,8038543133,Profit,Y,N,422547,33.483385,-80.477199
422548,FMC HILTON HEAD DIALYSIS CENTER,25 HOSPITAL CENTER BLVD MEDICAL PAVILION,SUITE 108,HILTON HEAD ISLAND,SC,29926,8436815840,Profit,Y,Y,422548,32.2306364,-80.7325287
422549,LANCASTER DIALYSIS,980 WOODLAND DRIVE,SUITE 100,LANCASTER,SC,29720,8032836336,Profit,Y,Y,422549,34.719959,-80.791344
422550,FRESENIUS MEDICAL CARE WEST COLUMBIA,105 SUM-MOR DRIVE,,WEST COLUMBIA,SC,29169,8037331764,Profit,Y,N,422550,34.0094937,-81.1099976
422552,DCI UNION,315 THOMPSON BLVD,,UNION,SC,29379,8644292940,Non-Profit,Y,N,422552,34.7255233,-81.6291469
422553,DCI GAFFNEY,405 TIFFANY PARK,,GAFFNEY,SC,29341,8644871727,Non-Profit,Y,N,422553,35.13584,-81.669641
422556,RAI CARE CENTERS SUMMERVILLE,109 BURTON AVENUE,SUITE A,SUMMERVILLE,SC,29485,8438759800,Profit,Y,N,422556,32.9679595,-80.1550732
422557,ALLENDALE COUNTY DIALYSIS,202 N HAMPTON AVENUE,,FAIRFAX,SC,29827,8036321511,Profit,Y,N,422557,32.9604171,-81.2356907
422560,DCI WEST SPARTANBURG,105 TRADD STREET,,SPARTANBURG,SC,29301,8645748828,Non-Profit,Y,N,422560,34.937743,-82.034556
422563,DCI MAGNOLIA COURT,1427 KING STREET,,CHARLESTON,SC,29403,8438533399,Non-Profit,Y,Y,422563,32.8156884,-79.9513065
422564,FRESENIUS MEDICAL CARE LOWER RICHLAND,1840 PINEVIEW DRIVE,,COLUMBIA,SC,29209,8036953628,Profit,Y,N,422564,33.949725,-80.9295379
422565,SOUTH ORANGEBURG DIALYSIS,1080 SUMMERS AVENUE,,ORANGEBURG,SC,29115,8035390084,Profit,Y,Y,422565,33.501883,-80.868003
422566,FRESENIUS MEDICAL CARE OF LEE COUNTY,289 FAIRVIEW AVE,,BISHOPVILLE,SC,29010,8034845972,Profit,Y,N,422566,34.2092221,-80.2532363
422567,RCG GREENVILLE DIALYSIS CENTER,605 S ACADEMY STREET,,GREENVILLE,SC,29601,8642339866,Profit,Y,Y,422567,0,0
422568,DCI JAMES ISLAND,959 FOLLY ROAD,,CHARLESTON,SC,29412,8437958386,Non-Profit,Y,N,422568,32.731006,-79.969603
422569,FMC DIALYSIS SERVICES NORTH MYRTLE BEACH,710 A HIGHWAY 17 SOUTH,,NORTH MYRTLE BEACH,SC,29582,8433611709,Profit,Y,Y,422569,33.824852,-78.686651
422570,FMC DIALYSIS SERVICES THE MARSHLANDS,28 RICE POND ROAD,,RIDGELAND,SC,29936,8439870110,Profit,Y,Y,422570,0,0
422571,FMC DIALYSIS SERVICES MURRELLS INLET,5011 HIGHWAY 17 BYPASS,,MURRELLS INLET,SC,29576,8433574840,Profit,Y,N,422571,0,0
422572,FMC MEADOWLAKE DIALYSIS,7631 WILSON BLVD,,COLUMBIA,SC,29203,8037547377,Profit,Y,N,422572,34.08019,-80.997478
422573,FMC DIALYSIS SERVICES LAKE MARION,20 BUFF BLVD,,SUMMERTON,SC,29148,8034852341,Profit,Y,N,422573,33.5921603,-80.3567341
422574,FREEDOM DIALYSIS CENTER,1520 FREEDOM BOULEVARD,,FLORENCE,SC,29505,8436670654,Profit,Y,Y,422574,34.16351,-79.753
422575,RAI CARE CENTERS CHARLESTON,2080 CHARLIE HALL BLVD,,CHARLESTON,SC,29414,8437664655,Profit,Y,Y,422575,32.815524,-80.045796
422576,PEE DEE DIALYSIS CENTER,331 ELIZABETH ANNE COURT,,LAKE CITY,SC,29560,8433943944,Profit,Y,N,422576,33.8818849,-79.760903
422577,DIALYSIS CLINIC INC LANDRUM,110 ASBURY DRIVE,,LANDRUM,SC,29356,8644572435,Non-Profit,Y,N,422577,35.1794,-82.172865
422578,PALMETTO DIALYSIS,317 PROFESSIONAL PARK ROAD,,CLINTON,SC,29325,8648330717,Profit,Y,N,422578,34.4806992,-81.9354056
422579,DSI SIMPSONVILLE,110 CHALMERS DR STE C,,GREENVILLE,SC,29605,8649637275,Profit,Y,N,422579,34.800014,-82.3740017
422580,FMC DIALYSIS SERVICES ANDREWS,102 S COUNTY LINE ROAD,,ANDREWS,SC,29510,8432215454,Profit,Y,N,422580,33.4306175,-79.5938226
422581,FRESENIUS MEDICAL CARE FAIRFIELD COUNTY,1126 HWY 321 BUSINESS SOUTH STE A,,WINNSBORO,SC,29180,8037126732,Profit,Y,N,422581,34.349283,-81.087742
422582,FRESENIUS MEDICAL CARE IRMO,1012 LYKES LANE,,IRMO,SC,29063,8037497088,Profit,Y,N,422582,34.0956678,-81.1562322
422584,DSI POWDERHORN DIALYSIS,16 POWDERHORN ROAD,,SIMPSONVILLE,SC,29681,8649622222,Profit,Y,N,422584,34.721333,-82.250602
422585,NORTH CHARLESTON DIALYSIS,5900 RIVERS AVE STE E,,CHARLESTON,SC,29406,8437473447,Profit,Y,Y,422585,32.902734,-80.0191174
422586,FMC DIALYSIS SERVICES OF HARTSVILLE,1308 SOUTH FOURTH STREET,,HARTSVILLE,SC,29550,8433839526,Profit,Y,N,422586,34.3556878,-80.0584295
422587,NORTHEAST COLUMBIA DIALYSIS,10 GATEWAY CORNERS PARKWAY,SUITE 200,COLUMBIA,SC,29203,8038650554,Profit,Y,N,422587,34.1045264,-80.9515296
422588,HAMPTON DIALYSIS CLINIC,593 WEST CAROLINA AVENUE,,VARNVILLE,SC,29944,8039434334,Profit,Y,N,422588,32.854769,-81.0870298
422589,FMC DIALYSIS SERVICES OF YORK COUNTY,1560 HEALTH CARE DRIVE,,ROCK HILL,SC,29732,8033283113,Profit,Y,N,422589,34.950946,-81.048529
422590,DCI PORT ROYAL,300 MIDTOWN DRIVE,ATTN: DIALYSIS UNIT,BEAUFORT,SC,29906,8435214300,Non-Profit,Y,N,422590,32.379618,-80.727412
422591,ORANGEBURG DIALYSIS,1184 ORANGEBURG MALL CIRCLE,,ORANGEBURG,SC,29115,8035317501,Profit,Y,Y,422591,33.5098549,-80.8632597
422592,PAGELAND DIALYSIS,505 A SOUTH PEARL STREET,,PAGELAND,SC,29728,8436723491,Profit,Y,N,422592,34.7672156,-80.3897034
422593,NRA HOLLY HILL DIALYSIS CENTER,8532 OLD STATE ROAD,,HOLLY HILL,SC,29059,8034962800,Profit,Y,N,422593,33.3223938,-80.413109
422594,BAMBERG DIALYSIS,2046 MAIN HIGHWAY,,BAMBERG,SC,29003,8032451775,Profit,Y,N,422594,33.1667131,-81.1431188
422596,CHARLESTON RENAL CARE LLC GOOSE CREEK,109 GREENLAND DRIVE,,GOOSE CREEK,SC,29445,8433771199,Profit,Y,N,422596,33.0094409,-80.0525777
422597,DAVITA PENDLETON DIALYSIS,7703 HIGHWAY 76,,PENDLETON,SC,29670,8646467715,Profit,Y,N,422597,34.6340743,-82.7840597
422598,FABER PLACE DIALYSIS,3801 FABER PLACE DRIVE,,CHARLESTON,SC,29405,8433771566,Profit,Y,N,422598,32.850915,-80.0212279
422599,FRESENIUS MEDICAL SERVICES OF PENDLETON,908 S MECHANIC STREET,,PENDLETON,SC,29670,8646466607,Profit,Y,N,422599,34.637105,-82.782835
422600,FMC SERVICES OF BELTON HONEA PATH,200 CHURCH STREET,,HONEA PATH,SC,29654,8643696509,Profit,Y,N,422600,34.441574,-82.389573
422601,MT PLEASANT DIALYSIS CENTER,1028 E-WALL STREET,BUILDING A3,MOUNT PLEASANT,SC,29464,8438843115,Profit,Y,N,422601,32.807351,-79.884993
422602,DCA EDGEFIELD,306 MAIN STREET,,EDGEFIELD,SC,29824,8036373225,Profit,Y,N,422602,33.7891398,-81.9281514
422603,FRESENIUS MEDICAL CARE OF  BATESBURG LEESVILLE,303 VILLAGE SQUARE DRIVE,,LEESVILLE,SC,29070,8036048002,Profit,Y,N,422603,33.9227739,-81.4498717
422604,DCA OF AIKEN II  LLC,169 CREPE MYRTLE DR,,AIKEN,SC,29803,8036448484,Profit,Y,Y,422604,33.512789,-81.73572
422605,FRESENIUS MEDICAL CARE OF LUGOFF ELGIN,909 CAROLINA DRIVE,,LUGOFF,SC,29078,8034380905,Profit,Y,N,422605,34.2184741,-80.6992273
422606,HOLLYWOOD RAVENEL DIALYSIS CLINC,5953 JACOBS POINT BLVD,,RAVENEL,SC,29470,8435714025,Profit,Y,Y,422606,32.7840365,-80.1512843
422607,RIVER VIEW  KIDNEY CENTER,540 ATOMIC ROAD,,NORTH AUGUSTA,SC,29841,8032793722,Profit,Y,Y,422607,33.494168,-81.95192
422608,CAROLINA DIALYSIS LLC,115 INTERSTATE PARK,,SPARTANBURG,SC,29303,8645769999,Profit,Y,Y,422608,34.9658212,-82.0157185
422609,FORT MILL DIALYSIS,1975 CAROLINA PLACE DR,,FORT MILL,SC,29708,8038023027,Profit,Y,N,422609,35.0363982,-80.9631208
422610,MYRTLE BEACH DIALYSIS,3919 MAYFAIR STREET,,MYRTLE BEACH,SC,29577,8434484920,Profit,Y,N,422610,33.726178,-78.865059
422611,GREER SOUTH DIALYSIS,3254 BRUSHY CREEK ROAD,,GREER,SC,29650,8648012065,Profit,Y,N,422611,34.912769,-82.269943
422612,DCI GOOSE CREEK INC,98 HAMLET CIRCLE,,GOOSE CREEK,SC,29445,8438638633,Non-Profit,Y,N,422612,33.015232,-80.080706
422613,FRESENIUS OF YORK,1440 E ALEXANDER LOVE HWY,,YORK,SC,29745,8036847350,Profit,Y,N,422613,35.030717,-81.237431
422614,FRESENIUS MEDICAL CARE CHERAW,104 GRACE LANE,,CHERAW,SC,29520,8435376801,Profit,Y,N,422614,0,0
422615,DCA BARNWELL,10708 MARLBORO AVE,,BARNWELL,SC,29812,8035417225,Profit,Y,N,422615,33.2576798,-81.3536236
422616,FMC FOUNTAIN INN / GRAY COURT,289 CHAPMAN RD,,FOUNTAIN INN,SC,29644,8648622273,Profit,Y,N,422616,34.6822255,-82.1825679
422617,FRESENIUS MEDICAL CARE CHURCH STREET,406 SOUTH CHURCH STREET,,FLORENCE,SC,29501,8436795945,Profit,Y,N,422617,34.191525,-79.761155
422618,FRESENIUS MEDICAL CARE JOHNSONVILLE,200 STUCKEY ST,,JOHNSONVILLE,SC,29555,8433801581,Profit,Y,N,422618,33.810124,-79.444855
422619,FRESENIUS MEDICAL CARE WEST CONWAY,1702 MILLPOND ROAD,,CONWAY,SC,29527,8434880328,Profit,Y,N,422619,33.8408166,-79.0719515
422620,JEDBURG DIALYSIS,2897 W 5TH NORTH ST,,SUMMERVILLE,SC,29483,8438733955,Profit,Y,N,422620,33.0338993,-80.1993191
422621,FRESENIUS MEDICAL CARE FORT LAWN,5707 WILLOWBROOK ST,,FORT LAWN,SC,29714,8038724149,Profit,Y,N,422621,34.7005218,-80.897092
422622,DAVITA LONGS DIALYSIS,90 CLOVERLEAF DR SUITE 306,,LONGS,SC,29568,8433995275,Profit,Y,N,422622,33.890102,-78.6941196
422623,FRESENIUS MEDICAL CARE MYRTLE BEACH,4592 OLEANDER DR,,MYRTLE BEACH,SC,29577,8438394273,Profit,Y,N,422623,33.7305786,-78.8636265
422624,DIALYSIS CLINIC INC-SALUDA,301 W BUTLER AVENUE,,SALUDA,SC,29138,8644457755,Profit,Y,N,422624,34.00345,-81.7750462
422625,FMC WINYAH,2623 SOUTH FRASER STREET,,GEORGETOWN,SC,29440,8435466900,Profit,Y,N,422625,33.3394292,-79.3037244
422626,RIDGELAND DIALYSIS,112 WEATHERSBEE ST.,,RIDGELAND,SC,29936,8437179379,Profit,Y,N,422626,32.4807435,-80.980386
422627,FRESENIUS MEDICAL CARE COLUMBIA HOME,121 PARK CENTRAL DR,,COLUMBIA,SC,29203,8037991266,Profit,N,Y,422627,34.0293746,-81.0402192
422628,ABBEVILLE DIALYSIS,904 W GREENWOOD ST,,ABBEVILLE,SC,29620,8644590347,Profit,Y,N,422628,34.1598335,-82.3844101
422629,NORTH MAIN KIDNEY CENTER,3900 NORTH MAIN STREET,,COLUMBIA,SC,29203,8037791201,Profit,Y,N,422629,34.038172,-81.0407867
430005,PRAIRIE LAKES HEALTHCARE SYSTEM,401 - 9TH AVE NW,PO BOX 1210,WATERTOWN,SD,57201,6058827905,Non-Profit,Y,N,430005,44.9108548,-97.1203531
430011,HURON REGIONAL MEDICAL CTR,172 4TH ST SE,,HURON,SD,57350,6053536518,Non-Profit,Y,N,430011,44.3620283,-98.2112274
430012,AVERA SACRED HEART - YANKTON DIALYSIS,501 SUMMIT AVE,,YANKTON,SD,57078,6056688627,Non-Profit,Y,N,430012,42.8724751,-97.4068788
430014,AVERA ST LUKES HOSPITAL,305 S STATE ST,,ABERDEEN,SD,57401,6056225550,Non-Profit,Y,Y,430014,45.4621048,-98.4792828
430015,ST MARYS HEALTHCARE CENTER,801 EAST SIOUX,,PIERRE,SD,57501,6052243100,Non-Profit,Y,N,430015,44.3591625,-100.3315388
430027,SANFORD HEALTH - DIALYSIS UNIT,1305 W 18TH ST,,SIOUX FALLS,SD,57117,6053331000,Non-Profit,Y,Y,430027,43.536662,-96.7437862
430077,REGIONAL DIALYSIS CENTER,640 FLORMANN STREET SUITE 401,,RAPID CITY,SD,57701,6057196950,Non-Profit,Y,Y,430077,44.065015,-103.228955
431338,AVERA GREGORY HEALTHCARE CTR DIALYSIS,400 PARK ST,,GREGORY,SD,57533,6058358394,Non-Profit,Y,N,431338,43.2305111,-99.4354093
432501,BLACK HILLS DIALYSIS - EAGLE BUTTE,68 DIALYSIS STREET,,EAGLE BUTTE,SD,57625,6059642311,Profit,Y,N,432501,44.9963889,-101.2358333
432503,SIOUX FALLS DIALYSIS - DAVITA,"800 E 21ST ST, SUITE 4620",,SIOUX FALLS,SD,57105,6053227272,Profit,Y,Y,432503,43.5337489,-96.71628
432504,ROSEBUD DIALYSIS OF DAVITA,1 SOLDIER CREEK RD,,ROSEBUD,SD,57570,6057472916,Profit,Y,N,432504,43.2794808,-100.867519
432505,MITCHELL CMTY DIALYSIS OF DAVITA,525 N FOSTER ST,,MITCHELL,SD,57301,6059955635,Profit,Y,N,432505,43.713996,-98.0073656
432508,BLACK HILLS DIALYSIS - PINE RIDGE,100 DIALYSIS DRIVE,PO BOX 3013,PINE RIDGE,SD,57770,6058675983,Profit,Y,N,432508,43.0255408,-102.5562743
432514,DIALYSIS MGT GROUP - PORCUPINE,"HCR 49, BOX 82C",,PORCUPINE,SD,57772,6054551080,Profit,Y,N,432514,43.2625,-102.3477778
433502,MID-DAKOTA DIALYSIS OF SANFORD HEALTH,300 S BYRON BLVD,,CHAMBERLAIN,SD,57325,6052347274,Non-Profit,Y,N,433502,43.7884759,-99.3268217
433505,SISSETON SATELLITE DIALYSIS,100 LAKE TRAVERSE DR,,SISSETON,SD,57262,6057423696,Non-Profit,Y,N,433505,45.4936069,-96.90095
433506,REGIONAL DIALYSIS CENTER - SPEARFISH,132 YANKEE ST,,SPEARFISH,SD,57783,6057196400,Non-Profit,Y,N,433506,0,0
433507,MADISON DIALYSIS OF SANFORD HEALTH,917 N WASHINGTON AVE,,MADISON,SD,57042,6052568870,Non-Profit,Y,N,433507,44.0136664,-97.1097886
433508,SATELLITE DIALYSIS - BROOKINGS,300 22ND AVE,,BROOKINGS,SD,57006,6056967760,Non-Profit,Y,N,433508,44.3036143,-96.7682333
433509,WAGNER DIALYSIS OF SANFORD HEALTH,111 WASHINGTON,,WAGNER,SD,57380,6053843731,Non-Profit,Y,N,433509,43.0836818,-98.2976793
440054,WOODS MEMORIAL REG DIALYSIS CNTR,409 GRADY ROAD,,ETOWAH,TN,37331,4232633666,Non-Profit,Y,N,440054,35.348016,-84.526418
442501,FMC JOHNSON CITY,100 TECHNOLOGY LANE,,JOHNSON CITY,TN,37604,4239297181,Profit,Y,Y,442501,36.43667,-82.293847
442502,DCI NASHVILLE,935 21ST AVENUE NORTH,,NASHVILLE,TN,37208,6153273984,Non-Profit,Y,N,442502,36.1645178,-86.8087132
442503,DCI KNOXVILLE,3734 MARTIN MILL PIKE,,KNOXVILLE,TN,37920,8655733944,Non-Profit,Y,Y,442503,35.9384608,-83.9118247
442504,DCI JACKSON,31 SANDSTONE CIRCLE,,JACKSON,TN,38305,7316680800,Non-Profit,Y,Y,442504,35.676249,-88.854572
442505,DCI CHATTANOOGA 3RD ST,1425 EAST THIRD STREET,,CHATTANOOGA,TN,37404,4236980927,Non-Profit,Y,Y,442505,35.04365,-85.278149
442507,DCI MADISON,605 WEST DUE WEST AVENUE,,MADISON,TN,37115,6158657310,Non-Profit,Y,N,442507,36.2540356,-86.7441593
442511,COOKEVILLE DIALYSIS,140 WEST 7TH STREET,,COOKEVILLE,TN,38501,9315287483,Profit,Y,Y,442511,36.171777,-85.50836
442513,FMC OAK RIDGE,650 BRIARCLIFF AVENUE,,OAK RIDGE,TN,37830,8654827650,Profit,Y,Y,442513,36.022973,-84.228121
442514,DCI EAST RIDGE,6104 NORTH MACK SMITH RD.,,EAST RIDGE,TN,37412,4238948133,Non-Profit,Y,N,442514,34.999161,-85.21661
442517,MORRISTOWN DIALYSIS CENTER,120 PEARCE DRIVE,,MORRISTOWN,TN,37814,4235873537,Non-Profit,Y,N,442517,36.204049,-83.323193
442518,DCI CUMBERLAND,312 LANDRUM PLACE,,CLARKSVILLE,TN,37043,9316451236,Non-Profit,Y,N,442518,36.519522,-87.302796
442519,FMC BRISTOL,1 MEDICAL PARK BLVD,SUITE 100 E,BRISTOL,TN,37620,4236522248,Profit,Y,Y,442519,36.5893354,-82.2537759
442522,FMC EASTERN TENNESSEE,180 SERRAL DRIVE,,GREENEVILLE,TN,37745,4236381201,Profit,Y,N,442522,36.189064,-82.765636
442524,FMC EAST MEMPHIS,6490 MT. MORIAH EXT.,SUITE 101,MEMPHIS,TN,38115,9013671001,Profit,Y,Y,442524,35.0652029,-89.846352
442527,FMC N KNOXVILLE DIALYSIS CNTR,4440 WALKER BLVD.,,KNOXVILLE,TN,37917,8656873436,Profit,Y,Y,442527,36.01436,-83.920351
442528,DCI MURFREESBORO,1024 NORTH HIGHLAND AVENUE,,MURFREESBORO,TN,37130,6158907741,Profit,Y,N,442528,35.857421,-86.381155
442531,DCI MARYVILLE,1851 CREST RD,,MARYVILLE,TN,37804,8659832212,Non-Profit,Y,N,442531,35.757354,-83.952491
442532,DCI HUMBOLDT,"215 NORTH 14TH ST,",,HUMBOLDT,TN,38343,7317844384,Non-Profit,Y,N,442532,35.821306,-88.917385
442533,DYERSBURG DIALYSIS,1575 PARR AVENUE,,DYERSBURG,TN,38024,7312865184,Profit,Y,Y,442533,36.047284,-89.382938
442536,DCI DICKSON,100 ACADEMY ST.,,DICKSON,TN,37055,6154460111,Non-Profit,Y,Y,442536,36.0743099,-87.383104
442537,FMC LAFOLLETTE,305 RIVER DRIVE,,LAFOLLETTE,TN,37766,4235622084,Profit,Y,N,442537,36.3799987,-84.1191421
442538,DCI BROWNSVILLE,378 N. DUPREE ST.,,BROWNSVILLE,TN,38012,7317722151,Non-Profit,Y,N,442538,35.5983485,-89.2401343
442539,COLUMBIA DIALYSIS,1705 GROVE DRIVE,,COLUMBIA,TN,38401,9313814445,Profit,Y,Y,442539,35.603679,-87.052747
442540,WHITEBRIDGE DIALYSIS,103 WHITE BRIDGE ROAD  #6,,NASHVILLE,TN,37209,6153525535,Profit,Y,Y,442540,0,0
442541,DCI SOUTHERN HILLS,510 RECOVERY ROAD,SUITE 100,NASHVILLE,TN,37211,6158320761,Non-Profit,Y,N,442541,36.079748,-86.718779
442549,MURFREESBORO DIALYSIS,1346 DOW ST.,,MURFREESBORO,TN,37130,6158907270,Profit,Y,Y,442549,35.860461,-86.379199
442550,CARRIAGE DIALYSIS,37 CARRIAGE HOUSE DRIVE,,JACKSON,TN,38305,7316685640,Profit,Y,N,442550,35.6674474,-88.8303535
442553,FMC WEST KNOXVILLE,11305 STATION WEST,,KNOXVILLE,TN,37922,8659665100,Profit,Y,N,442553,35.896313,-84.173412
442555,DCI CHATTANOOGA BROAD ST,3555 BROAD ST.,,CHATTANOOGA,TN,37409,4237568808,Non-Profit,Y,N,442555,35.0143715,-85.3240759
442556,CLARKSVILLE DIALYSIS,231 HILLCREST DRIVE,,CLARKSVILLE,TN,37043,9316459694,Profit,Y,Y,442556,36.5185109,-87.304258
442562,DCI PARIS,1101 KELLEY DR,,PARIS,TN,38242,7316440763,Non-Profit,Y,N,442562,36.29521,-88.308136
442564,DCI MEDICAL CENTER,1600 HAYES ST.,MAIN FLOOR,NASHVILLE,TN,37203,6153273302,Non-Profit,Y,Y,442564,36.155398,-86.794687
442565,DCI HIXSON,1816 HAMILL RD.,,HIXSON,TN,37343,4238750020,Non-Profit,Y,N,442565,35.12162,-85.242388
442566,DCI DAYTON,916 MARKET ST.,,DAYTON,TN,37321,4237753386,Non-Profit,Y,N,442566,35.487982,-85.018375
442567,APPALACHIAN DIALYSIS CENTER,503 ELM AVENUE,,NEW TAZEWELL,TN,37825,4236261242,Profit,Y,N,442567,36.440727,-83.60154
442569,FMC MEMPHIS,1428 MONROE AVENUE,,MEMPHIS,TN,38104,9012728683,Profit,Y,N,442569,35.137913,-90.013757
442572,DCI CLARKSVILLE HWY,3229 CLARKSVILLE HWY.,,NASHVILLE,TN,37218,6157423033,Non-Profit,Y,N,442572,36.1972473,-86.8369498
442573,MEMPHIS CENTRAL DIALYSIS,889 LINDEN AVE.,,MEMPHIS,TN,38126,9015251719,Profit,Y,N,442573,35.135045,-90.031566
442574,FMC ROANE COUNTY,527 DEVONIA STREET,,HARRIMAN,TN,37748,8658826205,Profit,Y,N,442574,35.9363601,-84.5505803
442576,MEMPHIS EAST DIALYSIS,50 HUMPHREY'S BLVD STE 42,,MEMPHIS,TN,38120,9017473901,Profit,Y,Y,442576,35.1316058,-89.8567132
442577,FMC KINGSPORT,2002 BROOKSIDE DRIVE SUITE 101,,KINGSPORT,TN,37660,4232456464,Profit,Y,N,442577,36.5493068,-82.5186858
442579,FMC BRADLEY,905 CLINGAN RIDGE ROAD,,CLEVELAND,TN,37312,4234766166,Profit,Y,Y,442579,35.1873568,-84.8728171
442581,DCI LEBANON,212 BABB DR.,,LEBANON,TN,37087,6154447955,Non-Profit,Y,N,442581,36.222357,-86.325925
442583,VANDERBILT DIALYSIS CLINIC,1500 21ST AVE. SOUTH STE 3600,,NASHVILLE,TN,37212,6153433676,Profit,Y,Y,442583,36.139445,-86.799992
