PROVNUM,FACNAME,PHYADDR1,PHYADDR2,PHYCITY,PHYSTATE,PHYZIP,PHONENUM,OWNTYPE,In-center Hemo,in-center PD,ref_id,Lat,Lon
12500,FMC CAPITOL CITY,255 S JACKSON STREET,,MONTGOMERY,AL,36104,3342631028,Profit,Y,Y,12500,32.374038,-86.295957
12501,GADSDEN DIALYSIS,409 SOUTH FIRST STREET,,GADSDEN,AL,35901,2565472457,Profit,Y,N,12501,34.006474,-86.003297
12502,TUSCALOOSA UNIVERSITY DIALYSIS,220 15TH STREET,,TUSCALOOSA,AL,35401,2053456004,Profit,Y,Y,12502,33.199245,-87.5380239
12505,PCD MONTGOMERY,1001 FOREST AVENUE,,MONTGOMERY,AL,36106,3342699416,Profit,Y,Y,12505,32.369326,-86.285965
12506,DOTHAN DIALYSIS,216 GRACELAND DR.,,DOTHAN,AL,36305,3347934077,Profit,Y,Y,12506,31.231877,-85.452374
12507,FMC MOBILE,2620 OLD SHELL RD,,MOBILE,AL,36607,2514762762,Profit,Y,N,12507,30.692548,-88.102467
12508,BIRMINGHAM EAST DIALYSIS,1105 EAST PARK DRIVE,,BIRMINGHAM,AL,35235,2058336003,Profit,Y,N,12508,33.587499,-86.680471
12509,FMC NORTH ALABAMA,1311 N MEMORIAL PKWY #200,,HUNTSVILLE,AL,35801,2565368571,Profit,Y,Y,12509,0,0
12512,FMC SELMA,905 MEDICAL CENTER PARKWAY,,SELMA,AL,36701,3348749021,Profit,Y,N,12512,32.4275,-87.0528
12513,FMC LANGDALE,8 MEDICAL PARK,,VALLEY,AL,36854,3347564192,Profit,Y,N,12513,32.8258101,-85.1695139
12515,FMC OPELIKA,2609 VILLAGE PROFESSIONAL DR,STE 2,OPELIKA,AL,36801,3347495085,Profit,Y,Y,12515,32.6446254,-85.4131678
12516,DSI NORWOOD,1424 NORTH CARRAWAY BLVD,,BIRMINGHAM,AL,35234,2055025300,Profit,Y,Y,12516,33.5337938,-86.8079195
12517,ATHENS DIALYSIS,15953 ATHENS LIMESTONE DRIVE,,ATHENS,AL,35613,2562334730,Profit,Y,N,12517,34.7851609,-86.9417179
12519,FMC SCOTTSBORO,20998 JOHN T. REID HWY,,SCOTTSBORO,AL,35768,2562594777,Profit,Y,N,12519,34.6723069,-86.0341463
12520,FMC TROY,606 BOTTS AVE,,TROY,AL,36081,3345667266,Profit,Y,N,12520,31.784436,-85.9473479
12521,DCI DOTHAN,1757 EAST MAIN STREET,,DOTHAN,AL,36301,3347933519,Non-Profit,Y,Y,12521,31.219431,-85.365071
12522,FMC HUNTSVILLE,2325 PANSY STREET,SUITE C,HUNTSVILLE,AL,35801,2565361881,Profit,Y,N,12522,34.7145802,-86.5773319
12523,PHENIX CITY DIALYSIS,1900 OPELIKA ROAD,,PHENIX CITY,AL,36867,3342981941,Profit,Y,Y,12523,32.4785984,-85.0268011
12524,FMC EAST MOBILE,1217 GOVERNMENT ST,,MOBILE,AL,36604,2514386917,Profit,Y,Y,12524,30.682343,-88.064597
12525,FMC WEST MOBILE,6601 WALL STREET,SUITE A,MOBILE,AL,36695,2516332681,Profit,Y,N,12525,30.670121,-88.195102
12526,RCG PRINCETON,708 COTTON AVE SW,,BIRMINGHAM,AL,35211,2057853500,Profit,Y,Y,12526,33.4978409,-86.8433288
12527,DCI ENTERPRISE,3861 SALEM ROAD,,ENTERPRISE,AL,36330,3343478233,Non-Profit,Y,Y,12527,31.3605793,-85.8692607
12528,FMC CAHABA VALLEY,120 CAHABA VALLEY PARKWAY,SUITE 150,PELHAM,AL,35124,2059880469,Profit,Y,N,12528,33.3400704,-86.78922
12529,FLORENCE DIALYSIS,422 EAST DR. HICKS BLVD,,FLORENCE,AL,35630,2567645050,Profit,Y,Y,12529,34.7993312,-87.6698508
12530,RAI EAST 11TH ST ANNISTON,522 EAST 11TH STREET,1ST FLOOR,ANNISTON,AL,36207,2562377566,Profit,Y,N,12530,33.6584667,-85.8216663
12531,FMC JACKSON (TOMBIGBEE),215 WALKER SPRINGS RD,,JACKSON,AL,36545,2512466667,Profit,Y,N,12531,31.5575392,-87.8748274
12532,DCI EUFAULA,123 A EAST BARBOUR STREET,,EUFAULA,AL,36027,3346877071,Non-Profit,Y,N,12532,0,0
12533,DSI-WALKER COUNTY DIALYSIS,589 HIGHWAY 78 WEST,,JASPER,AL,35501,2052211064,Profit,Y,Y,12533,0,0
12534,BESSEMER KIDNEY CENTER,975 9TH AVE SW,SUITE 500,BESSEMER,AL,35022,2054243757,Profit,Y,N,12534,33.3737148,-86.9911554
12535,PCD PRATTVILLE,1815 GLYNWOOD DRIVE,,PRATTVILLE,AL,36066,3343610010,Profit,Y,N,12535,32.4615859,-86.422053
12536,FMC MONTCLAIR,3918 MONTCLAIR RD,SUITE 110,BIRMINGHAM,AL,35213,2058710999,Profit,Y,N,12536,33.507213,-86.760713
12537,FMC PRICHARD,4016 HWY 45,,WHISTLER,AL,36613,2513301623,Profit,Y,N,12537,30.764272,-88.127416
12538,RCG ANDALUSIA,403 WEST BYPASS,,ANDALUSIA,AL,36420,3342220416,Profit,Y,N,12538,31.318633,-86.4567315
12539,PCD TALLADEGA (RCG),805 NORTH STREET EAST,,TALLADEGA,AL,35160,2563623457,Profit,Y,N,12539,33.4247792,-86.1006659
12540,FMC MONROEVILLE (WHETSTONE),676 S ALABAMA AVE,,MONROEVILLE,AL,36460,2515753452,Profit,Y,N,12540,31.5182066,-87.3226441
12541,FMC DADEVILLE,52 WATERWORKS RD,,DADEVILLE,AL,36853,2568252740,Profit,Y,N,12541,32.8369058,-85.7683658
12542,RAINBOW CITY DIALYSIS,2800 RAINBOW DRIVE,,RAINBOW CITY,AL,35906,2564133245,Profit,Y,Y,12542,33.964856,-86.027199
12543,DEMOPOLIS DIALYSIS,511 S CEDAR STREET,,DEMOPOLIS,AL,36732,3342899700,Profit,Y,Y,12543,32.5142931,-87.8351897
12544,OZARK DIALYSIS,214 HOSPITAL AVENUE,,OZARK,AL,36360,3347742630,Profit,Y,N,12544,31.4505345,-85.6309981
12545,TUSCALOOSA DIALYSIS,805 OLD MILL STREET,,TUSCALOOSA,AL,35401,2057526363,Profit,Y,N,12545,33.1786249,-87.5479469
12546,FMC TUSKEGEE,802 E. MARTIN LUTHER KING HWY,,TUSKEGEE,AL,36083,3347279447,Profit,Y,N,12546,32.428006,-85.682008
12547,FMC EASTERN SHORE,124 PROFESSIONAL PARK DR,,FAIRHOPE,AL,36532,2519287835,Profit,Y,Y,12547,30.5168174,-87.8846145
12548,FAYETTE DIALYSIS,2450 TEMPLE AVE N,,FAYETTE,AL,35555,2059328500,Profit,Y,N,12548,33.7224563,-87.8159226
12549,DIALYSIS AFFILIATES OF SOUTH ALABAMA,1205 BELLEVILLE AVE.,,BREWTON,AL,36426,2518673650,Profit,Y,N,12549,31.1249305,-87.0712756
12550,GREENE COUNTY DIALYSIS,544 HIGHWAY 43,,EUTAW,AL,35462,2053724000,Profit,Y,N,12550,32.8405168,-87.8816722
12551,SHEFFIELD DIALYSIS,1120 S JACKSON HWY STE 107,,SHEFFIELD,AL,35660,2563818004,Profit,Y,N,12551,34.746895,-87.7020096
12552,FMC TOULMINVILLE,2056 DR. MARTIN LUTHER KING JR. AVE.,,MOBILE,AL,36617,2514764143,Profit,Y,N,12552,30.714734,-88.0799679
12553,PCD ELMORE COUNTY,515 HOSPITAL DRIVE,,WETUMPKA,AL,36092,3345141578,Profit,Y,N,12553,32.5512785,-86.1897556
12556,RCG PELL CITY,2804 DR. JOHN HAYNES DRIVE,,PELL CITY,AL,35125,2058847414,Profit,Y,N,12556,33.603889,-86.276916
12557,PCD EAST MONTGOMERY,6890 WINTON BLOUNT BLVD,,MONTGOMERY,AL,36117,3342600671,Profit,Y,N,12557,32.377628,-86.175557
12558,DCI DECATUR,1601 6TH AVENUE SOUTH EAST,,DECATUR,AL,35601,2563508882,Non-Profit,Y,N,12558,34.5827528,-86.9802682
12559,FMC UNIVERSITY SOUTH ALABAMA,1925 HEALTH SERVICES DRIVE,,MOBILE,AL,36688,2514606797,Profit,Y,Y,12559,30.702893,-88.178713
12560,FMC HAMILTON,1256 MILITARY STREET SOUTH,,HAMILTON,AL,35570,2059216231,Profit,Y,N,12560,34.126815,-87.990457
12561,FMC LAKEVIEW,"45 MEDICAL PARK DR., STE A",,GUNTERSVILLE,AL,35976,2567530112,Profit,Y,N,12561,34.363787,-86.4211616
12562,DCI PELL CITY,2805 DR JOHN HAYNES DR,,PELL CITY,AL,35125,2058844240,Non-Profit,Y,N,12562,33.6043617,-86.2769263
12563,DCI CULLMAN,1734 EVA ROAD NE,,CULLMAN,AL,35055,2567343055,Non-Profit,Y,N,12563,34.19565,-86.831856
12565,SOUTH BALDWIN DIALYSIS CENTER,150 W PEACHTREE AVE,,FOLEY,AL,36535,2519434155,Profit,Y,N,12565,30.4288028,-87.6854927
12566,FMC SYLACAUGA,314 WEST SPRING STREET,,SYLACAUGA,AL,35150,2562499660,Profit,Y,N,12566,33.1658129,-86.2547657
12568,FMC PARKWAY,1311 N MEMORIAL PKWY STE 100,,HUNTSVILLE,AL,35801,2565365563,Profit,Y,N,12568,34.7285921,-86.5963594
12570,NORTHPORT DIALYSIS,2401 HOSPITAL DRIVE,,NORTHPORT,AL,35476,2053398882,Profit,Y,N,12570,33.231619,-87.569211
12571,DCI GEORGIANA,P O BOX 618,,GEORGIANA,AL,36033,3343760277,Non-Profit,Y,N,12571,31.6371028,-86.7419175
12572,FMC CAMELLIA,108 L. V. STABLER DRIVE,,GREENVILLE,AL,36037,3343825052,Profit,Y,N,12572,31.8302527,-86.6464062
12573,DCI BIRMINGHAM,8713 PARKWAY EAST,,BIRMINGHAM,AL,35206,2058385400,Non-Profit,Y,Y,12573,33.577219,-86.7170453
12574,FMC CHAMBERS,802 HOSPITAL STREET,,LAFAYETTE,AL,36862,3348649914,Profit,Y,N,12574,32.8847694,-85.4123675
12575,FMC WALKER,3510 3RD STREET NORTH,,JASPER,AL,35504,2052218775,Profit,Y,N,12575,33.8441967,-87.2372389
12576,DCI MONTGOMERY,544 SOUTH MCDONOUGH STREET,,MONTGOMERY,AL,36104,3342659190,Non-Profit,Y,Y,12576,32.370824,-86.305223
12578,FMC SOUTHSIDE,2131 MAGNOLIA AVE SOUTH #100,,BIRMINGHAM,AL,35205,2053224382,Profit,Y,N,12578,0,0
12579,FMC DAUPHIN ISLAND PKWY,2381 DAUPHIN ISLAND PARKWAY,,MOBILE,AL,36605,2514712505,Profit,Y,N,12579,30.622746,-88.082749
12580,FMC THOMASVILLE,30230 HWY 43,,THOMASVILLE,AL,36784,3346361411,Profit,Y,N,12580,31.9461274,-87.738471
12582,FMC WILCOX,229 CAMDEN BYPASS,,CAMDEN,AL,36726,3346825030,Profit,Y,N,12582,32.0034749,-87.312403
12583,BESSEMER DIALYSIS,901 WESTLAKE MALL,STE 101,BESSEMER,AL,35020,2054241848,Profit,Y,N,12583,33.394843,-86.971697
12585,ENSLEY DIALYSIS,2630 AVENUE E,,BIRMINGHAM,AL,35218,2057861371,Profit,Y,N,12585,33.5068699,-86.9018824
12588,SYLACAUGA DIALYSIS,331 JAMES PAYTON BLVD,,SYLACAUGA,AL,35150,2562494994,Profit,Y,Y,12588,33.1755551,-86.2900972
12589,BIRMINGHAM NORTH DIALYSIS,1917 32ND AVENUE NORTH,,BIRMINGHAM,AL,35207,2052979052,Profit,Y,N,12589,33.5509339,-86.8282843
12590,DCI MOULTON,1962 MAIN STREET,,MOULTON,AL,35650,2569741400,Non-Profit,Y,N,12590,34.4971915,-87.2826471
12591,FMC SHELBY,1022 FIRST STREET NORTH,SUITE 101,ALABASTER,AL,35007,2056206867,Profit,Y,N,12591,33.256531,-86.812883
12592,BIRMINGHAM CENTRAL DIALYSIS,728 RICHARD ARRINGTON BLVD S,,BIRMINGHAM,AL,35233,2052506760,Profit,Y,N,12592,33.50558,-86.7981
12593,FMC ODYSSEY DIALYSIS,40 HUGHES ROAD,,MADISON,AL,35758,2567724435,Profit,Y,N,12593,34.689604,-86.736219
12594,BOAZ DIALYSIS,16 CENTRAL HENDERSON ROAD,,BOAZ,AL,35957,2568405931,Profit,Y,N,12594,34.225944,-86.163425
12595,RGC FORT PAYNE,2202 JORDAN ROAD SW,SUITE 100,FORT PAYNE,AL,35968,2568459979,Profit,Y,Y,12595,34.4287245,-85.7601212
12596,FMC MONTGOMERY BAPTIST,1400 NARROW LANE PKWY,,MONTGOMERY,AL,36111,3342864011,Profit,Y,N,12596,32.333155,-86.283585
12597,FMC BAY MINETTE,2505 HAND AVENUE,,BAY MINETTE,AL,36507,2515804448,Profit,Y,N,12597,30.911207,-87.788033
12598,DCI PHENIX CITY,1611 21ST COURT,,PHENIX CITY,AL,36867,3344484840,Profit,Y,N,12598,32.4763334,-85.0232975
12599,FMC PORT CITY,"201 ST. JOSEPH STREET, SUITE B",,MOBILE,AL,36602,2516521025,Profit,Y,N,12599,30.695537,-88.044001
12600,ATMORE DIALYSIS CENTER,807 EAST CRAIG STREET,,ATMORE,AL,36502,2513685593,Profit,Y,N,12600,0,0
12601,FMC WEST,633 LOMB AVENUE,,BIRMINGHAM,AL,35211,2057812366,Profit,Y,N,12601,0,0
12602,RUSSELLVILLE DIALYSIS,14897 HWY 43,,RUSSELLVILLE,AL,35653,2563327044,Profit,Y,N,12602,0,0
12603,FMC FAIRFIELD,6508 E. J. OLIVER BLVD,,FAIRFIELD,AL,35064,2057805122,Profit,Y,N,12603,33.4745282,-86.9189689
12604,RCG CLANTON,275 HEALTH CENTER DRIVE,,CLANTON,AL,35045,2052804331,Profit,Y,N,12604,32.8561194,-86.6226246
12605,BIRMINGHAM HOME TRAINING DIALYSIS,2101 7TH AVENUE SOUTH,,BIRMINGHAM,AL,35233,2052415105,Profit,N,Y,12605,33.5063389,-86.797954
12606,FMC CHASE,1849 KEATS DRIVE NORTHWEST,,HUNTSVILLE,AL,35810,2568528900,Profit,Y,N,12606,34.756832,-86.59761
12607,ROANOKE DIALYSIS CLINIC,4459 US HIGHWAY 431,,ROANOKE,AL,36274,3348638365,Profit,Y,Y,12607,33.108977,-85.3551635
12608,FMC ONEONTA,"150 GILBREATH DRIVE, SUITE 1",,ONEONTA,AL,35121,2056256903,Profit,Y,N,12608,33.9322722,-86.4930028
12609,EUFAULA DIALYSIS,220 SOUTH ORANGE AVE,,EUFAULA,AL,36027,3346880806,Profit,Y,N,12609,31.8905046,-85.1421485
12610,FMC MAGNOLIA,7940 MOFFETT ROAD,,SEMMES,AL,36575,2516496343,Profit,Y,N,12610,30.767361,-88.22865
12611,FMC DALLAS COUNTY,200 SOUTH PARK PL,,SELMA,AL,36701,3348728460,Profit,Y,N,12611,32.4272,-87.0535
12612,FMC GARDENDALE,592 FIELDSTOWN ROAD,SUITE 102,GARDENDALE,AL,35071,2056083653,Profit,Y,N,12612,33.652943,-86.820763
12613,FMC DISCOVERY,"1131 EAGLETREE LN, STE100",,HUNTSVILLE,AL,35801,2564894160,Profit,Y,Y,12613,34.7364493,-86.5501654
12614,FMC VALLEY CREEK,201 LINCOLN LANE,,SELMA,AL,36701,3348755436,Profit,Y,Y,12614,32.4326153,-87.0577804
12615,FMC AUBURN,211 E UNIVERSITY DR,,AUBURN,AL,36832,3345018890,Non-Profit,Y,N,12615,32.579908,-85.489265
12616,LANDMARK DIALYSIS,717 STONE AVE,,TALLADEGA,AL,35160,2563624449,Non-Profit,Y,Y,12616,33.4400347,-86.0885525
12617,FMC ALEXANDER CITY,3368 HWY 280 BYPASS,SUITE G-1,ALEXANDER CITY,AL,35010,2563290638,Profit,Y,Y,12617,32.918545,-85.933375
12618,RRC NORTHRIDGE,4400 WATERMELON ROAD,,NORTHPORT,AL,35473,2057222968,Profit,Y,Y,12618,33.247894,-87.548959
12619,TUSCALOOSA NEPHROLOGY ASSOC HOME DIALYSIS,1649 N MCFARLAND BLVD,SUITE 203,TUSCALOOSA,AL,35406,2055565541,Profit,N,Y,12619,33.1925316,-87.525883
12620,HOME DIALYSIS OF NORTH ALABAMA,"1216 SOMMERVILLE ROAD, SE",,DECATUR,AL,35601,2563400012,Profit,N,Y,12620,34.588494,-86.972412
12621,RAI-SNOW ST-OXFORD,711 SNOW STREET,,OXFORD,AL,36203,2568355914,Profit,Y,Y,12621,33.6153368,-85.8233729
12622,DAVITA TALLADEGA,726 E BATTLE STREET,SUITE A,TALLADEGA,AL,35160,2563622332,Profit,Y,N,12622,33.4385256,-86.0853497
12623,DAVITA CENTER POINT DIALYSIS,2337 1ST ST NE,,CENTER POINT,AL,35215,2055201108,Profit,Y,N,12623,33.646348,-86.6818955
12624,FMC MIDFIELD DIALYSIS,613 BESSEMER SUPER HIGHWAY,,BIRMINGHAM,AL,35228,2054810019,Profit,Y,N,12624,33.4544864,-86.9207732
12625,RAI JACKSONVILLE,"331 HENRY RD, S.W.",,JACKSONVILLE,AL,36265,2564353161,Non-Profit,Y,N,12625,33.7857676,-85.7701989
12626,FMC NORTHWEST ALABAMA KIDNEY CENTER,638 TAHOE ROAD,,WINFIELD,AL,35594,2054872800,Profit,Y,N,12626,33.932901,-87.825737
12627,HOME DIALYSIS OPTIONS OF BALDWIN COUNTY,"27880 N. MAIN ST, SUITE A",,DAPHNE,AL,36526,2516261086,Profit,N,Y,12627,30.6311462,-87.9106889
12628,OPELIKA DIALYSIS CENTER,2340 PEPPERELL PKWY,,OPELIKA,AL,36801,3347456883,Profit,Y,Y,12628,32.6374778,-85.4138219
12629,DAVITA RENAISSANCE,1840 DARBY DRIVE,,FLORENCE,AL,35630,2567642313,Profit,Y,N,12629,34.8216613,-87.6563423
12630,DAVITA WIREGRASS KIDNEY CENTER,1450 ROSS CLARK CIRCLE,SUITE 200,DOTHAN,AL,36301,3347928907,Profit,Y,N,12630,31.200087,-85.370962
12631,GULF SHORES DIALYSIS CENTER,3947 GULF SHORES PARKWAY,,GULF SHORES,AL,36542,2519672205,,Y,Y,12631,30.310106,-87.683526
12632,MUSCLE SHOALS DIALYSIS,712 STATE STREET,,MUSCLE SHOALS,AL,35661,2563867028,Profit,Y,N,12632,34.743821,-87.6654833
12633,FMC PRATTVILLE,692 COVERED BRIDGE PARKWAY,,PRATTVILLE,AL,36066,3343587414,Profit,Y,N,12633,32.4803458,-86.4147278
12634,FMC FOLEY,230 EAST FERN AVENUE,,FOLEY,AL,36535,2519431500,Profit,Y,N,12634,30.4214763,-87.6841794
12636,FMC JAGUAR,575 STANTON ROAD,UNIT B,MOBILE,AL,36617,2514760502,Profit,Y,Y,12636,30.7075529,-88.096369
12637,DCI HIGHLAND PARK,1912 CHERRY STREET,,MONTGOMERY,AL,36107,3342641060,Non-Profit,Y,N,12637,32.3700204,-86.282381
12638,FMC HOOVER,2104 LORNA RIDGE LANE,,HOOVER,AL,35216,2059780271,Profit,Y,N,12638,33.3914291,-86.7961367
12639,FMC MONTEVALLO,3883 HIGHWAY 25,,MONTEVALLO,AL,35115,2056654440,Profit,Y,N,12639,33.0913685,-86.8670386
12640,PICKENS COUNTY DIALYSIS,289 WILLIAM E HILL DRIVE,SUITE A,CARROLLTON,AL,35447,2053671194,Profit,N,N,12640,33.2617871,-88.0950263
13300,CHILDRENS HOSPITAL DIALYSIS,1600 7TH AVENUE SOUTH,,BIRMINGHAM,AL,35233,2059399275,Non-Profit,Y,Y,13300,33.503694,-86.805516
22500,FMC  ANCHORAGE,3950 LAUREL STREET,,ANCHORAGE,AK,99508,9075633149,Profit,Y,Y,22500,61.1850177,-149.83463
22502,FMC  FAIRBANKS,1863 AIRPORT WAY,,FAIRBANKS,AK,99701,9074522900,Profit,Y,Y,22502,64.8367164,-147.7557744
22503,FMC  WASILLA,3787 E MERIDIAN LOOP,,WASILLA,AK,99654,9073575600,Profit,Y,Y,22503,61.5886405,-149.3557468
22504,REIFENSTEIN DIALYSIS CENTER,9109 MENDENHALL MALL RD SUITE #6,,JUNEAU,AK,99801,9077903002,Profit,Y,Y,22504,0,0
22506,LIBERTY DIALYSIS - ALASKA LLC,901 EAST DIMOND BOULEVARD,,ANCHORAGE,AK,99515,9075229009,Profit,Y,Y,22506,61.1445701,-149.8924125
22507,FMC COOK INLET,9085 BLACKBERRY ST,,ANCHORAGE,AK,99502,9078681779,Profit,Y,Y,22507,61.1383926,-149.944381
22508,FMC SOLDOTNA,289 N FIREWOOD LANE STE A,,SOLDOTNA,AK,99669,9074204970,Profit,Y,Y,22508,60.4877778,-151.0583332
30022,MARICOPA MEDICAL CENTER/DIALYSIS,2525 E. ROOSEVELT,,PHOENIX,AZ,85008,6023441601,Non-Profit,Y,N,30022,33.4585097,-112.0262014
31308,GILA RIVER DIALYSIS EAST,565 W SEED FARM RD,,SACATON,AZ,85247,6022717900,Non-Profit,Y,N,31308,33.0740903,-111.7471021
32500,TUCSON WEST DIALYSIS (DVA),1780 WEST ANKLAM ROAD,,TUCSON,AZ,85745,5206242220,Profit,Y,Y,32500,32.2260899,-111.004435
32501,TUCSON EAST DIALYSIS (DVA),6420 EAST BROADWAY #C-300,,TUCSON,AZ,85710,5207902775,Profit,Y,Y,32501,0,0
32502,YUMA DIALYSIS (DVA),2130 WEST 24TH STREET,,YUMA,AZ,85364,9287832365,Profit,Y,Y,32502,32.6840014,-114.6463355
32503,PHOENIX ARTIFICIAL KIDNEY CENTER (FMC),13090 N. 94TH DRIVE STE. 100,,PEORIA,AZ,85381,6239745851,Profit,Y,N,32503,33.6021256,-112.2630078
32504,CAMELBACK DIALYSIS (DVA),7321 E. OSBORN DRIVE,,SCOTTSDALE,AZ,85251,4809700924,Profit,Y,Y,32504,33.486811,-111.924741
32506,TUBA CITY DIALYSIS UNIT (DVA),500 EDGEWATER DR,,TUBA CITY,AZ,86045,9282834525,Profit,Y,Y,32506,36.1294391,-111.2320953
32508,SOUTH PHOENIX DIALYSIS SERVICES (FMC),1021 SOUTH 7TH AVENUE SUITE 108,,PHOENIX,AZ,85007,6022531954,Profit,Y,N,32508,33.4380125,-112.0825165
32509,EAST VALLEY DIALYSIS (FMC),"135 S POWER RD, #103",,MESA,AZ,85206,4809854911,Profit,Y,N,32509,0,0
32513,SELLS DIALYSIS (DVA),HWY 86 - MP 113,,SELLS,AZ,85634,5203831701,Profit,Y,N,32513,31.9120215,-111.881234
32514,DESERT DIALYSIS CENTER (DCI),2022 E PRINCE ROAD,,TUCSON,AZ,85719,5203270007,Non-Profit,Y,Y,32514,32.271572,-110.940912
32515,WHITERIVER DIALYSIS (FMC),HWY 73  MILEPOST 342,,WHITERIVER,AZ,85941,9283381498,Profit,Y,N,32515,33.8369944,-109.9642664
32516,CHANDLER DIALYSIS (FMC),912 W CHANDLER BLVD BLD A-D,,CHANDLER,AZ,85225,4808219801,Profit,Y,N,32516,33.3091946,-111.8210866
32517,CENTRAL PHOENIX DIALYSIS (FMC),3421 N. 7TH AVENUE,,PHOENIX,AZ,85013,6022742293,Profit,Y,N,32517,33.4884298,-112.0832175
32518,FOUR CORNERS DIALYSIS CLINIC CHINLE (DVA),US HWY 191,,CHINLE,AZ,86503,9286743674,Profit,Y,N,32518,36.2400547,-109.6015124
32520,SIERRA VISTA DIALYSIS (DVA),"629 NORTH HIGHWAY 90 - SUITE 6, 7",,SIERRA VISTA,AZ,85635,5204597791,Profit,Y,N,32520,31.5587588,-110.2571037
32521,DIALYSIS CENTER OF GLENDALE (FMC),5957 W. NORTHERN AVENUE #108,,GLENDALE,AZ,85301,6234351155,Profit,Y,N,32521,0,0
32522,PARKER DIALYSIS CENTER (FMC),AGENCY ROAD BLDG 173,,PARKER,AZ,85344,9286699838,Profit,Y,N,32522,34.1465309,-114.299025
32523,PRESCOTT DIALYSIS (DSI),980 WILLOW CREEK ROAD #101,,PRESCOTT,AZ,86301,9287769459,Profit,Y,N,32523,0,0
32524,FLAGSTAFF DIALYSIS CENTER (FMC),5200 E CORTLAND BLVD A1-A4,,FLAGSTAFF,AZ,86004,9285274990,Profit,Y,N,32524,35.213175,-111.576408
32525,DESERT MOUNTAIN DIALYSIS (DVA),9220 E. MOUNTAIN VIEW SUITE 105,,SCOTTSDALE,AZ,85258,4803912241,Profit,Y,N,32525,33.576405,-111.879887
32526,SOUTHWEST MESA DIALYSIS (DSI),1457 W SOUTHERN AVE -  SUITE D19,,MESA,AZ,85202,4808945411,Profit,Y,N,32526,33.3930084,-111.8629436
32528,THUNDERBIRD DIALYSIS (FMC),5750 W THUNDERBIRD RD. BLD G - STE #750,,GLENDALE,AZ,85306,6024399502,Profit,Y,Y,32528,0,0
32530,DESERT VALLEY DIALYSIS (FMC),15846 N. CAVE CREEK RD. #2,,PHOENIX,AZ,85032,6029714555,Profit,Y,N,32530,0,0
32533,GLOBE DIALYSIS (FMC),2250 US HWY 60 SUITE O-2,,MIAMI,AZ,85539,9284252624,Profit,Y,N,32533,36.6270597,-94.9994208
32535,HOME DIALYSIS OF MESA (FMC),"1337 S. GILBERT RD, SUITE 106",,MESA,AZ,85204,4809269222,Profit,N,Y,32535,33.391495,-111.787711
32536,WINSLOW DIALYSIS CENTER (FMC),1313 EAST THIRD STREET,,WINSLOW,AZ,86047,9282893318,Profit,Y,N,32536,35.0193566,-110.6849962
32537,ESTRELLA DIALYSIS CENTER (FMC),5546 WEST ROOSEVELT ST  #1,,PHOENIX,AZ,85043,6023520724,Profit,Y,N,32537,0,0
32539,MESA DIALYSIS CENTER (FMC),1525 NORTH GILBERT RD # 121,,GILBERT,AZ,85234,4804971127,Profit,Y,N,32539,0,0
32540,WESTERN SKIES DIALYSIS INC.,1041 N ARIZOLA RD,,CASA GRANDE,AZ,85122,5208365883,Profit,Y,Y,32540,32.883655,-111.714663
32541,TEMPE DIALYSIS (FMC),1449 W SOUTHERN AVE,,TEMPE,AZ,85282,4809676360,Profit,Y,N,32541,33.392842,-111.9619216
32542,ARCADIA DIALYSIS CENTER (FMC),2702 NORTH 44TH STREET SUITE 107B,,PHOENIX,AZ,85008,6029557475,Profit,Y,N,32542,33.478162,-111.987934
32543,NOGALES DIALYSIS (DVA),1231 WEST TARGET RANGE ROAD,,NOGALES,AZ,85621,5202876597,Profit,Y,N,32543,31.3412155,-110.9597743
32544,LAKE HAVASU DIALYSIS (FMC),1761 MCCULLOCH BLVD. SUITE G,,LAKE HAVASU CITY,AZ,86403,9286804748,Profit,Y,Y,32544,34.477424,-114.341556
32545,SOUTH MOUNTAIN DIALYSIS CENTER (FMC),26 EAST BASELINE SUITE 142,,PHOENIX,AZ,85042,6022688158,Profit,Y,N,32545,33.378801,-112.070599
32546,SUN CITY WEST DIALYSIS (FMC),12213 WEST BELL ROAD #110,,SURPRISE,AZ,85374,6235838865,Profit,Y,N,32546,0,0
32547,SUN CITY DIALYSIS (FMC),10050 WEST BELL ROAD STE. 29-31,,SUN CITY,AZ,85351,6238151770,Profit,Y,N,32547,33.639426,-112.276342
32549,SAFFORD DIALYSIS (FMC),1250 S 20TH AVENUE,,SAFFORD,AZ,85546,9284281400,Profit,Y,Y,32549,32.8259895,-109.7330064
32550,NORTH PHOENIX DIALYSIS (FMC),1957 WEST DUNLAP AVE # 6C,,PHOENIX,AZ,85021,6029431763,Profit,Y,Y,32550,0,0
32551,MESA DIALYSIS (DSI),1337 SOUTH GILBERT ROAD #109,,MESA,AZ,85204,4809261906,Profit,Y,N,32551,0,0
32552,ARROWHEAD DIALYSIS (FMC),16844 NORTH 59TH AVENUE,,GLENDALE,AZ,85306,6024398200,Profit,Y,N,32552,33.637459,-112.1864081
32553,PAPAGO DIALYSIS (DVA),1401 NORTH 24TH STREET SUITE 2,,PHOENIX,AZ,85008,6023920668,Profit,Y,N,32553,33.464253,-112.029673
32556,SOUTH YUMA DIALYSIS (DVA),7179 E 31ST PLACE,,YUMA,AZ,85365,9283170517,Profit,Y,N,32556,32.6719447,-114.4569972
32557,TUCSON SOUTH DIALYSIS (DVA),3662 SOUTH 16TH AVENUE,,TUCSON,AZ,85713,5208829665,Profit,Y,N,32557,32.1811269,-110.984519
32558,BULLHEAD CITY DIALYSIS (FMC),2650 MIRACLE MILE,,BULLHEAD CITY,AZ,86442,9287635550,Profit,Y,N,32558,35.089617,-114.5964582
32559,FOUR CORNERS DIAL CLINIC KAYENTA (DVA),US HWY 163 N,,KAYENTA,AZ,86033,9286978182,Profit,Y,N,32559,36.8309886,-110.2443299
32561,CASA GRANDE DIALYSIS (FMC),695 EAST COTTONWOOD LANE,,CASA GRANDE,AZ,85122,5208362566,Profit,Y,N,32561,32.893794,-111.744628
32562,COTTONWOOD DIALYSIS (DSI),203 SOUTH CANDY LANE #11A & B,,COTTONWOOD,AZ,86326,9286390014,Profit,Y,N,32562,0,0
32563,SCOTTSDALE DIALYSIS (FMC),1495 N HAYDEN   SUITE D1-D4,,SCOTTSDALE,AZ,85257,4809497844,Profit,Y,N,32563,33.464349,-111.908369
32564,MARYVALE DIALYSIS (FMC),4522 WEST INDIAN SCHOOL RD  B1-3,,PHOENIX,AZ,85031,6232470695,Profit,Y,N,32564,33.4949576,-112.1564164
32565,DESERT DIALYSIS CENTER SOUTH TUCSON (DCI),1011 E PENNSYLVANIA,,TUCSON,AZ,85719,5208060007,Non-Profit,Y,N,32565,32.172162,-110.95565
32568,RED MOUNTAIN DIALYSIS (FMC),1211 N. COUNTRY CLUB DR. STE #4,,MESA,AZ,85201,4808337440,Profit,Y,N,32568,0,0
32571,NORTH SCOTTSDALE DIALYSIS (FMC),"16101 NORTH 82ND STREET, ST. 6-7",,SCOTTSDALE,AZ,85260,4806072953,Profit,Y,Y,32571,33.6322361,-111.9037019
32572,DESERT DIALYSIS SRVS INC-SUN CITY,13000 NORTH 103RD AVE. SUITE 66,,SUN CITY,AZ,85351,6235833131,Profit,Y,N,32572,33.6020961,-112.2813587
32573,PASCUA YAQUI DIALYSIS (DVA),7490 S. CAMINO DE OESTE,,TUCSON,AZ,85757,5208796161,Profit,Y,N,32573,32.1160807,-111.0631655
32575,SHOW LOW DIALYSIS (FMC),1500 S WHITE MOUNTAIN BLVD #204,,SHOW LOW,AZ,85901,9285328430,Profit,Y,Y,32575,0,0
32577,YAVAPAI DIALYSIS (FMC),3605 RANCH DR,,PRESCOTT,AZ,86303,9284439626,Profit,Y,Y,32577,34.547486,-112.401399
32578,APACHE JUNCTION DIALYSIS (FMC),11540 E UNIVERSITY DRIVE  SUITE 109,,APACHE JUNCTION,AZ,85220,4803575572,Profit,Y,N,32578,33.4223642,-111.5815006
32579,SUN LAKES DIALYSIS (FMC),9666 E RIGGS RD SUITE 143,,SUN LAKES,AZ,85248,4808831301,Profit,Y,N,32579,33.2183754,-111.8744759
32580,PALM VALLEY DIALYSIS (FMC),13657 W MCDOWELL ROAD SUITE 106,,GOODYEAR,AZ,85338,6235361096,Profit,Y,N,32580,33.463717,-112.353421
32581,AK-CHIN DIALYSIS (FMC),16536 N MARICOPA RD,,MARICOPA,AZ,85239,5205683120,Profit,Y,N,32581,33.0554874,-112.2716108
32582,KINGMAN KIDNEY CENTER INC.,4055 STOCKTON HILL RD SUITE 15,,KINGMAN,AZ,86409,9286926500,Profit,Y,Y,32582,35.240966,-114.038656
32583,SOUTH PHOENIX DIALYSIS (DSI),4621 S CENTRAL AVE,,PHOENIX,AZ,85040,6023041977,Profit,Y,N,32583,33.4043139,-112.0731733
32586,TEMPE RENAL CENTER (DSI),8820 S KYRENE RD,,TEMPE,AZ,85284,4808932299,Profit,Y,N,32586,33.3342734,-111.9456702
32587,DEER VALLEY DIALYSIS (FMC),"21241 N 23RD AVE, SUITE 11",,PHOENIX,AZ,85027,6238696089,Profit,Y,N,32587,33.679148,-112.107029
32589,TUCSON SOUTH CENTRAL DIALYSIS (DVA),2024 E IRVINGTON,,TUCSON,AZ,85714,5205730200,Profit,Y,N,32589,32.1632521,-110.9419687
32591,PHOENIX CHILDRENS HOSPITAL- DIALYSIS CENTER,1920 E CAMBRIDGE RD STE. 102,,PHOENIX,AZ,85016,6025463220,Non-Profit,Y,Y,32591,33.4775675,-112.0400003
32592,HOPI DIALYSIS CENTER (DVA),HIGHWAY 264 MILE MARKER 388,,POLACCA,AZ,86042,9287375490,Profit,Y,Y,32592,35.8366716,-110.3815198
32593,GRANITE VALLEY DIALYSIS (FMC),14510 W SHUMWAY DR STE 100,,SUN CITY WEST,AZ,85375,6235462718,Profit,Y,N,32593,33.6627264,-112.3724821
32594,SALT RIVER DIALYSIS CENTER (FMC),10301 EAST OSBORN RD BLDG #14,,SCOTTSDALE,AZ,85256,4803621044,Profit,Y,N,32594,0,0
32595,GLENDALE FAMILY HEALTH CENTER - DIALYSIS,5141 W LAMAR ROAD,,GLENDALE,AZ,85301,6233446781,Non-Profit,Y,N,32595,33.5366418,-112.1702463
32596,NORTHEAST PHOENIX DIALYSIS (DSI),3305 E GREENWAY ROAD - SUITE 1,,PHOENIX,AZ,85032,6027653919,Profit,Y,N,32596,33.625914,-112.010898
32597,SAN CARLOS DIALYSIS (FMC),US 70 & HIGHWAY SRT 170,,PERIDOT,AZ,85542,9284755987,Profit,Y,N,32597,34.2503708,-93.6419001
32598,MAMMOTH DIALYSIS (FMC),14786 SOUTH HIGHWAY 77 - POB 729,,MAMMOTH,AZ,85618,5204870150,Profit,Y,N,32598,32.722568,-110.6406547
32599,AHWATUKEE DIALYSIS (FMC),4629  E CHANDLER BLVD STE #100,,PHOENIX,AZ,85048,4807852270,Profit,Y,N,32599,0,0
32600,SCOTTSDALE DIALYSIS CENTER (DVA),4725 N SCOTTSDALE RD SUITE 100,,SCOTTSDALE,AZ,85251,4809941445,Profit,Y,N,32600,33.505709,-111.9247343
32601,PALM BROOK DIALYSIS CENTER (DVA),14664 NORTH DEL WEBB BLVD,,SUN CITY,AZ,85351,6235836550,Profit,Y,N,32601,33.618638,-112.292247
32604,SOUTHWEST KIDNEY DIALYSIS - ARROWHEAD LAKES (DVA),"20325 N. 51ST AVE, BLDG 11, STE 186",,GLENDALE,AZ,85308,6235336521,Profit,Y,Y,32604,33.670568,-112.1691538
32605,SOUTHWEST KIDNEY DIALYSIS - GILBERT (DVA),5222 EAST BASELINE RD SUITE 104,,GILBERT,AZ,85234,4808326996,Profit,Y,N,32605,33.3792985,-111.7218974
32607,AVONDALE DIALYSIS (FMC),10750 W MCDOWELL RD BLDG. E-500,,AVONDALE,AZ,85323,6236439334,Profit,Y,N,32607,33.46553,-112.29053
32608,AVONDALE DIALYSIS (DSI),13055 W MCDOWELL RD - SUITE F101,,AVONDALE,AZ,85392,6239355460,Profit,Y,Y,32608,33.463626,-112.3369016
32609,SOUTHWEST KIDNEY DIALYSIS - TEMPE (DVA),"2149 E WARNER ROAD, SUITE 110",,TEMPE,AZ,85284,4807303531,Profit,Y,Y,32609,33.3347379,-111.8951598
32610,SOUTHEAST VALLEY DIALYSIS (FMC),22715 SOUTH ELLSWORTH RD BLDG D,,QUEEN CREEK,AZ,85142,4806772463,Profit,Y,N,32610,33.2397555,-111.6347857
32611,SOUTHWEST KIDNEY DIALYSIS - PHOENIX (DVA),"337 EAST CORONADO ROAD, STE 101",,PHOENIX,AZ,85004,6022539006,Profit,Y,N,32611,33.4674793,-112.0673449
32612,SOUTHWEST KIDNEY DIALYSIS - ESTRELLA (DVA),8410 WEST THOMAS RD - BLDG 1 - SUITE 100,,PHOENIX,AZ,85037,6232470808,Profit,Y,N,32612,33.480768,-112.241406
32613,NORTHWEST TUCSON DIALYSIS (FMC),6261 N LA CHOLLA BLVD STE 181,,TUCSON,AZ,85741,5202971490,Profit,Y,Y,32613,32.32077,-111.013366
32614,DOUGLAS DIALYSIS CENTER (DCI),99 E 16TH STREET,,DOUGLAS,AZ,85607,5203642204,Non-Profit,Y,N,32614,31.350017,-109.560839
32615,RIM COUNTRY DIALYSIS (DVA),809 WEST LONGHORN RD SUITE E,,PAYSON,AZ,85541,9284747000,Profit,Y,N,32615,34.240359,-111.3424299
32616,DESERT DIALYSIS SAHUARITA (DCI),1700 W COMMERCE POINTE PLACE,,SAHUARITA,AZ,85629,5206250103,Non-Profit,Y,N,32616,31.897148,-111.002302
32617,TUCSON WEST DIALYSIS CENTER (FMC),100 W GRANT ROAD,,TUCSON,AZ,85705,5206240266,Profit,Y,Y,32617,32.251079,-110.973692
32618,NORTHWEST TUCSON DIALYSIS (DVA),2945 W INA RD STE 105,,TUCSON,AZ,85741,5207970049,Profit,Y,N,32618,32.336615,-111.030196
32619,MOUNTAIN VISTA DIALYSIS OF ARIZONA (DVA),"10238 E HAMPTON AVE, STE 108",,MESA,AZ,85209,4803570366,Profit,Y,N,32619,33.391418,-111.609281
32620,GRAND HOME DIALYSIS (DVA),14674 W MOUNTAIN VIEW BLVD STE 204,,SURPRISE,AZ,85374,6235466120,Profit,N,Y,32620,33.655227,-112.378399
32621,WEST BROOK DIALYSIS (DVA),13907 W CAMINO DEL SOL,,SUN CITY WEST,AZ,85375,6232147088,Profit,Y,N,32621,33.657448,-112.362376
32622,GOODYEAR DIALYSIS (FMC),500 N BULLARD AVE - BLDG C34,,GOODYEAR,AZ,85338,6239258955,Profit,Y,Y,32622,33.452407,-112.377146
32624,SOUTHWEST KIDNEY CENTRAL MESA (DVA),1134 EAST UNIVERSITY DR SUITE 101,,MESA,AZ,85203,4804643851,Profit,Y,N,32624,33.422922,-111.806875
32625,RAVEN DIALYSIS CENTER (DVA),3540 E BASELINE RD STE 110,,PHOENIX,AZ,85042,6024312110,Profit,Y,N,32625,33.3782448,-112.0044608
32626,MIDVALE PARK DIALYSIS (FMC),1430 W VALENCIA RD - STE 1,,TUCSON,AZ,85746,5208894555,Profit,Y,Y,32626,32.1338212,-110.9949204
32627,TUCSON CENTRAL DIALYSIS (DVA),2901 E GRANT RD,,TUCSON,AZ,85716,5203253408,Profit,Y,N,32627,32.2504128,-110.9295248
32628,KINGMAN DIALYSIS CLINIC (FMC),1739 E BEVERLY AVE #208,,KINGMAN,AZ,86401,9286814300,Profit,Y,N,32628,0,0
32629,SOUTH TUCSON DIALYSIS (FMC),2802 SOUTH 6TH AVE,,TUCSON,AZ,85713,5207922999,Profit,Y,N,32629,32.1903634,-110.9684389
32630,BROOKWOOD DIALYSIS CLINIC (DVA),8910 N 43RD AVE STE 107,,GLENDALE,AZ,85302,6239372735,Profit,Y,N,32630,33.567096,-112.152139
32631,OCOTILLO DIALYSIS (DVA),975 W CHANDLER HEIGHTS STE 101,,CHANDLER,AZ,85248,4808024405,Profit,Y,N,32631,33.2327748,-111.8573875
32632,RITA RANCH DIALYSIS (DVA),7355 S HOUGHTON RD STE 101,,TUCSON,AZ,85747,5206634035,Profit,Y,N,32632,32.118443,-110.771023
32633,SANTAN DIALYSIS (FMC),300 W HIGHWAY 287 SUITE 300,,FLORENCE,AZ,85132,5208681144,Profit,Y,N,32633,33.019467,-111.391487
32634,SOUTHWEST KIDNEY DIALYSIS - MARYVALE (DVA),4845 W MCDOWELL RD #10A,,PHOENIX,AZ,85035,6022788349,Profit,Y,N,32634,0,0
33503,GILA RIVER DIALYSIS WEST,"9721 WEST PECOS RD- RR2, BOX 807",,LAVEEN,AZ,85339,5205506050,Non-Profit,Y,N,33503,33.2904477,-112.1690173
40007,ST VINCENT INFIRMARY-DIALYSIS,#2 SAINT VINCENT CIR,,LITTLE ROCK,AR,72205,5015522140,Non-Profit,Y,N,40007,0,0
40020,ST BERNARDS REGIONAL MED CTR-DIALYSIS,540 E WASHINGTON,,JONESBORO,AR,72401,8709724477,Non-Profit,Y,Y,40020,35.8383721,-90.7003532
40114,BAPTIST HEALTH MED CTR - DIALYSIS,9601 I 630 EXIT 7,,LITTLE ROCK,AR,72205,5012022364,Non-Profit,Y,Y,40114,34.757459,-92.3270926
40117,ARKANSAS CHILDRENS HOSPITAL-DIALYSIS,1 CHILDRENS WAY-SLOT 204,,LITTLE ROCK,AR,72202,5013641813,Non-Profit,Y,Y,40117,34.7359274,-92.2975183
42501,FT SMITH REGIONAL DIALYSIS CTR,1506 DODSON AVE,,FORT SMITH,AR,72901,4797097452,Profit,Y,Y,42501,35.3724381,-94.4177802
42507,OUACHITA REGIONAL DIALYSIS CTR,1900 MALVERN AVE STE 102,,HOT SPRINGS,AR,71901,5016240196,Profit,Y,Y,42507,34.4869,-93.035739
42508,RIVER VALLEY KIDNEY CTR,3121 W SECOND CT,,RUSSELLVILLE,AR,72801,4799684687,Profit,Y,Y,42508,35.285648,-93.167935
42510,FMCNA - HELENA,108 D ANNA PL,,HELENA,AR,72342,8703387800,Profit,Y,N,42510,34.5164397,-90.6323642
42512,DEGRAY KIDNEY CTR,312 PROFESSIONAL PARK DR STE H,,ARKADELPHIA,AR,71923,8702463021,Profit,Y,Y,42512,34.1217861,-93.0887778
42513,DAVITA - SPRINGHILL DIALYSIS CTR,SPRINGHILL MEDICAL PLAZA,3401 SPRINGHILL DR STE 190,NORTH LITTLE ROCK,AR,72117,5019453669,Profit,Y,Y,42513,34.777697,-92.1253854
42514,DAVITA - SEARCY DIALYSIS CTR,3208 LANGLEY ST,,SEARCY,AR,72143,5012684400,Profit,Y,Y,42514,35.24492,-91.694099
42515,MAGNOLIA DIALYSIS CTR,1411 N JACKSON,,MAGNOLIA,AR,71754,8702344945,Profit,Y,N,42515,33.280489,-93.236129
42517,DAVITA - CONWAY DIALYSIS CTR,2445 CHRISTINA LN,,CONWAY,AR,72034,5013282186,Profit,Y,Y,42517,35.0673109,-92.461933
42518,FMCNA - FAULKNER COUNTY,201 SKYLINE DR  STE 32,,CONWAY,AR,72032,5013297715,Profit,Y,N,42518,35.1108924,-92.4281811
42521,FMCNA - LITTLE ROCK DIALYSIS,10310 W MARKHAM STE 100,,LITTLE ROCK,AR,72205,5012253890,Profit,Y,Y,42521,34.754244,-92.388188
42525,OUACHITA VALLEY KIDNEY CTR,1114 WASHINGTON NW,,CAMDEN,AR,71701,8708371330,Profit,Y,Y,42525,33.5848645,-92.8491427
42527,RCG - LAKE VILLAGE,505 SAINT MARYS STREET,,LAKE VILLAGE,AR,71653,8702653837,Profit,Y,N,42527,33.3298826,-91.2861647
42528,FMCNA - EAST ARKANSAS,310 S RHODES,,WEST MEMPHIS,AR,72301,8707355445,Profit,Y,N,42528,35.1439665,-90.1876689
42531,HOT SPRINGS DIALYSIS,115 WRIGHTS ST,,HOT SPRINGS,AR,71913,5016240153,Profit,Y,N,42531,34.472055,-93.062
42532,FMCNA - PINE BLUFF,JEFFERSON SQUARE STE 19,2801 S OLIVE,PINE BLUFF,AR,71603,8705342233,Profit,Y,Y,42532,34.1877115,-92.0204126
42533,FMCNA - ST FRANCIS COUNTY DIALYSIS,210 BARROW HILL RD,,FORREST CITY,AR,72335,8706306484,Profit,Y,N,42533,35.0484823,-90.7866399
42534,DSI - OSCEOLA RENAL CTR,1420 W KEISER AVE,,OSCEOLA,AR,72370,8705632695,Profit,Y,Y,42534,35.698135,-89.991917
42535,DAVITA - JACKSONVILLE DIALYSIS CTR,202 JOHN HARDIN DR,,JACKSONVILLE,AR,72076,5019822224,Profit,Y,N,42535,34.870753,-92.12519
42536,SOUTH ARKANSAS KIDNEY CTR-EL DORADO,620 W GROVE ST,,EL DORADO,AR,71730,8708628788,Profit,Y,Y,42536,33.2183985,-92.6707705
42537,FMCNA - STUTTGART DIALYSIS,2202 S MAIN ST,,STUTTGART,AR,72160,8706738823,Profit,Y,N,42537,34.47902,-91.553561
42539,DAVITA - FAYETTEVILLE,509 E MILLSAP STE 111,,FAYETTEVILLE,AR,72703,4794436688,Profit,Y,Y,42539,36.113662,-94.150231
42540,DAVITA - BENTONVILLE,1104 SE 30TH ST,,BENTONVILLE,AR,72712,4796576220,Profit,Y,Y,42540,36.339508,-94.19588
42543,FMCNA - MONTICELLO,774 JORDAN DR,,MONTICELLO,AR,71655,8703673100,Profit,Y,N,42543,33.6104344,-91.8061397
42545,SOUTHWEST ARKANSAS DIALYSIS-MAGNOLIA,225 N DUDNEY,,MAGNOLIA,AR,71753,8702341322,Profit,Y,N,42545,33.2973418,-93.2054045
42547,DAVITA - MIDTOWN DIALYSIS CTR,#2 LILE CT STE 102,,LITTLE ROCK,AR,72205,5012213123,Profit,Y,Y,42547,0,0
42548,DAVITA - NORTH LITTLE ROCK DIALYSIS CTR,4505 E MCCAIN BLVD,,NORTH LITTLE ROCK,AR,72117,5019452323,Profit,Y,N,42548,34.7892536,-92.2173974
42549,DAVITA - SILOAM SPRINGS,500 S MT OLIVE STE 107,,SILOAM SPRINGS,AR,72761,4795240104,Profit,Y,N,42549,36.1812169,-94.542115
42550,FMCNA - BLYTHEVILLE,1001 E MOULTRIE,,BLYTHEVILLE,AR,72315,8707627700,Profit,Y,N,42550,35.936473,-89.914621
42551,LEWISVILLE DIALYSIS CTR,PO BOX 742,,LEWISVILLE,AR,71845,8709214111,Profit,Y,N,42551,33.3584583,-93.5776771
42553,DAVITA - JACKSONVILLE CENTRAL DIALYSIS CTR,400 T P WHITE DR,,JACKSONVILLE,AR,72076,5012411300,Profit,Y,Y,42553,34.8705647,-92.1241087
42554,DAVITA - NEWPORT DIALYSIS CTR,PRATT SQUARE,1912 MCCLAIN,NEWPORT,AR,72112,8705232607,Profit,Y,N,42554,35.6048018,-91.2817951
42556,FMCNA - BENTON,2101 CONGO RD,,BENTON,AR,72015,5017761418,Profit,Y,N,42556,34.5832089,-92.571986
42557,DAVITA - INDEPENDENCE COUNTY DX,1700 HARRISON ST STE F,,BATESVILLE,AR,72501,8707938058,Profit,Y,N,42557,35.7695475,-91.6347594
42558,DAVITA - SALINE COUNTY DIALYSIS CTR,GROUND LEVEL,1200 N MAIN STE 2,BENTON,AR,72015,5017780200,Profit,Y,N,42558,34.5645371,-92.586828
42560,ASHLEY KIDNEY CTR,1019 FRED LAGRONE DR,,CROSSETT,AR,71635,8703051225,Profit,Y,N,42560,33.1389249,-91.9398024
42562,US RENAL CARE OF NORTHEAST AR - PARAGOULD,901 W KINGS HIGHWAY,,PARAGOULD,AR,72450,8702150187,Profit,Y,Y,42562,36.0525859,-90.4977972
42563,HEMPSTEAD COUNTY DIALYSIS UNIT,1803 S LAUREL,,HOPE,AR,71801,8707774040,Profit,Y,N,42563,33.6592435,-93.5859685
42564,US RENAL CARE - PINE BLUFF,2302 W 28TH ST  STE C,,PINE BLUFF,AR,71603,8705347400,Profit,Y,Y,42564,0,0
42565,PINE BLUFF DIALYSIS - KIDNEY CENTER OF MCGEHEE,610 WEST HOLLY ST,,MCGEHEE,AR,71654,8702226700,Profit,Y,N,42565,0,0
42567,RVM - RENAL CTR OF MTN HOME,200 EAST 8TH ST #101,,MOUNTAIN HOME,AR,72653,8705086500,Profit,Y,Y,42567,0,0
42568,DAVITA - SPRINGDALE,708 QUANDT AVE,,SPRINGDALE,AR,72764,4797507056,Profit,Y,N,42568,36.1788463,-94.1377164
42569,HOPE DIALYSIS CENTER,407 W 16TH ST,,HOPE,AR,71801,8707771700,Profit,Y,N,42569,33.653855,-93.5921093
42570,MALVERN KIDNEY CTR,1590 TANNER RD,,MALVERN,AR,72104,5013323000,Profit,Y,N,42570,34.386082,-92.834365
42571,DVA RENAL HEALTHCARE - LITTLE ROCK DIALYSIS,5800 W TENTH ST STE 510,,LITTLE ROCK,AR,72204,5016617930,Profit,Y,Y,42571,34.7430652,-92.3369994
42573,RCG - MARION,BELLA-VISTA COMMONS,2921 HWY 77  STE #8,MARION,AR,72364,8707392820,Profit,Y,Y,42573,35.1961555,-90.213577
42574,NORTH HILLS DIALYSIS,107 E MONTE PAINTER DR,,FAYETTEVILLE,AR,72703,4794637000,Profit,Y,Y,42574,36.1099319,-94.1554288
42575,BENTON COUNTY DIALYSIS CTR,801 SE PLAZA AVE STE 1,,BENTONVILLE,AR,72712,4792737340,Profit,Y,N,42575,36.334319,-94.201192
42576,WARREN KIDNEY CTR,204 N BRAGG,,WARREN,AR,71671,8702267180,Profit,Y,N,42576,33.6098573,-92.0778799
42577,NEA CLINIC DIALYSIS CTR (NEA BAPTIST CLINIC),3005 MIDDLEFIELD ST,,JONESBORO,AR,72401,8709345705,Profit,Y,Y,42577,35.8092101,-90.6646811
42578,MILLER COUNTY DIALYSIS UNIT,816 EAST ST,,TEXARKANA,AR,71854,8707722756,Profit,Y,N,42578,33.4134473,-94.0301801
42579,US RENAL CARE - STUTTGART,805 W MADISON,,STUTTGART,AR,72160,8706730008,Profit,Y,N,42579,34.515916,-91.561088
42580,DIALYSIS CENTER OF SILOAM SPRINGS,2125 E MAIN STE 12,,SILOAM SPRINGS,AR,72761,4795245214,Profit,Y,N,42580,36.181684,-94.518938
42581,"VAMANA, INC",422 BEECH ST,,TEXARKANA,AR,71854,8707731111,Profit,Y,N,42581,33.4269688,-94.0366422
42582,DAVITA - MENA DIALYSIS,1200 CRESTWOOD CIR,,MENA,AR,71953,4793948085,Profit,Y,Y,42582,34.588702,-94.2196756
42583,DCI - MCCRORY,139 W HWY 64 STE 100,,MCCRORY,AR,72101,8707310220,Non-Profit,Y,Y,42583,35.2556284,-91.1542426
42584,HARRISON DIALYSIS,1409 GLADDEN,,HARRISON,AR,72601,8702046683,Profit,Y,N,42584,36.246266,-93.12234
42585,DAVITA - FORREST CITY,1501 N WASHINGTON ST,,FORREST CITY,AR,72335,8704944022,Profit,Y,Y,42585,35.0246487,-90.7883557
43501,ST BERNARDS-WYNNE,310 S FALLS BLVD,PO BOX 590,WYNNE,AR,72396,8702081170,Non-Profit,Y,N,43501,35.2214829,-90.7873509
50007,MILLS DIALYSIS CENTER,100 S. SAN MATEO DRIVE,,SAN MATEO,CA,94401,6506964931,Non-Profit,Y,Y,50007,37.566164,-122.325532
50038,SANTA CLARA VALLEY RENAL CARE CENTER,2220 MOORPARK AVENUE,,SAN JOSE,CA,95128,4088855730,Non-Profit,Y,Y,50038,37.3161116,-121.9325438
50069,ST. JOSEPH HOSPITAL RENAL CENTER,SR. ELIZABETH BLDG.,1100 W. STEWART DRIVE,ORANGE,CA,92868,7147718037,Non-Profit,Y,Y,50069,33.78659,-117.8750976
50071,KAISER PERMANENTE - SANTA CLARA,710 LAWRENCE EXPRESSWAY #460,,SANTA CLARA,CA,95051,4088514560,Non-Profit,N,Y,50071,0,0
50072,KAISER PERMANENTE MARTINEZ,"200 MUIR ROAD, HACIENDA BUILDING, SECOND FLOOR",,MARTINEZ,CA,94553,9253721445,Non-Profit,N,Y,50072,38.0193657,-122.1341321
50076,KAISER HOSPITAL HEMODIALYSIS,2425 GEARY BLVD  ROOM 1251,,SAN FRANCISCO,CA,94115,4158333430,Non-Profit,Y,N,50076,37.782308,-122.443226
50138,KAISER FOUNDATION HOSPITAL MEDICAL CTR.- SUNSET,DIALYSIS UNIT,"4700 SUNSET BLVD., 2ND FLOOR",LOS ANGELES,CA,90027,3237835580,Non-Profit,Y,Y,50138,33.7872353,-117.8885365
50139,KAISER FOUNDATION HOSPITAL MEDICAL CTR. -DOWNEY,CAPD DEPARTMENT-BASEMENT,9333 E. IMPERIAL HWY,DOWNEY,CA,90242,5626579170,Non-Profit,N,Y,50139,33.9167378,-118.1298234
50140,KAISER FOUNDATION HOSPITAL MEDICAL CTR.- FONTANA,PERITONEAL DIALYSIS UNIT,9985 SIERRA AVENUE MOB-3,FONTANA,CA,92335,9094274253,Non-Profit,N,Y,50140,34.083787,-117.4673845
50245,ARROWHEAD REGIONAL MEDICAL CENTER,400 N. PEPPER AVENUE,,COLTON,CA,92324,9095803911,Non-Profit,Y,N,50245,34.074013,-117.3514125
50261,SIERRA VIEW DISTRICT HOSPITAL DIALYSIS CENTER,283 N. PEARSON DRIVE,,PORTERVILLE,CA,93257,5597913900,Non-Profit,Y,N,50261,36.0718459,-119.0276499
50308,EL CAMINO DIALYSIS CENTER,2490 GRANT ROAD,OAK PAVILLION 110,MOUNTAIN VIEW,CA,94040,6509407015,Non-Profit,Y,Y,50308,37.3694049,-122.0779411
50327,LOMA LINDA UNIVERSITY MEDICAL CENTER,CHILDRENS HOSPITAL,"11234 ANDERSON ST., RM. 2812",LOMA LINDA,CA,92354,9095588218,Non-Profit,Y,N,50327,34.0493771,-117.26357
50376,LAC HARBOR-UCLA MEDICAL CENTER,BOX 429 (HEMODIALYSIS),1000 W. CARSON STREET,TORRANCE,CA,90509,3102222462,Non-Profit,Y,N,50376,33.83,-118.33
50512,KAISER HOSPITAL ESRD PD UNIT,27303 SLEEPY HOLLOW,,HAYWARD,CA,94545,5107842079,Non-Profit,N,Y,50512,37.632255,-122.094589
50561,KAISER FOUNDATION HOSPITAL MEDICAL CTR.- WEST LOS ANGELES,DIALYSIS UNIT,"6041 CADILLAC AVENUE, SUITE 2-WEST",LOS ANGELES,CA,90034,3238573245,Non-Profit,N,Y,50561,33.7872353,-117.8885365
50609,KAISER FOUNDATION HOSPITAL MEDICAL CTR.- ANAHEIM,PERITONEAL DIALYSIS UNIT,3460 E. LA PALMA AVENUE,ANAHEIM,CA,92806,7146442312,Non-Profit,N,Y,50609,33.8362104,-117.8721676
50677,KAISER FOUNDATION HOSPITAL MEDICAL CTR.- WOODLAND HILLS,PERITONEAL UNIT,5601 DE SOTO AVENUE,WOODLAND HILLS,CA,91365,8187193610,Non-Profit,N,Y,50677,34.17,-118.61
50686,KAISER FOUNDATION HOSPITAL MEDICAL CTR.- RIVERSIDE,PERITONEAL DIALYSIS UNIT,"10800 MAGNOLIA AVENUE, MODULE 1X",RIVERSIDE,CA,92505,9513534887,Non-Profit,N,Y,50686,33.913326,-117.4908738
50723,KAISER FOUNDATION HOSPITAL MEDICAL CTR.- BALDWIN PARK,PERITONEAL DIALYSIS UNIT,1011 BALDWIN PARK BLVD.,BALDWIN PARK,CA,91706,6268515885,Non-Profit,N,Y,50723,34.0852868,-117.9608978
52500,FMC-HILLCREST DIALYSIS,3960 THIRD AVENUE,,SAN DIEGO,CA,92103,6192993900,Profit,Y,N,52500,32.7494391,-117.162889
52502,DAVITA-KIDNEY DIALYSIS CARE UNIT,3600 E. MARTIN LUTHER KING JR. BLVD.,,LYNWOOD,CA,90262,3106396320,Profit,Y,N,52502,33.9323449,-118.203993
52503,DAVITA-MAIN PLACE DIALYSIS CENTER,972 TOWN & COUNTRY ROAD,,ORANGE,CA,92868,7148360155,Profit,Y,Y,52503,43.6253519,-95.5126817
52505,FULLERTON DIALYSIS,238 ORANGEFAIR MALL,,FULLERTON,CA,92832,7144473045,Profit,Y,N,52505,33.8563096,-117.9229516
52507,RAI HAIGHT,1800 HAIGHT STREET,,SAN FRANCISCO,CA,94117,4157529886,Profit,Y,N,52507,37.7694053,-122.4523664
52513,FMC-SANTA BARBARA COMMUNITY DIALYSIS CENTER,222 PESETAS LANE,,SANTA BARBARA,CA,93110,8059647873,Profit,Y,Y,52513,34.443548,-119.757995
52514,SATELLITE DIALYSIS CUPERTINO,10596 N TANTAU AVENUE,,CUPERTINO,CA,95014,4085175777,Non-Profit,Y,N,52514,37.3313474,-122.0058141
52515,LOS ALAMITOS HEMODIALYSIS CENTER,3810 KATELLA AVENUE,,LOS ALAMITOS,CA,90720,5625989527,Profit,Y,N,52515,33.802706,-118.066668
52521,DAVITA-ANTELOPE VALLEY DIALYSIS,"1759 W. AVENUE J, SUITE 102",,LANCASTER,CA,93534,6619426400,Profit,Y,Y,52521,34.690813,-118.163172
52522,"MOBILE DIALYSIS SERVICES, INC. (COMPTON)",801 W. COMPTON BLVD.,,COMPTON,CA,90220,3106379026,Profit,Y,N,52522,33.89612,-118.237931
52523,FMC-LONG BEACH,440 W. OCEAN BLVD.,,LONG BEACH,CA,90802,5624324444,Profit,Y,N,52523,33.767191,-118.197175
52524,BMA SANTA ROSA,1020 SECOND STREET,,SANTA ROSA,CA,95404,7075275350,Profit,Y,Y,52524,38.442141,-122.705269
52525,ESCONDIDO DIALYSIS,203 E. SECOND AVENUE,,ESCONDIDO,CA,92025,7607434401,Profit,Y,N,52525,33.121265,-117.079084
52526,SATELLITE DIALYSIS GREENBRAE,565 SIR FRANCIS DRAKE BLVD.,,GREENBRAE,CA,94904,4159248622,Non-Profit,Y,N,52526,37.9480417,-122.5270281
52528,REDDING DIALYSIS CENTER,1876 PARK MARINA DRIVE,,REDDING,CA,96001,5302467474,Profit,Y,Y,52528,40.5844735,-122.3744879
52531,SATELLITE DIALYSIS MODESTO,3500 COFFEE ROAD #21,,MODESTO,CA,95355,2095780691,Non-Profit,Y,N,52531,0,0
52532,DAVITA-RIVERSIDE DIALYSIS CENTER,"4361 LATHAM STREET, SUITE 100",,RIVERSIDE,CA,92501,9516822700,Profit,Y,N,52532,34.002699,-117.374104
52534,RAI - EAST BAY - OAKLAND,3012 SUMMIT STREET SUITE 6630,,OAKLAND,CA,94609,5108932060,Profit,Y,N,52534,37.8190685,-122.2646124
52536,FMC-NATIONAL CITY DIALYSIS CENTER,303 W. 26TH STREET,,NATIONAL CITY,CA,91950,6194748151,Profit,Y,N,52536,32.658977,-117.1044298
52538,INGLEWOOD DIALYSIS,125 E. ARBOR VITAE,,INGLEWOOD,CA,90301,3106776114,Profit,Y,Y,52538,33.953042,-118.353463
52539,DAVITA-LAKEWOOD DIALYSIS CENTER,4611 SILVA STREET,,LAKEWOOD,CA,90712,5626337441,Profit,Y,N,52539,33.8480098,-118.1397089
52541,PALM SPRINGS DIALYSIS,1061 N. INDIAN CANYON DRIVE,,PALM SPRINGS,CA,92262,7603250909,Profit,Y,Y,52541,33.837141,-116.546391
52543,BMA EUREKA,2765 TIMBER RIDGE LANE,,EUREKA,CA,95503,7074452033,Profit,Y,Y,52543,0,0
52544,FMC-CULVER CITY DIALYSIS,9432 VENICE BLVD.,,CULVER CITY,CA,90230,3108362237,Profit,Y,Y,52544,34.0251513,-118.3957064
52545,"KIDNEY DIALYSIS CENTER OF NORTHRIDGE, LLC","18546 ROSCOE BLVD., SUITE 108",,NORTHRIDGE,CA,91324,8188863771,Profit,Y,N,52545,34.220479,-118.537266
52546,DALY CITY DIALYSIS CENTER,1498 SOUTHGATE AVENUE,,DALY CITY,CA,94015,6507554751,Profit,Y,Y,52546,37.675226,-122.476047
52549,FMC-BURBANK,"2031 ALAMEDA AVENUE, SUITE 202",,BURBANK,CA,91506,8188453830,Profit,Y,Y,52549,34.159976,-118.323815
52550,LOMA LINDA UNIVERSITY KIDNEY CENTER,11375 ANDERSON STREET,,LOMA LINDA,CA,92354,9095584225,Non-Profit,Y,Y,52550,34.046807,-117.260456
52552,UPLAND DIALYSIS,600 N. 13TH AVENUE,,UPLAND,CA,91786,9099463802,Profit,Y,Y,52552,34.101179,-117.633239
52553,CHICO DIALYSIS CENTER,530 COHASSET ROAD,,CHICO,CA,95926,5308958966,Profit,Y,Y,52553,39.751962,-121.849116
52554,DAVITA-VALLEY DIALYSIS CENTER,16149 HART STREET,,VAN NUYS,CA,91406,8187870990,Profit,Y,N,52554,34.197896,-118.485488
52555,SATELLITE DIALYSIS SANTA CRUZ,2128 SOQUEL AVENUE,,SANTA CRUZ,CA,95062,8314250727,Non-Profit,Y,N,52555,36.9825856,-121.9960071
52556,SKYPARK DIALYSIS,3295 SKYPARK DRIVE,,TORRANCE,CA,90505,3105395091,Profit,Y,N,52556,33.809907,-118.3455743
52558,HOLY CROSS RENAL CENTER,"14901 RINALDI STREET, SUITE 100",,MISSION HILLS,CA,91345,8183656961,Profit,Y,Y,52558,34.2795289,-118.457405
52560,SAN PABLO DIALYSIS CENTER,14020 SAN PABLO AVENUE,,SAN PABLO,CA,94806,5102340835,Profit,Y,N,52560,37.9614347,-122.3433868
52561,VICTOR VALLEY DIALYSIS,16049 KAMANA ROAD,,APPLE VALLEY,CA,92307,7602428311,Profit,Y,Y,52561,34.542639,-117.270928
52563,YUBA CITY DIALYSIS CENTER,1525 PLUMAS COURT SUITE A,,YUBA CITY,CA,95991,5306713652,Profit,Y,N,52563,39.153054,-121.617612
52564,DAVITA-GARFIELD HEMODIALYSIS CENTER,118 HILLIARD AVENUE,,MONTEREY PARK,CA,91754,6262885796,Profit,Y,Y,52564,34.06754,-118.126545
52565,NAPA VALLEY COMMUNITY DIALYSIS,"1100 TRANCAS, SUITE 267",,NAPA,CA,94558,7072246533,Profit,Y,Y,52565,38.323613,-122.298472
52567,VALLEJO DIALYSIS CENTER,121 HOSPITAL DRIVE,,VALLEJO,CA,94589,7075539174,Profit,Y,N,52567,38.130939,-122.239447
52568,PLEASANTON DIALYSIS CENTER,5720 STONERIDGE MALL ROAD #160,,PLEASANTON,CA,94588,9257370120,Profit,Y,Y,52568,0,0
52569,SOUTH SACRAMENTO DIALYSIS CENTER,7000 FRANKLIN BLVD. #880,,SACRAMENTO,CA,95823,9164272561,Profit,Y,N,52569,0,0
52571,UNION CITY DIALYSIS CENTER,32930 ALVARADO-NILES ROAD #300,,UNION CITY,CA,94587,5104896996,Profit,Y,Y,52571,0,0
52572,SATELLITE DIALYSIS SAN JOSE,2121 ALEXIAN DRIVE 118A,,SAN JOSE,CA,95116,4082588720,Non-Profit,Y,Y,52572,37.360296,-121.847961
52574,DAVITA-DOWNEY DIALYSIS CENTER,8630 FLORENCE AVENUE,,DOWNEY,CA,90240,5629236741,Profit,Y,N,52574,33.9482847,-118.1187923
52575,RAI-NORTH WATERMAN-SAN BERNARDINO,1500 N. WATERMAN AVENUE,,SAN BERNARDINO,CA,92404,9093811591,Profit,Y,N,52575,34.127274,-117.279195
52576,FMC BALBOA-KEARNY MESA DIALYSIS CENTER,"7927 OSTROW STREET, SUITE A",,SAN DIEGO,CA,92111,8585710232,Profit,Y,Y,52576,32.8132267,-117.1548435
52578,RAI HARDING BLVD,218 HARDING BLVD.,,ROSEVILLE,CA,95678,9167862728,Profit,Y,N,52578,38.7491766,-121.2697893
52579,FMC-CONEJO VALLEY RENAL CENTER,"227 W. JANSS ROAD, SUITE 115",,THOUSAND OAKS,CA,91360,8054966071,Profit,Y,N,52579,34.206865,-118.884286
52580,DAVITA-COVINA DIALYSIS CENTER,1547 W. GARVEY AVENUE NORTH,,WEST COVINA,CA,91790,6269609404,Profit,Y,N,52580,34.0727423,-117.9393104
52581,BEACH CITIES DIALYSIS-GARDENA,"1045 W. REDONDO BEACH BLVD., SUITE 105",,GARDENA,CA,90247,3105150788,Profit,Y,N,52581,33.8925195,-118.2929466
52582,"ST. VINCENT DIALYSIS CENTER, INC.","201 S. ALVARADO STREET, SUITE 220",,LOS ANGELES,CA,90057,2134847425,Non-Profit,Y,N,52582,34.064296,-118.272247
52583,MONTEREY PENINSULA DIALYSIS,2066 NORTH FREMONT BLVD,,MONTEREY,CA,93940,8316556950,Profit,Y,Y,52583,36.5957567,-121.8645803
52584,NORTH MERCED DIALYSIS CENTER,3150 G STREET  SUITE A,,MERCED,CA,95340,2097230439,Profit,Y,Y,52584,37.320424,-120.468686
52585,KIDNEY CENTER OF VAN NUYS,"14624 SHERMAN WAY, SUITE 106",,VAN NUYS,CA,91405,8189942333,Profit,Y,Y,52585,34.200471,-118.451712
52587,BERKELEY DIALYSIS CENTER,2920 TELEGRAPH AVENUE,,BERKELEY,CA,94705,5106499870,Profit,Y,N,52587,37.8568631,-122.259765
52588,SAN FERNANDO WEST KIDNEY CENTER,"7230 MEDICAL CENTER DRIVE, SUITE 101",,WEST HILLS,CA,91307,8188884730,Profit,Y,Y,52588,34.2016191,-118.6293928
52589,UCI RENAL DIALYSIS CENTER,"101 CITY DRIVE,  BUILDING 51",,ORANGE,CA,92868,7144565555,Non-Profit,Y,Y,52589,33.7872353,-117.8885365
52590,RAI-COMPTON-LOS ANGELES,11859 COMPTON AVENUE,,LOS ANGELES,CA,90059,3235631140,Profit,Y,Y,52590,33.924856,-118.246576
52591,POMONA DIALYSIS,2111 N. GAREY AVENUE,,POMONA,CA,91767,9095969997,Profit,Y,N,52591,34.0858764,-117.7514544
52597,MISSION VIEJO DIALYSIS,27640 MARGUERITE PARKWAY,,MISSION VIEJO,CA,92692,9493472433,Profit,Y,Y,52597,33.5615878,-117.6583273
52599,DAVITA-BEVERLY HILLS DIALYSIS CENTER,"50 N. LA CIENEGA BLVD., SUITE 300",,BEVERLY HILLS,CA,90211,3102891613,Profit,Y,N,52599,34.066902,-118.375919
52600,SATELLITE DIALYSIS SAN JOSE,393 BLOSSOM HILL ROAD SUITE 110,,SAN JOSE,CA,95123,4086299802,Non-Profit,Y,N,52600,37.2518751,-121.8268804
52601,LAKEPORT DIALYSIS CENTER,804 ELEVENTH STREET,,LAKEPORT,CA,95453,7072637132,Profit,Y,N,52601,39.0490093,-122.9216143
52602,SALINAS DIALYSIS CENTER,"955 BLANCO CIRCLE, STE. #C",,SALINAS,CA,93901,8317586222,Profit,Y,Y,52602,0,0
52604,MANZANITA DIALYSIS CENTER,4005 MANZANITA AVENUE STE 17 & 18,,CARMICHAEL,CA,95608,9164833241,Profit,Y,Y,52604,38.637643,-121.329802
52606,"SANTA BARBARA ARTIFICIAL KIDNEY CENTER, LLC",1704 STATE STREET,,SANTA BARBARA,CA,93101,8056829942,Profit,Y,Y,52606,34.428775,-119.711089
52608,FRESNO DIALYSIS CENTER,1111 E. WARNER AVENUE,,FRESNO,CA,93710,5594391845,Profit,Y,Y,52608,36.8360735,-119.7694406
52609,SATELLITE DIALYSIS SONORA,136 EAST COLUMBIA WAY,,SONORA,CA,95370,2095323072,Non-Profit,Y,N,52609,37.9917779,-120.382561
52610,RAI PIEDMONT,2710 TELEGRAPH AVENUE SUITE #100,,OAKLAND,CA,94612,5102869948,Profit,Y,N,52610,0,0
52612,BMA OF CENTRAL VALLEY RURAL DIALYSIS,1421 NORTH ACACIA,,REEDLEY,CA,93654,5596371676,Profit,Y,N,52612,36.6089048,-119.4509471
52613,DAVITA-EATON CANYON DIALYSIS,2551 E. WASHINGTON BLVD.,,PASADENA,CA,91107,6267988896,Profit,Y,Y,52613,34.1692825,-118.09752
52614,AUBURN DIALYSIS CENTER,3126 PROFESSIONAL DRIVE #100,,AUBURN,CA,95603,5308868221,Profit,Y,Y,52614,0,0
52615,NAPA DIALYSIS CENTER,3900-C BEL AIRE PLAZA #C,,NAPA,CA,94558,7072538938,Profit,Y,Y,52615,0,0
52617,RAI-GARDEN GROVE BLVD.-GARDEN,"12555 GARDEN GROVE BLVD., SUITE 100",,GARDEN GROVE,CA,92843,7147417255,Profit,Y,N,52617,33.7743932,-117.9138751
52618,FAIRFIELD DIALYSIS CENTER,4660 CENTRAL WAY,,FAIRFIELD,CA,94534,7078637369,Profit,Y,Y,52618,38.2126673,-122.1370454
52619,HUNTINGTON DIALYSIS CENTER,806 S. FAIR OAKS AVENUE,,PASADENA,CA,91105,6267920548,Profit,Y,Y,52619,34.1321579,-118.1500691
52620,DAVITA-HEMET,3050 W. FLORIDA AVENUE,,HEMET,CA,92545,9519259723,Profit,Y,N,52620,33.747749,-117.004032
52621,DAVITA-BREA DIALYSIS CENTER,"595 TAMARACK AVENUE, SUITES A & B",,BREA,CA,92821,7149900110,Profit,Y,N,52621,0,0
52622,DAVITA-EAST LA PLAZA DIALYSIS,"1700 CESAR E. CHAVEZ BLVD., SUITE L-100",,LOS ANGELES,CA,90033,3232610484,Profit,Y,Y,52622,34.050665,-118.217219
52624,FMC PETALUMA,"715 SOUTH POINT BLVD., SUITE A",,PETALUMA,CA,94954,7077659379,Profit,Y,Y,52624,38.2569609,-122.64531
52627,"LA PALMA DIALYSIS CENTER, LLC","5451 LA PALMA AVENUE, SUITE 35",,LA PALMA,CA,90623,7145235970,Profit,Y,Y,52627,33.8465975,-118.03878
52628,HANFORD DIALYSIS,402 W. EIGHTH STREET,,HANFORD,CA,93230,5595825462,Profit,Y,N,52628,36.3272,-119.651062
52629,SATELLITE DIALYSIS,40 PENNY LANE SUITE 1,,WATSONVILLE,CA,95076,8317288855,Non-Profit,Y,Y,52629,36.930086,-121.777822
52630,SATELLITE DIALYSIS SANTA ROSA,2301 CIRCADIAN WAY #C,,SANTA ROSA,CA,95407,7075260717,Non-Profit,Y,N,52630,0,0
52631,WILSHIRE DIALYSIS CENTER,1212 WILSHIRE BLVD.,,LOS ANGELES,CA,90017,2134825181,Profit,Y,Y,52631,34.0530838,-118.265416
52632,GLENDALE DIALYSIS,1000 E. PALMER AVENUE,,GLENDALE,CA,91205,8182416382,Profit,Y,Y,52632,0,0
52633,FMC-MISSION HILLS,"11550 INDIAN HILLS ROAD, SUITE 100",,MISSION HILLS,CA,91345,8188981724,Profit,Y,Y,52633,0,0
52634,RAI-CENTINELA-INGLEWOOD,1416 CENTINELA AVENUE,,INGLEWOOD,CA,90302,3106736865,Profit,Y,N,52634,0,0
52635,BRIMHALL DIALYSIS,"8501 BRIMHALL ROAD, BLDG. 500",,BAKERSFIELD,CA,93312,6613876603,Profit,Y,N,52635,35.368059,-119.096845
52637,DAVITA-BURBANK DIALYSIS,1211 N. SAN FERNANDO BLVD.,,BURBANK,CA,91504,8188425576,Profit,Y,N,52637,34.1888372,-118.3198501
52638,DAVITA-DIALYSIS CENTER OF SIMI VALLEY,"2950 N. SYCAMORE DRIVE, SUITE 100",,SIMI VALLEY,CA,93065,8055842411,Profit,Y,Y,52638,34.289285,-118.743478
52641,HUNTINGTON BEACH DIALYSIS,"16892 BOLSA CHICA AVENUE, SUITE 100",,HUNTINGTON BEACH,CA,92649,7148462102,Profit,Y,N,52641,33.716509,-118.040365
52643,TOWER DIALYSIS,"8635 W. THIRD STREET, SUITE 560-W",,LOS ANGELES,CA,90048,3108551742,Profit,Y,Y,52643,34.073582,-118.380947
52644,ALHAMBRA COMMUNITY DIALYSIS UNIT,2300 W. VALLEY BLVD.,,ALHAMBRA,CA,91803,6264584726,Profit,Y,N,52644,34.0769045,-118.1490098
52647,SATELLITE DIALYSIS TURLOCK,1729 NORTH OLIVE #9,,TURLOCK,CA,95382,2096674888,Non-Profit,Y,N,52647,0,0
52648,SAN JUAN CAPISTRANO SOUTH DIALYSIS,"31736 RANCHO VIEJO ROAD, SUITE B",,SAN JUAN CAPISTRANO,CA,92675,9492401454,Profit,Y,N,52648,33.502598,-117.652485
52651,FMC BERKELEY,2895 7TH STREET,,BERKELEY,CA,94710,5108430627,Profit,Y,N,52651,37.852918,-122.291277
52652,DAVITA-PARAMOUNT DIALYSIS CENTER,8319 ALONDRA BLVD.,,PARAMOUNT,CA,90723,5626349774,Profit,Y,Y,52652,33.889369,-118.1539585
52653,FMC-CHULA VISTA DIALYSIS CENTER- SOUTH,"2252 VERUS STREET, SUITE D",,SAN DIEGO,CA,92154,6194299201,Profit,Y,N,52653,32.5943354,-117.0863869
52654,GAREY DIALYSIS CENTER PARTNERSHIP,150 E. ARROW HIGHWAY,,POMONA,CA,91767,9095935863,Profit,Y,Y,52654,34.0898944,-117.7481841
52656,FMC-VENTURA,"4567 TELEPHONE ROAD, SUITE 101",,VENTURA,CA,93003,8056589211,Profit,Y,Y,52656,34.255986,-119.235529
52657,RAI-CORPORATE WAY-PALM DESERT,41-501 CORPORATE WAY,,PALM DESERT,CA,92260,7603467588,Profit,Y,Y,52657,33.7452486,-116.3623653
52658,KIDNEY INSTITUTE OF THE DESERT,"81715 DOCTOR CARREON BLVD., SUITE B-2",,INDIO,CA,92201,7603478181,Profit,Y,Y,52658,33.706876,-116.238592
52661,DAVITA-CORONA DIALYSIS CENTER,"1820 FULLERTON AVENUE, SUITE 180",,CORONA,CA,92881,9517366660,Profit,Y,N,52661,33.8588049,-117.551137
52663,ANTELOPE DIALYSIS CENTER,6406 TUPELO DRIVE STE-A,,CITRUS HEIGHTS,CA,95621,9167211800,Profit,Y,N,52663,38.704721,-121.314109
52665,SANTA MONICA DIALYSIS,"1260 15TH STREET, SUITE 102",,SANTA MONICA,CA,90404,3103934744,Profit,Y,N,52665,34.0263007,-118.4867144
52666,TULARE DIALYSIS,545 E. TULARE AVENUE,,TULARE,CA,93274,5596888991,Profit,Y,N,52666,36.208449,-119.341212
52667,DAVITA-TRI-COUNTIES PD HOME DIALYSIS,433 S. BRIDGE STREET,,VISALIA,CA,93277,5597340836,Profit,N,Y,52667,36.326088,-119.289234
52668,FMC-CAMARILLO DIALYSIS CENTER,"3801 LAS POSAS ROAD, SUITE 103",,CAMARILLO,CA,93010,8053882449,Profit,Y,N,52668,34.2414184,-119.0192635
52670,IMPERIAL DIALYSIS,2738 W. IMPERIAL HIGHWAY,,INGLEWOOD,CA,90303,3237795399,Profit,Y,Y,52670,33.9308936,-118.3239624
52671,DAVITA-UNITED DIALYSIS CENTER,3111 LONG BEACH BLVD.,,LONG BEACH,CA,90807,5624265155,Profit,Y,Y,52671,33.8138086,-118.1895042
52673,BAKERSFIELD DIALYSIS CENTER,5143 OFFICE PARK DRIVE,,BAKERSFIELD,CA,93309,6613254741,Profit,Y,Y,52673,35.3663742,-119.0595552
52674,DELANO DIALYSIS,905 MAIN STREET,,DELANO,CA,93215,6617212483,Profit,Y,N,52674,35.7679502,-119.2455754
52675,EAST BAY PERITONEAL DIALYSIS,13939 E 14TH STREET STE 110,,SAN LEANDRO,CA,94578,5106141380,Profit,N,Y,52675,37.71309,-122.141483
52676,DCI UNIVERSITY DIALYSIS CLINIC,1771 STOCKTON BLVD,,SACRAMENTO,CA,95816,9164530803,Non-Profit,Y,Y,52676,38.563889,-121.465595
52677,SAN JOAQUIN VALLEY DIALYSIS,3636 NORTH FIRST #144,,FRESNO,CA,93726,5592216311,Profit,Y,Y,52677,0,0
52678,FMC-GATEWAY DIALYSIS CENTER-EAST,"720 GATEWAY CENTER DRIVE, SUITE B",,SAN DIEGO,CA,92102,6192644100,Profit,Y,N,52678,32.713661,-117.114723
52679,COASTAL DIALYSIS CENTER,514 N. PROSPECT AVENUE,,REDONDO BEACH,CA,90277,3103796671,Profit,Y,N,52679,33.8521349,-118.3790937
52682,FONTANA DIALYSIS,17950 FOOTHILL BLVD.,,FONTANA,CA,92335,9093569664,Profit,Y,N,52682,34.1067054,-117.4129316
52683,RAI-EAST OLYMPIC-LOS ANGELES,5714 E. OLYMPIC BLVD.,,LOS ANGELES,CA,90022,3238870841,Profit,Y,Y,52683,34.0140007,-118.1476754
52684,SAN GABRIEL REGIONAL DIALYSIS TRAINING CTR.,"809 S. ATLANTIC BLVD., SUITE 103",,MONTEREY PARK,CA,91754,6265768556,Profit,N,Y,52684,34.0525439,-118.1373509
52685,HAYWARD DIALYSIS CENTER,21615 HESPERIAN BOULEVARD SUITE F,,HAYWARD,CA,94541,5107809094,Profit,Y,N,52685,37.660666,-122.115809
52686,FMC-LA MESA DIALYSIS CENTER,5995 SEVERIN DRIVE,,LA  MESA,CA,91942,6194629992,Profit,Y,N,52686,32.7874683,-116.9992782
52687,FMC-CARSON,"20710 S. LEAPWOOD AVENUE, SUITE F",,CARSON,CA,90746,3103238997,Profit,Y,N,52687,33.8426262,-118.2583839
52689,WALNUT CREEK DIALYSIS CENTER,404 NORTH WIGET LANE,,WALNUT CREEK,CA,94598,9259370203,Profit,Y,Y,52689,37.9294822,-122.0287152
52690,FMC-EL CENTRO DESERT VALLEY DIALYSIS CENTER,110 S. FIFTH STREET,,EL CENTRO,CA,92243,7603530353,Profit,Y,N,52690,32.7926053,-115.5547178
52691,PLACERVILLE DIALYSIS CENTER,3964 MISSOURI FLAT ROAD SUITE J,,PLACERVILLE,CA,95667,5306266097,Profit,Y,N,52691,38.7129492,-120.8418405
52694,FMC LOS GATOS,14651 SOUTH BASCOM SUITE 100,,LOS GATOS,CA,95032,4083583791,Profit,Y,N,52694,37.256146,-121.951206
52695,DAVITA-LOS ANGELES DIALYSIS CENTER,2250 S. WESTERN AVENUE,,LOS ANGELES,CA,90018,3237332260,Profit,Y,Y,52695,34.0348855,-118.3088153
52696,VISALIA DIALYSIS,1031 N. DEMAREE STREET,,VISALIA,CA,93291,5597328149,Profit,Y,N,52696,36.3381954,-119.3319779
52699,HIGH DESERT HEMODIALYSIS,"1007 W. AVENUE M-14, SUITE B",,PALMDALE,CA,93551,6612657810,Profit,Y,Y,52699,34.6330519,-118.1477773
52700,DAVITA-MONTEREY PARK DIALYSIS CENTER,"2560 CORPORATE PLACE, BUILDING D, SUITE 100-101",,MONTEREY PARK,CA,91754,3237808787,Profit,Y,Y,52700,34.046508,-118.163989
52701,BEACH CITIES DIALYSIS-TORRANCE,"20911 EARL STREET, SUITE 160",,TORRANCE,CA,90503,3103714244,Profit,Y,N,52701,33.840393,-118.358625
52703,RAI WEST MARCH,3115 WEST MARCH LANE SUITE A,,STOCKTON,CA,95219,2099557527,Profit,Y,N,52703,37.9841977,-121.3509016
52705,RAI NORTH CALIFORNIA,2350 N CALIFORNIA STREET,,STOCKTON,CA,95204,2099430854,Profit,Y,N,52705,37.9750566,-121.2906964
52706,ATWATER DIALYSIS CENTER,580 EAST BELLEVUE ROAD,,ATWATER,CA,95301,2093573770,Profit,Y,N,52706,37.3604601,-120.5885851
52707,ALHAMBRA DIALYSIS CENTER,1315 ALHAMBRA BLVD #100,,SACRAMENTO,CA,95816,9164578252,Profit,Y,N,52707,0,0
52708,FMC-NORTH COAST KIDNEY CENTER,"3300 VISTA WAY, SUITE A",,OCEANSIDE,CA,92056,7607214344,Profit,Y,N,52708,33.1811115,-117.3163209
52709,VACAVILLE DIALYSIS CLINIC,941 MERCHANT ST,,VACAVILLE,CA,95688,7074496485,Profit,Y,N,52709,38.347485,-121.9961
52710,"LA PUENTE DIALYSIS CENTER, INC.",14557 TEMPLE AVENUE,,LA PUENTE,CA,91744,6269171719,Profit,Y,N,52710,34.041134,-117.968114
52711,SOUTHGATE DIALYSIS,7231 E SOUTHGATE DRIVE,,SACRAMENTO,CA,95823,9163957585,Non-Profit,Y,N,52711,38.49477,-121.436108
52712,INTERCOMMUNITY DIALYSIS CENTER,"12291 E. WASHINGTON BLVD., SUITE 410",,WHITTIER,CA,90606,5626961841,Profit,Y,Y,52712,33.969117,-118.050766
52713,UNIVERSITY PARK DIALYSIS CENTER,3986 S. FIGUEROA STREET,,LOS ANGELES,CA,90037,2137498297,Profit,Y,N,52713,34.0136875,-118.2827639
52714,DESERT CITIES DIALYSIS,12675 HESPERIA ROAD,,VICTORVILLE,CA,92392,7602418063,Profit,Y,Y,52714,34.4815585,-117.2906205
52715,"PACIFIC DIALYSIS SERVICES, INC.",1830 LOMITA BLVD.,,LOMITA,CA,90717,3105307796,Profit,Y,N,52715,33.7978617,-118.3096643
52716,DAVITA-SANTA ANA DIALYSIS CENTER,1820 E. DEERE AVENUE,,SANTA ANA,CA,92705,9492511221,Profit,Y,N,52716,33.705726,-117.850924
52717,DAVITA-GREATER EL MONTE DIALYSIS CENTER,"1938 TYLER AVENUE, SUITE J-168",,SOUTH EL MONTE,CA,91733,6263506692,Profit,Y,N,52717,34.0510419,-118.0373765
52718,DAVITA-NORWALK DIALYSIS CENTER,12375 E. IMPERIAL HIGHWAY,,NORWALK,CA,90650,5629297430,Profit,Y,Y,52718,33.917214,-118.0687116
52719,SAN FRANCISCO DIALYSIS CENTER,1499 WEBSTER STREET,,SAN FRANCISCO,CA,94115,4159289003,Profit,Y,Y,52719,37.7841075,-122.4312142
52720,CITRUS DIALYSIS CENTER,"315 N. THIRD AVENUE, SUITE 104",,COVINA,CA,91723,6263310133,Profit,Y,Y,52720,34.0887461,-117.8924865
52721,RAI PERALTA,2757 TELEGRAPH AVENUE,,OAKLAND,CA,94612,5108350154,Profit,Y,N,52721,37.8169309,-122.268166
52722,FMC FREMONT,39505 PASEO PADRE PARKWAY,,FREMONT,CA,94538,5106591240,Profit,Y,Y,52722,37.549883,-121.974863
52723,MANTECA DIALYSIS CENTER,1156 S MAIN STREET,,MANTECA,CA,95336,2098233078,Profit,Y,N,52723,37.7868344,-121.2158354
52724,SANTA FE SPRINGS REGIONAL DIALYSIS CENTER,"10012 NORWALK BLVD., SUITE 190",,SANTA FE SPRINGS,CA,90670,5629038281,Profit,Y,N,52724,33.9473309,-118.0726712
52725,DOCTORS DIALYSIS CENTER OF EAST LOS ANGELES,950 S. EASTERN AVENUE,,EAST LOS ANGELES,CA,90022,3232622229,Profit,Y,N,52725,34.0225246,-118.1739059
52726,MOHAN DIALYSIS CENTER OF COVINA,158 W. COLLEGE STREET,,COVINA,CA,91723,6268592522,Profit,Y,Y,52726,34.08713,-117.891739
52727,RAI-INDIANA COURT-REDLANDS,1210 INDIANA COURT,,REDLANDS,CA,92374,9097928880,Profit,Y,Y,52727,34.068292,-117.205439
52728,RAI OCEAN AVENUE,1738 OCEAN AVENUE,,SAN FRANCISCO,CA,94112,4154061090,Profit,Y,Y,52728,37.7250466,-122.4605839
52729,OAKLAND DIALYSIS CENTER,5354 CLAREMONT AVENUE,,OAKLAND,CA,94618,5105970104,Profit,Y,Y,52729,37.840369,-122.258962
52730,DAVITA-MURRIETA,"25100 HANCOCK AVENUE, SUITE 101-103",,MURRIETA,CA,92562,9516987860,Profit,Y,N,52730,33.5691151,-117.1825625
52731,FMC BALBOA-MARINA BAY,"630 BAY BLVD., SUITE 101",,CHULA VISTA,CA,91910,6194206725,Profit,Y,Y,52731,32.624319,-117.095302
52734,ANAHEIM DIALYSIS,1107 W. LA PALMA AVENUE,,ANAHEIM,CA,92801,7145022400,Profit,Y,Y,52734,33.8471746,-117.9324186
52735,DAVITA-TEMECULA DIALYSIS CENTER,"40945 COUNTY CENTER DRIVE, SUITE G",,TEMECULA,CA,92591,9512969744,Profit,Y,N,52735,33.5290341,-117.1595853
52738,LOS BANOS DIALYSIS CENTER,222  I STREET,,LOS BANOS,CA,93635,2098267280,Profit,Y,N,52738,37.0633238,-120.8531941
52739,CHINO DIALYSIS,4445 RIVERSIDE DRIVE,,CHINO,CA,91710,9094640347,Profit,Y,N,52739,34.018256,-117.707873
52740,RAI-FLETCHER PARKWAY-EL CAJON,858 FLETCHER PARKWAY,,EL CAJON,CA,92020,6194424122,Profit,Y,N,52740,32.8078121,-116.972998
52742,RAI E. 14TH,198 EAST 14TH ST,,SAN LEANDRO,CA,94577,5104308311,Profit,Y,N,52742,37.735445,-122.163306
52743,DAVITA-MOUNTAIN VISTA DIALYSIS CENTER,4041 UNIVERSITY PARKWAY,,SAN BERNARDINO,CA,92407,9098870173,Profit,Y,Y,52743,34.166463,-117.3324998
52744,SOUTH VALLEY DIALYSIS,"17815 VENTURA BLVD., SUITE 100",,ENCINO,CA,91316,8187574520,Profit,Y,N,52744,34.1632825,-118.5210161
52746,DAVITA-SUNRISE DIALYSIS CENTER,13039 HAWTHORNE BLVD.,,HAWTHORNE,CA,90250,3106444087,Profit,Y,N,52746,33.913797,-118.35312
52747,"WEST COAST DIALYSIS CENTER, LLC","3780 KILROY AIRPORT WAY, SUITE 110",,LONG BEACH,CA,90806,5629893010,Profit,Y,Y,52747,33.807335,-118.146177
52751,SATELLITE DIALYSIS CENTER,7800 ARROYO CIRCLE  #B,,GILROY,CA,95020,4088485410,Profit,Y,Y,52751,0,0
52752,"RAI CERES AVENUE, CHICO",3011 CERES AVENUE #125,,CHICO,CA,95973,5303435279,Profit,Y,Y,52752,0,0
52753,LODI DIALYSIS CENTER,"1610 WEST KETTLEMAN LANE, SUITE D",,LODI,CA,95242,2093349888,Profit,Y,N,52753,38.114964,-121.292857
52754,AIRPORT DIALYSIS,4632 W. CENTURY BLVD.,,INGLEWOOD,CA,90304,3106774262,Profit,Y,N,52754,33.9449929,-118.358198
52755,"GREATER LOS ANGELES DIALYSIS, INC.",11204 E. RUSH STREET,,SOUTH EL MONTE,CA,91733,6265821121,Profit,Y,Y,52755,34.0481782,-118.0328015
52756,ENCINITAS DIALYSIS,"332 SANTA FE DRIVE, SUITE 100",,ENCINITAS,CA,92024,7606322323,Profit,Y,Y,52756,33.039501,-117.284877
52757,FMC DIABLO CENTRAL PITTSBURG,2155 LOVERIDGE ROAD,,PITTSBURG,CA,94565,9254398772,Profit,Y,N,52757,38.0108819,-121.8688761
52758,FMC DIABLO WALNUT CREEK,365 LENNON LANE #160,,WALNUT CREEK,CA,94598,9259474545,Profit,Y,Y,52758,0,0
52759,FMC DIABLO CONCORD,508 CONTRA COSTA BLVD #D,,PLEASANT HILL,CA,94523,9257988844,Profit,Y,N,52759,0,0
52760,FMC-SAN GABRIEL DIALYSIS CENTER,"1801 W. VALLEY BLVD., SUITE 102",,ALHAMBRA,CA,91803,6264579002,Profit,Y,N,52760,34.077494,-118.143303
52761,DAVITA-PREMIER DIALYSIS CENTER,7612 ATLANTIC AVENUE,,CUDAHY,CA,90201,3235625511,Profit,Y,Y,52761,33.9669073,-118.1871163
52762,FMC-OXNARD,"1801 HOLSER WALK, SUITE 310",,OXNARD,CA,93030,8059883339,Profit,Y,N,52762,34.221091,-119.1566527
52764,FMC-SAN GABRIEL VALLEY PD CLINIC,"1801 W. VALLEY BLVD., SUITE 204",,ALHAMBRA,CA,91803,6264576540,Profit,N,Y,52764,34.077494,-118.143303
52765,RAI FAIRWAY ROCKLIN,6000 FAIRWAY DRIVE STE #14,,ROCKLIN,CA,95677,9166243871,Profit,Y,Y,52765,0,0
52767,ASH TREE PD,2666 NORTH GROVE INDUSTRIAL DRIVE,,FRESNO,CA,93727,5592521077,Non-Profit,N,Y,52767,36.7742953,-119.7300295
52768,DAVITA-DIAMOND VALLEY DIALYSIS CENTER,1030 E. FLORIDA AVENUE,,HEMET,CA,92543,9517664581,Profit,Y,N,52768,33.7477375,-116.9610923
52769,SF CHINATOWN DIALYSIS CENTER,636 CLAY STREET,,SAN FRANCISCO,CA,94111,4152918992,Profit,Y,N,52769,37.7945899,-122.4038523
52770,SELMA DIALYSIS CENTER,2711 CINEMA WAY #111,,SELMA,CA,93662,5598912750,Profit,Y,N,52770,0,0
52771,DAVITA-VISALIA AT HOME DIALYSIS,1120 N. CHINOWTH STREET,,VISALIA,CA,93291,5596229844,Profit,N,Y,52771,36.338513,-119.334143
52772,RAI-HOSPITAL CIRCLE-WESTMINSTER,290 HOSPITAL CIRCLE,,WESTMINSTER,CA,92683,7148953698,Profit,Y,N,52772,33.762109,-117.995672
52773,WESTMINSTER SOUTH DIALYSIS,14014 MAGNOLIA ST.,,WESTMINSTER,CA,92683,7148975659,Profit,Y,N,52773,33.758434,-117.971795
52774,SUNRISE COMMUNITY DIALYSIS CENTER,"2951 SUNRISE BLVD, STE 145",,RANCHO CORDOVA,CA,95742,9166313606,Profit,Y,N,52774,38.5960099,-121.2655096
52775,RAI CESAR CHAVEZ,1750 CESAR CHAVEZ STREET SUITE A,,SAN FRANCISCO,CA,94124,4152069775,Profit,Y,N,52775,37.7499355,-122.394165
52776,HI-DESERT DIALYSIS,"58457 TWENTY-NINE PALMS HIGHWAY, SUITE 102",,YUCCA VALLEY,CA,92284,7602282045,Profit,Y,Y,52776,34.1141743,-116.432235
52778,SANTA CLARITA KIDNEY CENTER,"23861 W. MCBEAN PARKWAY, SUITE E-11",,VALENCIA,CA,91355,6612227370,Profit,Y,N,52778,0,0
52779,RAI-MISSION GORGE-SAN DIEGO,"7007 MISSION GORGE ROAD, 1ST FLOOR",,SAN DIEGO,CA,92120,6192291070,Profit,Y,Y,52779,32.799869,-117.090742
52780,FMC-EAST COUNTY DIALYSIS CENTER,570 N. SECOND STREET,,EL CAJON,CA,92021,6195887500,Profit,Y,N,52780,32.8018702,-116.9357787
52781,NORTH HOLLYWOOD DIALYSIS,12126 VICTORY BLVD.,,NORTH HOLLYWOOD,CA,91606,8189805070,Profit,Y,Y,52781,34.1866543,-118.3964828
52782,"MOUNTAIN VIEW DIALYSIS CENTER, INC.",900 S. MOUNTAIN AVENUE,,MONROVIA,CA,91016,6269321810,Profit,Y,Y,52782,34.142917,-117.985895
52783,"MODESTO KIDNEY CENTER, LLC","305 E. GRANGER AVE.., STE. 102",,MODESTO,CA,95350,2095746800,Profit,Y,Y,52783,37.667509,-120.98943
52784,DELTA SIERRA DIALYSIS CENTER,555 WEST BENJAMIN HOLT DRIVE  #200,,STOCKTON,CA,95207,2094732294,Profit,Y,N,52784,0,0
52785,DOCTORS DIALYSIS CENTER OF MONTEBELLO,1721 W. WHITTIER BLVD.,,MONTEBELLO,CA,90640,3237221116,Profit,Y,N,52785,34.012187,-118.119792
52786,EL CERRITO DIALYSIS CENTER,10690 SAN PABLO AVENUE,,EL CERRITO,CA,94530,5105289590,Profit,Y,Y,52786,37.912671,-122.308873
52787,ALAMEDA COUNTY DIALYSIS CENTER,10700 MACARTHUR BLVD STE 14A,,OAKLAND,CA,94605,5106339844,Profit,Y,N,52787,37.742821,-122.149788
52788,"NEPHRON DIALYSIS CENTER OF LAKEWOOD, LLC",5820 DOWNEY AVENUE,,LONG BEACH,CA,90805,5626630788,Profit,Y,N,52788,33.8612638,-118.1511731
52789,INDIAN WELLS VALLEY,212 S. RICHMOND ROAD,,RIDGECREST,CA,93555,7603717506,Profit,Y,N,52789,35.620088,-117.647343
52790,KIDNEY CARE CENTER OF THE NORTH VALLEY,16907 DEVONSHIRE STREET,,GRANADA HILLS,CA,91344,8183664600,Profit,Y,Y,52790,34.2576389,-118.5002356
52791,ROSEMEAD DIALYSIS CENTER,7403 HELLMAN AVENUE,,ROSEMEAD,CA,91770,6262806161,Profit,Y,Y,52791,34.070108,-118.107649
52792,FMC-IMPERIAL COUNTY,200 WAKE AVENUE,,EL CENTRO,CA,92243,7603533323,Profit,Y,N,52792,32.771612,-115.545285
52793,SATELLITE DIALYSIS REDWOOD CITY,1410 MARSHALL STREET,,REDWOOD CITY,CA,94063,6503660789,Non-Profit,Y,N,52793,37.487344,-122.219846
52794,DAVITA-USC KIDNEY CENTER,2310 ALCAZAR STREET,,LOS ANGELES,CA,90033,3234419966,Profit,Y,Y,52794,34.0626725,-118.1987231
52796,DCI MADISON DIALYSIS CLINIC,5222 MADISON AVENUE,,SACRAMENTO,CA,95841,9163386644,Non-Profit,Y,N,52796,38.6606443,-121.3424531
52797,FMC ARDENWOOD,37478 CEDAR BLVD STE A,,NEWARK,CA,94560,5107440790,Profit,Y,N,52797,37.539186,-122.0196936
52798,RAI-NEWHOPE-FOUNTAIN VALLEY,"17197 NEWHOPE STREET, SUITE A, B, C & D",,FOUNTAIN VALLEY,CA,92708,7142410196,Profit,Y,Y,52798,33.71382,-117.9284127
52799,DAVITA-SAN DIEGO SOUTH DIALYSIS,"995 GATEWAY CENTER WAY, SUITE 101",,SAN DIEGO,CA,92102,6192621960,Profit,Y,N,52799,32.7140259,-117.116728
52800,DAVITA-DIALYSIS CENTER OF SANTA PAULA,253 MARCH STREET,,SANTA PAULA,CA,93060,8055253977,Profit,Y,N,52800,34.3492691,-119.0789097
52801,HOLLYWOOD DIALYSIS CENTER,5108 SUNSET BLVD.,,LOS ANGELES,CA,90027,3239134010,Profit,Y,N,52801,34.0981215,-118.3008654
52802,DAVITA-HARBOR UCLA,21602 S. VERMONT AVENUE,,TORRANCE,CA,90502,3105330413,Profit,Y,Y,52802,33.8328957,-118.2902601
52803,"CARSON ARTIFICIAL KIDNEY CENTER, LLC",1309 E. CARSON STREET,,CARSON,CA,90745,3105131427,Profit,Y,N,52803,33.832042,-118.250417
52804,DAVITA-MONTCLAIR DIALYSIS CENTER,"5050 PALO VERDE STREET, SUITE 100",,MONTCLAIR,CA,91763,9096250339,Profit,Y,N,52804,34.081781,-117.695379
52805,GRASS VALLEY DIALYSIS CENTER,"36O CROWN POINT CIRCLE, SUITE 210",,GRASS VALLEY,CA,95945,5304770734,Profit,Y,Y,52805,39.2205409,-121.0314019
52806,BALDWIN HILLS DIALYSIS CENTER,3705 S. LA BREA AVENUE,,LOS ANGELES,CA,90016,3232934488,Profit,Y,N,52806,34.0194385,-118.3556131
52807,DAVITA-VALLEY VIEW DIALYSIS,26900 CACTUS AVENUE,,MORENO VALLEY,CA,92555,9512472844,Profit,Y,N,52807,33.9101433,-117.1957789
52808,SADDLEBACK DIALYSIS,23141 PLAZA POINTE DRIVE,,LAGUNA HILLS,CA,92653,9495889211,Profit,Y,N,52808,33.626185,-117.722729
52809,"KIDNEY DIALYSIS CENTER OF WEST LOS ANGELES, LLC",1801 S. LA CIENEGA BLVD.,,LOS ANGELES,CA,90035,3108405688,Profit,Y,Y,52809,34.0441581,-118.3770114
52810,BENICIA DIALYSIS CENTER,560 FIRST STREET BLDG D103,,BENICIA,CA,94510,7077451488,Profit,Y,Y,52810,38.048661,-122.159203
52811,SAN LUIS OBISPO DIALYSIS,1043 MARSH STREET,,SAN LUIS OBISPO,CA,93401,8055431013,Profit,Y,Y,52811,35.2807127,-120.6593176
52812,FMC-BLYTHE DESERT DIALYSIS,737 W. HOBSON WAY,,BLYTHE,CA,92225,7609224415,Profit,Y,N,52812,33.6102313,-114.6050289
52813,SAN FRANCISCO GENERAL HOSPITAL RENAL CENTER,"1001 POTRERO BLDG. 100, ROOM 340 B",,SAN FRANCISCO,CA,94110,4152068242,Non-Profit,Y,Y,52813,37.7565985,-122.4045723
52814,TRACY DIALYSIS CENTER,"425 BEVERLY PLACE, SUITE A",,TRACY,CA,95376,2098390398,Profit,Y,Y,52814,37.7452546,-121.4186123
52815,RAI BANCROFT,6955 FOOTHILL BLVD.  STE 220,,OAKLAND,CA,94605,5105531333,Profit,Y,N,52815,0,0
52816,DESERT CITIES DIALYSIS OF BARSTOW,655 S. 7TH  STREET,,BARSTOW,CA,92311,7602563918,Profit,Y,Y,52816,0,0
52817,"RAI-CARE CENTERS OF COLTON, LLC","1275 W. ""C"" STREET",,COLTON,CA,92324,9094300930,Profit,Y,N,52817,34.073644,-117.346499
52818,UCSD DIALYSIS CENTER,"DIALYSIS PROGRAM, MAIL CODE 8781",200 W. ARBOR DRIVE,SAN DIEGO,CA,92103,6195435646,Non-Profit,Y,N,52818,32.7478638,-117.1647094
52819,SATELLITE DIALYSIS SAN MATEO,2000 SOUTH EL CAMINO REAL,,SAN MATEO,CA,94403,6503770888,Non-Profit,Y,Y,52819,37.5480999,-122.3098266
52820,RAI-FOOTHILL BLVD.-GLENDORA,120 W. FOOTHILL BLVD.,,GLENDORA,CA,91740,6263357551,Profit,Y,Y,52820,34.13545,-117.866221
52821,"PACIFIC GATEWAY DIALYSIS, LLC","1149 W. 190TH STREET, SUITE 1004",,GARDENA,CA,90248,3109650830,Profit,Y,Y,52821,33.858934,-118.296495
52822,OAKLAND PERITONEAL DIALYSIS CENTER,2633 TELEGRAPH #115,,OAKLAND,CA,94612,5102670819,Profit,N,Y,52822,0,0
52825,"WOODLAND DIALYSIS SERVICES, LLC",35 WEST MAIN STREET,,WOODLAND,CA,95695,5306684503,Profit,Y,Y,52825,38.6775077,-121.7856019
52826,NORTH HIGHLANDS DIALYSIS CENTER,4986 WATT AVENUE SUITE F,,NORTH HIGHLANDS,CA,95660,9163440183,Profit,Y,Y,52826,38.65729,-121.381775
52827,"KIDNEY CENTER OF PANORAMA CITY, INC.","14860 ROSCOE BLVD., SUITE 101",,PANORAMA CITY,CA,91402,8189019822,Profit,Y,Y,52827,34.220948,-118.457305
52828,DAVITA-LOS ANGELES DOWNTOWN,2021 S. FLOWER STREET,,LOS ANGELES,CA,90007,2137454222,Profit,Y,N,52828,34.032052,-118.272333
52829,FMC-SANTA PAULA,242 E. HARVARD BLVD.,,SANTA PAULA,CA,93060,8055251500,Profit,Y,N,52829,34.346583,-119.068455
52830,FMC-CALEXICO DESERT DIALYSIS,"408 E. THIRD STREET, SUITE A",,CALEXICO,CA,92231,7603572400,Profit,Y,N,52830,32.66746,-115.492875
52831,FMC DIABLO WEST ANTIOCH,2386 BUCHANAN ROAD,,ANTIOCH,CA,94509,9257562490,Profit,Y,N,52831,37.9992779,-121.840083
52832,KIDNEY INSTITUTE AT EISENHOWER MEDICAL CENTER,PROBST BUILDING,"39000 BOB HOPE DRIVE, SUITE 103",RANCHO MIRAGE,CA,92270,7608379696,Profit,Y,N,52832,33.739744,-116.41279
52833,PEAR TREE DIALYSIS CENTER,126 NORTH ORCHARD,,UKIAH,CA,95482,7074679000,Profit,Y,Y,52833,39.151959,-123.199452
52834,RAI-EL CAMINO REAL-OCEANSIDE,2227- B EL CAMINO REAL,,OCEANSIDE,CA,92054,7607571838,Profit,Y,Y,52834,33.1859444,-117.3282725
52835,RAI-BROADWAY-CHULA VISTA,"1181 BROADWAY, SUITE 5",,CHULA VISTA,CA,91911,6195850016,Profit,Y,N,52835,0,0
52836,TOIYABE DIALYSIS CENTER,44 TU SU LANE,,BISHOP,CA,93514,7608737611,Non-Profit,Y,N,52836,37.3615985,-118.4183849
52837,"WESTSIDE DIALYSIS CENTER, LLC",300 S. ROBERTSON BLVD.,,LOS ANGELES,CA,90048,3103858683,Profit,Y,Y,52837,34.0733279,-118.383456
52838,"LOMPOC ARTIFICIAL KIDNEY CENTER, LLC",127 W. PINE AVENUE,,LOMPOC,CA,93436,8057402000,Profit,Y,Y,52838,34.6502141,-120.4611752
52839,NORTHEAST BAKERSFIELD DIALYSIS,3761 MALL VIEW ROAD,,BAKERSFIELD,CA,93306,6618729836,Profit,Y,N,52839,35.394272,-118.9515556
52840,LONG BEACH DIALYSIS CENTER,"1045 ATLANTIC AVENUE, SUITE 108",,LONG BEACH,CA,90813,5624353637,Profit,Y,N,52840,33.780235,-118.185393
52841,ANTIOCH DIALYSIS CENTER,3100 DELTA FAIR BLVD,,ANTIOCH,CA,94509,9257535000,Profit,Y,Y,52841,38.0013095,-121.8380923
52842,FMC-BUENA CREEK,950 HACIENDA DRIVE,,VISTA,CA,92081,7606317900,Profit,Y,Y,52842,33.193109,-117.262209
52843,"MONTEBELLO DIALYSIS CENTER, LLC","111 W. BEVERLY BLVD., SUITE A",,MONTEBELLO,CA,90640,3232785555,Profit,Y,N,52843,34.0156348,-118.0993634
52844,DAVITA-IMPERIAL CARE DIALYSIS CENTER,4345 E. IMPERIAL HIGHWAY,,LYNWOOD,CA,90262,3109000333,Profit,Y,N,52844,33.9309199,-118.1846316
52845,SOUTH HAYWARD DIALYSIS CENTER,254 JACKSON STREET,,HAYWARD,CA,94544,5105831255,Profit,Y,N,52845,37.660389,-122.086075
52846,FMC-INGLEWOOD,"336 E. HILLCREST AVENUE, SUITE 100",,INGLEWOOD,CA,90301,3106733656,Profit,Y,Y,52846,33.9602595,-118.3501444
52847,FMC-WEST COVINA KIDNEY CENTER,1540 W. COVINA PARKWAY,,WEST COVINA,CA,91790,6263378007,Profit,Y,Y,52847,34.07028,-117.9401546
52848,FMC-RIVERSIDE,"3470 LA SIERRA AVENUE, SUITE E",,RIVERSIDE,CA,92503,9513437700,Profit,Y,N,52848,33.898324,-117.4734
52850,ORANGEVALE DIALYSIS CENTER,9267 GREENBACK LANE #A2,,ORANGEVALE,CA,95662,9169885666,Profit,Y,N,52850,0,0
52852,DAVITA-CRESCENT HEIGHTS DIALYSIS CENTER,8151 BEVERLY BLVD.,,LOS ANGELES,CA,90048,3236556226,Profit,Y,Y,52852,34.075872,-118.367051
52853,"OAKDALE KIDNEY CENTER, LLC",1405 WEST F STREET SUITE B,,OAKDALE,CA,95361,2098485780,Profit,Y,N,52853,37.7597049,-120.862343
52854,MOHAN DIALYSIS CENTER OF INDUSTRY,15757 E. VALLEY BLVD.,,CITY OF INDUSTRY,CA,91744,6263333801,Profit,Y,Y,52854,0,0
52855,FMC-RANCHO CUCAMONGA,"10532 ACACIA STREET, SUITE B2-B3",,RANCHO CUCAMONGA,CA,91730,9099878887,Profit,Y,N,52855,0,0
52856,DAVITA-WASHINGTON PLAZA DIALYSIS CENTER,516-522 E. WASHINGTON BLVD.,,LOS ANGELES,CA,90015,2137492433,Profit,Y,N,52856,34.0286022,-118.2597869
52857,FLORIN DIALYSIS CENTER,7000 STOCKTON BLVD.,,SACRAMENTO,CA,95823,9164243990,Profit,Y,N,52857,0,0
52858,DAVITA-KENNETH HAHN PLAZA DIALYSIS CENTER,11854 S. WILMINGTON  AVENUE,,LOS ANGELES,CA,90059,3235675077,Profit,Y,Y,52858,33.9254358,-118.2389739
52859,GLENDALE KIDNEY CENTER,1427 S. GLENDALE AVENUE,,GLENDALE,CA,91205,8186620222,Profit,Y,N,52859,0,0
52860,FMC-DIALYSIS SERVICES OF CHANNEL ISLANDS,"2679 S. SAVIERS ROAD, SUITE B",,OXNARD,CA,93033,8054862929,Profit,Y,N,52860,34.1747513,-119.1776404
52861,FMC-SOUTH ORANGE COUNTY,"2020 E. FIRST STREET, SUITE 110",,SANTA ANA,CA,92705,7149721236,Profit,Y,N,52861,33.744531,-117.837774
52862,FMC-NORTH ORANGE COUNTY,"511 N. BROOKHURST STREET, SUITE 100",,ANAHEIM,CA,92801,7147780488,Profit,Y,N,52862,33.839212,-117.959997
52863,RAI-NORTH RIVERSIDE-RIALTO,"1850 N. RIVERSIDE AVENUE, SUITE 150",,RIALTO,CA,92376,9098791185,Profit,Y,N,52863,34.1311751,-117.3701782
52864,FMC-SAN YSIDRO DIALYSIS CENTER,3010 DEL SOL BLVD.,,SAN DIEGO,CA,92154,6194299690,Profit,Y,N,52864,32.5735622,-117.068692
52865,DAVITA-CENTURY CITY DIALYSIS CENTER (ADULT),10630 SANTA MONICA BLVD.,,LOS ANGELES,CA,90025,3109542700,Profit,Y,Y,52865,34.0527906,-118.4304215
52866,SAN YSIDRO DIALYSIS,"1445 30TH STREET, SUITE A",,SAN DIEGO,CA,92154,6195753901,Profit,Y,Y,52866,32.5703236,-117.0659861
52867,EAST PALMDALE DIALYSIS CENTER,2710 E. PALMDALE BLVD.,,PALMDALE,CA,93550,6614561500,Profit,Y,Y,52867,34.579746,-118.080775
52868,"QUEENS DIALYSIS UNIT, INC.","1135 S. SUNSET AVENUE, SUITE 103",,WEST COVINA,CA,91790,6263374245,Profit,Y,N,52868,34.0622427,-117.945274
52869,DAVITA-PALMDALE REGIONAL DIALYSIS,1643 E. PALMDALE BLVD.,,PALMDALE,CA,93550,6615400925,Profit,Y,N,52869,34.580019,-118.099506
52870,SATELLITE DIALYSIS SUNNYVALE,155 NORTH WOLFE RD,,SUNNYVALE,CA,94086,4086171887,Non-Profit,Y,N,52870,37.3766755,-122.0136226
52871,CENTRAL COAST KIDNEY DISEASE CENTER,1401 E. MAIN STREET,,SANTA MARIA,CA,93454,8053498600,Profit,Y,Y,52871,34.953248,-120.413587
52872,FLORENCE DIALYSIS CENTER,351 W. FLORENCE AVENUE,,LOS ANGELES,CA,90003,3237895690,Profit,Y,N,52872,33.974958,-118.279933
52873,DAVITA-DIALYSIS CENTER OF THOUSAND OAKS,"375 ROLLING OAKS DRIVE, SUITE 100",,THOUSAND OAKS,CA,91361,8055571036,Profit,Y,Y,52873,34.1747129,-118.870472
52874,SATELLITE DIALYSIS SOUTH SAN FRANCISCO,205 KENWOOD WAY,,SOUTH SAN FRANCISCO,CA,94080,6506167788,Non-Profit,Y,Y,52874,37.641694,-122.425767
52875,INTENSIVE RENAL CARE,"9808 VENICE BLVD., SUITE 200",,CULVER CITY,CA,90232,3108410500,Profit,Y,N,52875,34.023397,-118.397872
52876,OROVILLE DIALYSIS CLINIC,3012 OLIVE HIGHWAY,,OROVILLE,CA,95966,5305326800,Non-Profit,Y,Y,52876,39.501782,-121.538198
52877,PLUMAS STREET DIALYSIS CENTER,640 PLUMAS STREET,,YUBA CITY,CA,95991,5306736656,Profit,Y,N,52877,39.1365323,-121.6159987
52878,FMC-SAN BERNARDINO,"636 E. BRIER DRIVE, SUITE 150",,SAN BERNARDINO,CA,92408,9098909508,Profit,Y,N,52878,34.070626,-117.272114
52879,HACIENDA DIALYSIS CENTER,"2020 S. HACIENDA BLVD., SUITE G",,HACIENDA HEIGHTS,CA,91745,6269689558,Profit,Y,Y,52879,33.996281,-117.966605
52880,FMC-BELLFLOWER,10116 ROSECRANS AVENUE,,BELLFLOWER,CA,90706,5629202070,Profit,Y,N,52880,33.901452,-118.117966
52881,NEWPORT BEACH DIALYSIS,"3333 W. COAST HIGHWAY, SUITE 101",,NEWPORT BEACH,CA,92663,9496310107,Profit,Y,N,52881,33.620838,-117.927686
52882,FMC-WEST LOS ANGELES,"301 N. PRAIRIE AVENUE, SUITE 100",,INGLEWOOD,CA,90301,3106749640,Profit,Y,N,52882,33.9657089,-118.344432
52883,DAVITA-SAN DIEGO EAST,"292 EUCLID AVENUE, SUITE 100",,SAN DIEGO,CA,92114,6192627225,Profit,Y,Y,52883,32.702399,-117.085071
52884,WHITTIER KIDNEY DIALYSIS CENTER,16417 E. WHITTIER BLVD.,,WHITTIER,CA,90603,5629478999,Profit,Y,Y,52884,33.9401007,-117.9801443
52885,FMC-DIALYSIS SERVICES OF PARADISE,6919 PARADISE VALLEY ROAD,,SAN DIEGO,CA,92139,6194752872,Profit,Y,N,52885,32.6893181,-117.0451343
52886,FMC-DIALYSIS SERVICES OF COLLEGE,"4660 EL CAJON BLVD., SUITE 110",,SAN DIEGO,CA,92115,6195164803,Profit,Y,N,52886,32.756399,-117.093657
52887,SATELLITE DIALYSIS WINDSOR,"911 MEDICAL CENTER PLAZA, STE.16",,WINDSOR,CA,95492,7078361091,Non-Profit,Y,N,52887,38.55088,-122.804537
52888,PARKWAY KIDNEY CENTER,"2200 PLAZA PARKWAY,  SUITE B1-B4",,MODESTO,CA,95350,2095746818,Profit,Y,N,52888,37.6714132,-121.0335746
52889,FMC-NORTH LONG BEACH,145 W. VICTORIA STREET,,LONG BEACH,CA,90805,3106393122,Profit,Y,N,52889,33.8648777,-118.2034046
52890,FMC-ANTELOPE VALLEY,"44950 VALLEY CENTRAL WAY, SUITE 108",,LANCASTER,CA,93536,6617295680,Profit,Y,Y,52890,34.6990426,-118.1743233
52891,WELLBOUND OF SAN JOSE LLC,1525 MERIDIAN AVENUE SUITE 101,,SAN JOSE,CA,95125,4082693600,Profit,Y,Y,52891,37.297325,-121.914099
52892,SOLEDAD DIALYSIS CENTER,901 LOS COCHES DRIVE,,SOLEDAD,CA,93960,8316784310,Profit,Y,Y,52892,36.415557,-121.317433
52893,"TEMPLE CITY DIALYSIS FACILITY, INC.",9945 LOWER AZUSA ROAD,,TEMPLE CITY,CA,91780,6264423400,Profit,Y,Y,52893,34.090914,-118.049967
52894,RAI-MONROE-INDIO,"46-767 MONROE STREET, SUITE 101",,INDIO,CA,92201,7603473986,Profit,Y,N,52894,33.7003336,-116.2339347
52895,DAVITA-LAKE ELSINORE DIALYSIS CENTER,32291 MISSION TRAIL,,LAKE ELSINORE,CA,92530,9516745050,Profit,Y,N,52895,33.6529134,-117.2967708
52896,"CERRITOS DIALYSIS CENTER, LLC","19222 PIONEER BLVD., SUITE 101",,CERRITOS,CA,90703,5629249990,Profit,Y,N,52896,33.855632,-118.081493
52897,DAVITA-TUSTIN DIALYSIS CENTER,"2090 N. TUSTIN AVENUE, SUITE 100",,SANTA ANA,CA,92705,7148352450,Profit,Y,Y,52897,33.764102,-117.836292
52898,RAI-LAGUNA CANYON-IRVINE,16255 LAGUNA CANYON ROAD,,IRVINE,CA,92618,9497274495,Profit,Y,Y,52898,33.6593899,-117.7681596
52899,KIDNEY CENTER OF LOS ANGELES,"1125 W. 6TH STREET, SUITE 101",,LOS ANGELES,CA,90017,2134813041,Profit,Y,Y,52899,34.054362,-118.262544
53300,CHILDRENS HOSPITAL CENTRAL CALIFORNIA,9300 VALLEY CHILDRENS PLACE,MAIL STOP SE 13,MADERA,CA,93636,5593535770,Non-Profit,N,Y,53300,36.883998,-119.800692
53302,CHILDRENS HOSPITAL OF LOS ANGELES,DIVISION OF NEPHROLOGY (DIALYSIS),4650 SUNSET BLVD. - BOX 40,LOS ANGELES,CA,90027,3233612295,Non-Profit,Y,Y,53302,34.1220545,-118.2935891
53303,CHILDRENS HOSPITAL OF SAN DIEGO,"3020 CHILDRENS WAY, MC 5115",,SAN DIEGO,CA,92123,8589668882,Non-Profit,Y,N,53303,32.7932147,-117.1382404
53305,LUCILE PACKARD STANFORD PEDIATRIC DIALYSIS,725 WELCH ROAD PEDIATRIC DIALYSIS  RM 1229,,PALO ALTO,CA,94304,6504985544,Non-Profit,Y,Y,53305,37.3813444,-122.1802812
53501,PEDIATRIC DIALYSIS UNIT AT UCSF,400 PARNASSUS  RM  A127,BOX 0314,SAN FRANCISCO,CA,94143,4153532425,Non-Profit,Y,Y,53501,37.7628935,-122.4596989
53506,KAWEAH DELTA DIALYSIS FACILITY,5040 W. TULARE AVENUE,,VISALIA,CA,93277,5596243600,Non-Profit,Y,Y,53506,36.3200791,-119.3446465
53512,PORTERVILLE HEMODIALYSIS FACILITY,385 N. PEARSON DRIVE,,PORTERVILLE,CA,93257,5597815551,Non-Profit,Y,Y,53512,36.0728994,-119.0276302
53514,EVERGREEN DIALYSIS,2240 TULLY ROAD,,SAN JOSE,CA,95122,4082389100,Non-Profit,Y,Y,53514,37.3282282,-121.817049
53516,BURLINGAME DIALYSIS CENTER,1501 TRUSDALE DR,,BURLINGAME,CA,94010,6506963680,Non-Profit,Y,Y,53516,37.5916711,-122.3838029
53520,ROSE GARDEN DIALYSIS CENTER,999 WEST TAYLOR STREET,,SAN JOSE,CA,95126,4084941000,Non-Profit,Y,N,53520,37.3382029,-121.9170986
53521,MEE MEMORIAL HOSPITAL-DIALYSIS,809 BROADWAY SUITE A,,KING CITY,CA,93930,8313856034,Non-Profit,Y,N,53521,36.20764,-121.133311
53523,UC CHRONIC DIALYSIS/MT. ZION,1675 SCOTT STREET,,SAN FRANCISCO,CA,94115,4158857421,Non-Profit,Y,N,53523,37.7852245,-122.4381787
53524,COMMUNITY DIALYSIS CENTER - CLOVIS,685 MEDICAL CENTER DR.  WEST #105X,,CLOVIS,CA,93611,5593244030,Non-Profit,Y,Y,53524,0,0
53525,COMMUNITY DIALYSIS CENTER,285 NORTH FRESNO STREET,,FRESNO,CA,93701,5594593901,Non-Profit,Y,N,53525,36.7465404,-119.7815225
53526,SAN JOAQUIN GENERAL HOSPITAL,7783 SOUTH FREEDOM ROAD,,FRENCH CAMP,CA,95231,2094686085,Non-Profit,Y,N,53526,37.8838688,-121.2817759
53527,ST. JOSEPH HOSPITAL DIALYSIS CENTER-SANTA ANA,"2212 E. 4TH STREET, SUITE 101",,SANTA ANA,CA,92705,7145717850,Non-Profit,Y,N,53527,0,0
60024,UNIVERSITY OF CO HOSPITAL - DIALYSIS,4185 E 9TH AVE,,DENVER,CO,80262,7208489700,Non-Profit,Y,Y,60024,39.7310526,-104.9373219
60076,THE JAMES HARRIGAN CTR - DIALYSIS,603 HOLLY DRIVE,,STERLING,CO,80751,9705213208,Non-Profit,Y,Y,60076,40.6112018,-103.2198489
62501,ROCKY MOUNTAIN DIALYSIS (FMC),4600 HALE PARKWAY STE.120,,DENVER,CO,80220,3033206894,Profit,Y,Y,62501,39.7333611,-104.9337393
62502,LAKEWOOD DIALYSIS (DVA),1750 PIERCE STREET,,LAKEWOOD,CO,80214,3032386111,Profit,Y,N,62502,39.745144,-105.071384
62505,NORTHERN COLORADO KIDNEY CENTER (FMC),1213 RIVERSIDE,,FORT COLLINS,CO,80524,9704937575,Profit,Y,Y,62505,40.575403,-105.056487
62507,PIKES PEAK DIALYSIS CENTER (DVA),"2002 LELARAY STREET, STE 130",,COLORADO SPRINGS,CO,80909,7194714615,Profit,Y,Y,62507,38.857468,-104.790843
62510,WILLOW STATION DIALYSIS (FMC),2343 W 27TH STREET #503,,GREELEY,CO,80634,9703306100,Profit,Y,N,62510,0,0
62511,THORNTON DIALYSIS (DVA),8800 FOX DRIVE,,THORNTON,CO,80260,3034307020,Profit,Y,N,62511,39.856877,-104.993561
62514,AURORA DIALYSIS (DVA),1411 SOUTH POTOMAC SUITE 100,,AURORA,CO,80012,3033681911,Profit,Y,N,62514,39.691065,-104.83272
62516,WESTMINSTER DIALYSIS (DVA),9053 HARLAN ST #90,,WESTMINSTER,CO,80030,3034272400,Profit,Y,N,62516,0,0
62517,BOULDER DIALYSIS (DVA),2880 FOLSOM STREET SUITE 110,,BOULDER,CO,80304,3034405600,Profit,Y,N,62517,40.028398,-105.262617
62518,SOUTH DENVER DIALYSIS (DVA),850 E HARVARD - SUITE 60,,DENVER,CO,80210,3037440559,Profit,Y,Y,62518,39.670389,-104.97782
62519,LITTLETON DIALYSIS (DVA),209 WEST COUNTY LINE ROAD,,LITTLETON,CO,80129,3037307540,Profit,Y,N,62519,39.5661764,-104.9916321
62520,PUEBLO DIALYSIS (FMC),41 MONTBELLO ROAD SUITE 200,,PUEBLO,CO,81001,7195451575,Profit,Y,Y,62520,38.306681,-104.597264
62521,ARVADA DIALYSIS CENTER (DVA),9950 W. 80TH AVENUE STE. 25,,ARVADA,CO,80005,3034569556,Profit,Y,N,62521,39.841325,-105.109177
62522,CANON CITY DIALYSIS (FMC),2245 FREMONT DR,,CANON CITY,CO,81212,7192768404,Profit,Y,N,62522,38.448709,-105.215349
62523,LOVELAND DIALYSIS (FMC),2940 GINNALA,,LOVELAND,CO,80538,9706639155,Profit,Y,N,62523,40.422948,-105.070537
62524,PRINTERS PLACE DIALYSIS CENTER (DVA),2802  INTERNATIONAL CIRCLE,,COLORADO SPRINGS,CO,80910,7196300602,Profit,Y,N,62524,38.8275748,-104.7868341
62525,LA JUNTA DIALYSIS (FMC),1116 CARSON AVENUE,,LA JUNTA,CO,81050,7193832300,Profit,Y,N,62525,37.9786005,-103.5487236
62526,WALSENBURG DIALYSIS (FMC),23450 HIGHWAY 160,,WALSENBURG,CO,81089,7197384864,Profit,Y,N,62526,37.6273865,-104.773389
62527,CENTRAL DENVER DIALYSIS (FMC),765 S. BROADWAY,,DENVER,CO,80209,3037651699,Profit,Y,N,62527,39.702659,-104.988105
62528,FOUR CORNERS DIALYSIS CLINIC CORTEZ (DVA),610 EAST MAIN STE C,,CORTEZ,CO,81321,9705654302,Profit,Y,Y,62528,37.349793,-108.576743
62529,LOWRY DIALYSIS CENTER (DVA),7465 E 1ST AVENUE UNIT A,,DENVER,CO,80230,3033670946,Profit,Y,Y,62529,39.719536,-104.900482
62530,MONTROSE DIALYSIS (DCI),945 SOUTH 4TH STREET,,MONTROSE,CO,81401,9702403302,Non-Profit,Y,N,62530,38.480663,-107.868046
62531,ENGLEWOOD DIALYSIS (DVA),3247 S LINCOLN ST,,ENGLEWOOD,CO,80110,3037610600,Profit,Y,N,62531,39.657628,-104.986722
62532,RELIANT RENAL CARE- COLORADO SPRINGS,1605 N UNION BLVD #100,,COLORADO SPRINGS,CO,80909,7194470818,Profit,Y,Y,62532,0,0
62533,COMMERCE CITY DIALYSIS (DVA),6320 HOLLY ST,,COMMERCE CITY,CO,80022,3038534300,Profit,Y,N,62533,39.811284,-104.92164
62534,LONGMONT DIALYSIS (DVA),1715 IRON HORSE DR SUITE 170,,LONGMONT,CO,80501,3034854084,Profit,Y,Y,62534,40.158795,-105.061403
62535,LAKEWOOD CROSSING DIALYSIS (DVA),1057 S WADSWORTH BLVD - SUITE 100,,LAKEWOOD,CO,80226,7209626199,Profit,Y,N,62535,39.697924,-105.0821519
62536,LAMAR DIALYSIS (FMC),108 WEST LEE AVE,,LAMAR,CO,81052,7193361170,Profit,Y,N,62536,38.0752852,-102.6187756
62537,PUEBLO SOUTH DIALYSIS (FMC),3426 LAKE AVENUE STE 110,,PUEBLO,CO,81004,7195642442,Profit,Y,N,62537,38.214923,-104.625403
62538,GRAND JUNCTION DIALYSIS (DCI),2748 CROSSROADS BLVD,,GRAND JUNCTION,CO,81506,9702550900,Non-Profit,Y,Y,62538,39.116737,-108.543547
62540,EAST AURORA DIALYSIS (DVA),482 SOUTH CHAMBERS ROAD,,AURORA,CO,80017,3036961137,Profit,Y,N,62540,0,0
62541,MILE HIGH PD (DVA),1750 PIERCE ST #A,,LAKEWOOD,CO,80214,3032320939,Profit,N,Y,62541,0,0
62542,BRIGHTON DIALYSIS (DVA),"4700 EAST BROMLEY LANE, SUITE 103",,BRIGHTON,CO,80601,3036592511,Profit,Y,N,62542,39.971279,-104.7586929
62543,LONETREE DIALYSIS (DVA),9777  PYRAMID COURT SUITE 140,,ENGLEWOOD,CO,80112,3036620466,Profit,Y,N,62543,39.5395669,-104.8650404
62544,BELCARO DIALYSIS (DVA),755 SOUTH COLORADO BLVD,,DENVER,CO,80246,3037772844,Profit,Y,N,62544,39.7027535,-104.9408225
62545,AURORA DIALYSIS (FMC),962 POTOMAC CIRCLE,,AURORA,CO,80011,3033401398,Profit,Y,N,62545,39.732428,-104.82701
62546,DENVER DIALYSIS (DVA),2900 DOWNING ST STE C,,DENVER,CO,80205,3032920303,Non-Profit,Y,N,62546,39.758632,-104.972993
62547,DURANGO DIALYSIS CENTER (DVA),"72 SUTTLE STREET, UNIT D",,DURANGO,CO,81301,9703858608,Profit,Y,Y,62547,37.247979,-107.876633
62548,STAPLETON DIALYSIS (FMC),7606 EAST 36TH AVENUE,,DENVER,CO,80238,3033221513,Profit,Y,Y,62548,39.7672901,-104.8996117
62549,RELIANT RENAL CARE- TRINIDAD,400 BENEDICTA SUITE #C,,TRINIDAD,CO,81082,7198450003,Profit,Y,Y,62549,0,0
62550,ALAMOSA DIALYSIS (DVA),612 DEL SOL DRIVE,,ALAMOSA,CO,81101,7195892022,Profit,Y,Y,62550,37.4820337,-105.9025152
62552,FOUNTAIN DIALYSIS CENTER (DVA),6910 BANDLEY DRIVE STE. 100,,FOUNTAIN,CO,80817,7193930190,Profit,Y,Y,62552,38.7198505,-104.7281802
62553,GRAND JUNCTION DIALYSIS CENTER (DVA),710 WELLINGTON AVE #20,,GRAND JUNCTION,CO,81501,9702638573,Profit,Y,N,62553,0,0
62554,KIDNEY CENTER OF ARVADA (ARA),5265 VANCE STREET,,ARVADA,CO,80002,3034031127,Profit,Y,Y,62554,39.792187,-105.078845
62555,KIDNEY CENTER OF LAFAYETTE (ARA),2655 CRESCENT DRIVE STE C,,LAFAYETTE,CO,80026,7208904661,Profit,Y,Y,62555,39.9662624,-105.0887268
62556,KIDNEY CENTER OF LAKEWOOD (ARA),6166 W ALAMEDA AVE,,DENVER,CO,80226,3039226371,Profit,Y,Y,62556,39.710461,-105.064195
62557,KIDNEY CENTER OF LONGMONT (ARA),1960 KEN PRATT BLVD STE A,,LONGMONT,CO,80501,3034857100,Profit,Y,Y,62557,40.1455189,-105.1258349
62558,KIDNEY CENTER OF WESTMINSTER (ARA),8410 DECATUR ST STE 200,,WESTMINSTER,CO,80031,3034306518,Profit,Y,Y,62558,39.8494226,-105.0224534
62559,NORTH METRO DENVER DIALYSIS (DVA),"12365 HURON STREET, STE 500",,WESTMINSTER,CO,80234,3034519093,Profit,Y,Y,62559,39.921424,-104.997531
62560,LIBERTY DIALYSIS - PUEBLO,850 EAGLERIDGE BLVD,,PUEBLO,CO,81008,7192535980,Profit,Y,Y,62560,38.319996,-104.619791
62561,NORTH COLORADO SPRINGS DIALYSIS (DVA),6071 EAST WOODMEN RD SUITE 100/120,,COLORADO SPRINGS,CO,80923,7196381223,Profit,Y,Y,62561,38.939384,-104.717259
62562,PARKER DIALYSIS (DVA),10371 S PARK GLENN WY STE 180,,PARKER,CO,80138,3038400541,Profit,Y,Y,62562,39.528732,-104.765608
62563,LIBERTY DIALYSIS - COLORADO SPRINGS NORTH,2180 HOLLOWBROOK DR,,COLORADO SPRINGS,CO,80918,7195932999,,Y,Y,62563,38.921116,-104.785439
62564,LIBERTY DIALYSIS - COLORADO SPRINGS SOUTH,2508 AIRPORT RD,,COLORADO SPRINGS,CO,80909,7192277455,Profit,Y,Y,62564,38.825356,-104.7832831
62565,LIBERTY DIALYSIS - CASTLE ROCK,4352 TRAILBOSS DR,,CASTLE ROCK,CO,80104,3033895626,,Y,Y,62565,39.405654,-104.858834
62566,LIBERTY DIALYSIS COLORADO SPRINGS CENTRAL,1910 E LELARAY ST,,COLORADO SPRINGS,CO,80909,7193804878,Profit,Y,Y,62566,38.857476,-104.792207
62567,MESA COUNTY DIALYSIS (DVA),561 25 ROAD STE D,,GRAND JUNCTION,CO,81505,9702489120,Profit,Y,Y,62567,39.085769,-108.5902
62568,PUEBLO WEST DIALYSIS (FMC),73 N ASPEN SKI WAY,,PUEBLO WEST,CO,81007,7195473888,Profit,Y,N,62568,38.338094,-104.737731
62569,BLACK CANYON DIALYSIS (DVA),3421 S RIO GRANDE STE D,,MONTROSE,CO,81401,9702407925,Profit,Y,Y,62569,38.4601396,-107.8710873
63301,THE CHILDRENS HOSPITAL KIDNEY CTR.,13123 E 16TH AVENUE,,AURORA,CO,80045,7207776263,Non-Profit,Y,Y,63301,39.744427,-104.836166
70025,HARTFORD HOSPITAL,"80 SEYMOUR STREET, JB7/JB8",,HARTFORD,CT,06102,8605452070,Non-Profit,Y,Y,70025,41.7541241,-72.6792679
70033,DANBURY HOSPITAL,"111 OSBORNE STREET, SUITE 211",,DANBURY,CT,06810,2037397382,Non-Profit,Y,Y,70033,41.4035478,-73.4423223
70035,NEW BRITAIN GENERAL HOSPITAL,DIALYSIS UNIT,100 GRAND STREET,NEW BRITAIN,CT,06050,8602245195,Non-Profit,Y,Y,70035,41.7097941,-72.736363
72501,BRIDGEPORT DIALYSIS,900 MADISON AVENUE,,BRIDGEPORT,CT,06606,2033350191,Profit,Y,Y,72501,41.1934708,-73.2053723
72503,NEW HAVEN HOME DIALYSIS,136 SHERMAN AVENUE,SUITE 206,NEW HAVEN,CT,06511,2037730853,Profit,N,Y,72503,41.3105001,-72.9449258
72504,STAMFORD DIALYSIS,30 COMMERCE ROAD,,STAMFORD,CT,06902,2033589969,Profit,Y,Y,72504,41.0469393,-73.5607702
72505,DIALYSIS CENTER OF NEWINGTON,375 WILLARD AVENUE,,NEWINGTON,CT,06111,8606673898,Profit,Y,Y,72505,41.7097941,-72.736363
72506,ENFIELD DIALYSIS CENTER,113 ELM STREET,,ENFIELD,CT,06082,8607459800,Profit,Y,Y,72506,41.9980323,-72.5818977
72507,NEW HAVEN DIALYSIS,100 CHURCH STREET SOUTH,SUITE C,NEW HAVEN,CT,06519,2037858885,Profit,Y,Y,72507,41.2996183,-72.9299095
72508,CENTRAL CT DIALYSIS CENTER,377 RESEARCH PARKWAY,,MERIDEN,CT,06450,2036392880,Profit,Y,Y,72508,41.5171022,-72.7645579
72509,EAST HARTFORD DIALYSIS CENTER,200 PITKIN STREET,,EAST HARTFORD,CT,06108,8602826266,Profit,Y,Y,72509,41.763732,-72.6565223
72510,SHELTON DIALYSIS,750 BRIDGEPORT AVENUE,,SHELTON,CT,06484,2039259520,Profit,Y,N,72510,41.2735808,-73.1255297
72511,GREATER WATERBURY DIALYSIS,209 HIGHLAND AVENUE,,WATERBURY,CT,06708,2035747933,Profit,Y,Y,72511,41.5510401,-73.0587918
72512,ST. RAPHAEL DIALYSIS CENTER - NEW HAVEN,DIALYSIS UNIT,137 WATER STREET,NEW HAVEN,CT,06511,2037722421,Profit,Y,Y,72512,41.2992665,-72.7569366
72513,MILFORD DIALYSIS CENTER,50 COMMERCE PARK DRIVE,,MILFORD,CT,06460,2038761398,Profit,Y,N,72513,41.2280742,-73.0451068
72514,MILFORD DIALYSIS,470 BRIDGEPORT AVENUE,,MILFORD,CT,06460,2038829013,Profit,Y,N,72514,41.2062505,-73.0907743
72515,NEW LONDON DIALYSIS,5 SHAW'S COVE,SUITE 100,NEW LONDON,CT,06320,8607011357,Profit,Y,Y,72515,41.3457874,-72.1005387
72516,HARTFORD DIALYSIS,675 TOWER AVENUE,,HARTFORD,CT,06112,8602420735,Profit,Y,Y,72516,41.8007228,-72.6936389
72517,BRANFORD DIALYSIS,249 WEST MAIN STREET,,BRANFORD,CT,06405,2034818531,Profit,Y,N,72517,41.2781764,-72.8542042
72518,"PHYSICIANS DIALYSIS INC., - ROCKY HILL",30 WATERCHASE DRIVE,,ROCKY HILL,CT,06067,8605636000,Profit,Y,Y,72518,41.676726,-72.654002
72519,UCONN DIALYSIS CENTER,230 FARMINGTON AVENUE,,FARMINGTON,CT,06032,8606781459,Non-Profit,Y,Y,72519,41.7384649,-72.7927757
72520,NORWICH DIALYSIS,113 SALEM TURNPIKE,,NORWICH,CT,06360,8608871632,Profit,Y,Y,72520,41.5118018,-72.1119619
72521,SOUTH NORWALK DIALYSIS,31 STEVENS STREET,,NORWALK,CT,06856,2038386017,Profit,Y,Y,72521,41.1103207,-73.4220943
72522,SHORELINE DIALYSIS CENTER,34 EAST INDUSTRIAL ROAD,,BRANFORD,CT,06405,2033158113,Profit,Y,N,72522,41.3007495,-72.7696139
72523,TORRINGTON DIALYSIS,C/O JOSEPH MARCANTONIO KIDNEY CENTER,"780 LITCHFIELD STREET, SUITE 100",TORRINGTON,CT,06790,8604960661,Profit,Y,Y,72523,0,0
72524,"MIDDLESEX DIALYSIS CENTER, LLC.",100 RIVERVIEW CENTER MAIN STREET,SUITE 11,MIDDLETOWN,CT,06457,8603465600,Profit,Y,Y,72524,41.5603939,-72.6490132
72527,FMC DIALYSIS SERVICES FORESTVILLE,135 MIDDLE STREET,,BRISTOL,CT,06010,8605842155,Profit,Y,Y,72527,41.6660319,-72.9217738
72528,BLOOMFIELD DIALYSIS,29 GRIFFIN ROAD SOUTH,,BLOOMFIELD,CT,06002,8602435389,Profit,Y,N,72528,41.8673078,-72.737082
72529,VERNON DIALYSIS CENTER,460 HARTFORD TURNPIKE,,VERNON ROCKVILLE,CT,06066,8608961537,Profit,Y,Y,72529,41.8296608,-72.4794024
72530,WINDHAM DIALYSIS CENTER,375-C TUCKIE ROAD,,NORTH WINDHAM,CT,06256,8604561677,Profit,Y,N,72530,41.7328338,-72.1827775
72531,FMC OF HARTFORD,"3580 MAIN STREET, SUITE 3",,HARTFORD,CT,06120,8605604054,Profit,Y,Y,72531,41.7990498,-72.6621836
72532,LIBERTY DIALYSIS,510 WASHINGTON AVENUE,,NORTH HAVEN,CT,06473,2032347071,Profit,Y,Y,72532,41.4151577,-72.8410052
72533,DAVITA WATERBURY HEIGHTS DIALYSIS,150 MATTATUCK HEIGHTS,,WATERBURY,CT,06705,2034190488,Profit,Y,N,72533,41.540221,-72.984447
72534,FRESENIUS MEDICAL CARE OF SOUTHINGTON,341 WEST STREET,,PLANTSVILLE,CT,06479,8606213557,Profit,Y,Y,72534,41.5976682,-72.8980885
72535,BLACK ROCK DIALYSIS,427 STILLSON RD,,FAIRFIELD,CT,06824,2033829566,Profit,Y,N,72535,41.180464,-73.2521656
72536,LIBERTY DIALYSIS - FAIRFIELD,500 KINGS HWY,,FAIRFIELD,CT,06825,2035838875,Profit,Y,Y,72536,41.171394,-73.230212
72537,NORTH HAVEN DIALYSIS CENTER,266 STATE STREET SUITE 2,,NORTH HAVEN,CT,06473,2032301946,Profit,Y,N,72537,41.3764209,-72.8830797
72538,MANCHESTER DIALYSIS CENTER,319 MAIN STREET,,MANCHESTER,CT,06040,8604329499,Non-Profit,Y,Y,72538,41.7822131,-72.522651
72539,LIBERTY DIALYSIS ORANGE,"240 INDIAN RIVER RD, SUITE D",,ORANGE,CT,06477,2038918992,Profit,Y,Y,72539,41.2619602,-73.0009246
72540,FMC OF WESTERN HARTFORD,"725 PARK AVENUE,",,BLOOMFIELD,CT,06002,8607260099,Profit,Y,Y,72540,41.8269144,-72.7301918
80001,CHRISTIANA CARE HEALTH SYSTEM,"HEMODIALYSIS UNIT, CHRISTIANA HOSPITAL",4755 OGLETON-STANTON ROAD,NEWARK,DE,19718,3027331001,Non-Profit,Y,Y,80001,39.68,-75.75
80004,"BAYHEALTH MEDICAL CENTER, KENT GENERAL CAMPUS",640 SOUTH STATE STREET,,DOVER,DE,19901,3027447322,Non-Profit,Y,N,80004,39.1513296,-75.5222899
80007,BEEBE MEDICAL CENTER,424 SAVANNAH ROAD,,LEWES,DE,19958,3026453643,Non-Profit,Y,N,80007,38.7726139,-75.1441934
82501,FRESENIUS MEDICAL CARE BRANDYWINE,303 A STREET,,WILMINGTON,DE,19801,3026587469,Profit,Y,N,82501,39.7335733,-75.5511799
82502,FRESENIUS MEDICAL CARE CENTRAL DELAWARE,BLUE HEN CORPORATE CENTER,"655 SOUTH BAY ROAD, SUITE 4M",DOVER,DE,19901,3026785718,Profit,Y,N,82502,39.158168,-75.5243682
82503,FRESENIUS MEDICAL CARE MID SUSSEX COUNTY,34 GEORGETOWN PLAZA,,GEORGETOWN,DE,19947,3028540230,Profit,Y,Y,82503,38.683257,-75.395147
82505,FRESENIUS MEDICAL CARE RIVERSIDE PARK,"RIVERSIDE MEDICAL ARTS COMPLEX, UNIT G2",700 W. LEA BOULEVARD,WILMINGTON,DE,19802,3027628585,Profit,Y,Y,82505,39.760071,-75.5334928
82506,FRESENIUS MEDICAL CARE CHRISTIANA,UNIVERSITY PLAZA SHOPPING CENTER,63 UNIVERSITY PLAZA,NEWARK,DE,19702,3024538834,Profit,Y,Y,82506,39.6203775,-75.7487779
82507,FRESENIUS MEDICAL CARE MILFORD,656D NORTH DUPONT HIGHWAY,,MILFORD,DE,19963,3024240552,Profit,Y,Y,82507,39.033966,-75.541009
82508,FRESENIUS MEDICAL CARE SEAFORD,23006 SUSEX HIGHWAY,,SEAFORD,DE,19973,3026283152,Profit,Y,N,82508,38.6607554,-75.5941185
82509,FRESENIUS MEDICAL CARE FIRST STATE,608 FERRY CUTOFF,,NEW CASTLE,DE,19720,3023289044,Profit,Y,N,82509,39.665269,-75.565342
82510,FRESENIUS MEDICAL CARE REHOBOTH,20699 COASTAL HIGHWAY,UNIT 3,REHOBOTH BEACH,DE,19971,3022269330,Profit,Y,N,82510,38.7045139,-75.0854445
82511,FRESENIUS MEDICAL CARE WILMINGTON,"ST. FRANCIS MEDICAL OFFICE BUILDING, SUITE 404",7TH AND CLAYTON STREET,WILMINGTON,DE,19805,3024219177,Profit,Y,N,82511,39.7472496,-75.5917092
82512,FRESENIUS MEDICAL CARE SMYRNA,GATEWAY NORTH SHOPPING CENTER,210 STADIUM STREET - RT 13,SMYRNA,DE,19977,3026595220,Profit,Y,N,82512,39.2998339,-75.6046494
82513,FRESENIUS MEDICAL CARE NEWPORT PIKE,605 WEST NEWPORT PIKE,,WILMINGTON,DE,19804,3026336228,Profit,Y,N,82513,39.7138283,-75.6155874
82514,FRESENIUS MEDICAL CARE MIDDLETOWN,104 SLEEPY HOLLOW DRIVE,,MIDDLETOWN,DE,19709,3024491601,Profit,Y,Y,82514,39.453847,-75.734688
82515,FRESENIUS MEDICAL CARE GREENTREE,"97 COMMERCE WAY, SUITE 104",,DOVER,DE,19904,3026741919,Profit,Y,N,82515,39.2264112,-75.6617449
82516,FRESENIUS MEDICAL CARE NORTH WILMINGTON,4000 WASHINGTON STREET,,WILMINGTON,DE,19802,3027622903,Profit,Y,N,82516,39.763136,-75.524678
82517,LIBERTY DIALYSIS SERVICES OF WILMINGTON,913 DELAWARE AVENUE,,WILMINGTON,DE,19806,3024290142,Non-Profit,Y,N,82517,39.7517538,-75.5554547
82518,LIBERTY DIALYSIS - SEAFORD,600 HEALTH SERVICES DRIVE,,SEAFORD,DE,19973,3022620852,Profit,Y,Y,82518,38.6412256,-75.6110381
83300,ALFRED I. DUPONT HOSPITAL FOR CHILDREN DIALYSIS CENTER,1600 ROCKLAND ROAD,,WILMINGTON,DE,19899,3026515374,Non-Profit,Y,Y,83300,39.782215,-75.555435
90003,HOWARD UNIVERSITY HOSPITAL,RENAL DIALYSIS UNIT,2041 GEORGIA AVE NW,WASHINGTON,DC,20060,2028657365,Non-Profit,Y,Y,90003,38.9178393,-77.0218267
90004,GEORGETOWN UNIVERSITY HOSPITAL,RENAL DIALYSIS UNIT,3800 RESERVOIR RD NW 2ND MAIN,WASHINGTON,DC,20007,2024443664,Non-Profit,Y,N,90004,38.9156487,-77.0737149
90011,WASHINGTON HOSPITAL CENTER,SECTION OF NEPHROLOGY,110 IRVING ST NW   RM 2A70,WASHINGTON,DC,20010,2028775645,Non-Profit,Y,Y,90011,38.9332562,-77.024781
92501,BMA - DUPONT CIRCLE,11 DUPONT CIR NW,STE LL100,WASHINGTON,DC,20036,2024830176,Profit,Y,N,92501,38.9100901,-77.0427221
92503,BMA - COLUMBIA HEIGHTS,106 IRVING ST NW,STE 1400,WASHINGTON,DC,20010,2028290060,Profit,Y,Y,92503,38.928935,-77.013602
92505,GREATER SOUTHEAST COMMUNITY DIALYSIS CENTER,1350 SOUTHERN AVE SE,,WASHINGTON,DC,20032,2025610828,Profit,Y,N,92505,38.836265,-76.983256
92508,FMC - ANACOSTIA,3929 MINNESOTA AVE NE,,WASHINGTON,DC,20019,2023972700,Profit,Y,N,92508,38.8944062,-76.9496671
92510,DAVITA - LEE STREET DIALYSIS,5155 LEE ST NE,,WASHINGTON,DC,20019,2023981047,Profit,Y,N,92510,38.9046172,-76.9249575
92513,DAVITA - EIGHTH STREET,300 8TH ST NE,,WASHINGTON,DC,20002,2025439105,Profit,Y,N,92513,38.894043,-76.9953419
92515,BMA - NORTHEAST WASHINGTON,817 VARNUM ST NE,,WASHINGTON,DC,20017,2028324481,Profit,Y,N,92515,38.9425073,-76.994598
92516,TOTAL RENAL CARE - GEORGETOWN,3223 K ST NW,STE 110,WASHINGTON,DC,20007,2023335211,Profit,Y,N,92516,38.9025944,-77.0627544
