PROVNUM,FACNAME,PHYADDR1,PHYADDR2,PHYCITY,PHYSTATE,PHYZIP,PHONENUM,OWNTYPE,In-center Hemo,in-center PD,ref_id,Lat,Lon
182537,DSI- LOUISVILLE,635 SOUTH 3RD STREET,,LOUISVILLE,KY,40202,5025611314,Profit,Y,N,182537,38.2473472,-85.7564468
182538,EASTERN KENTUCKY DIALYSIS,167  WEDDINGTON BRANCH ROAD,,PIKEVILLE,KY,41501,6064324477,Profit,Y,N,182538,37.5280673,-82.5624969
182540,FMC - PIKEVILLE,146 ADAMS LANE,,PIKEVILLE,KY,41501,6064321707,Profit,Y,Y,182540,37.4851854,-82.5463355
182541,DCI - MAYSVILLE,1210 POPE DRIVE,,MAYSVILLE,KY,41056,6067597689,Non-Profit,Y,Y,182541,38.6400316,-83.8161593
182542,DAVITA - SOUTH HILL DIALYSIS,525 ALEXANDRIA PIKE SUITE 120,,SOUTHGATE,KY,41071,8594425539,Profit,Y,N,182542,39.0643559,-84.462525
182543,FMC - SOUTHWEST,9616 DIXIE HWY.,,VALLEY STATION,KY,40272,5029372996,Profit,Y,N,182543,38.116613,-85.8605
182544,GARDENSIDE DIALYSIS,70 N GARDENMILE ROAD,,HENDERSON,KY,42420,2708300050,Profit,Y,N,182544,37.8230753,-87.5591066
182547,DAVITA - OWENSBORO DIALYSIS CENTER,1930 EAST PARRISH AVENUE,,OWENSBORO,KY,42303,2709260120,Profit,Y,Y,182547,37.764223,-87.082697
182548,DAVITA - PAINTSVILLE DIALYSIS,4750 HIGHWAY 321 SOUTH,,HAGERHILL,KY,41222,6067891101,Profit,Y,N,182548,37.7956379,-82.8064149
182549,CHRISTIAN COUNTY DIALYSIS,200 BURLEY AVE,,HOPKINSVILLE,KY,42240,2707070701,Profit,Y,N,182549,36.8249833,-87.5062898
182550,FMC - DANVILLE,975 HUSTONVILLE RD.  SUITE #1,,DANVILLE,KY,40422,8592362214,Profit,Y,Y,182550,0,0
182551,FMC - KUTTAWA DIALYSIS,"95 LAKESHORE DR., P.O BOX 309",,KUTTAWA,KY,42055,2703880078,Profit,Y,N,182551,37.0511899,-88.1379235
182552,FMC -  DIALYSIS OF PADUCAH,"1532 LONE OAK ROAD, SUITE G15",,PADUCAH,KY,42003,2704430217,Profit,Y,Y,182552,37.0534057,-88.6471472
182553,FMC  - DIALYSIS OF MURRAY,609 SOUTH 12TH STREET,,MURRAY,KY,42071,2707593080,Profit,Y,N,182553,36.5988156,-88.3155434
182554,FMC -  DIALYSIS OF MAYFIELD,1029 MEDICAL CENTER CIRCLE STE 301,,MAYFIELD,KY,42066,2702477291,Profit,Y,N,182554,36.7580863,-88.6523616
182555,FMC - MT. STERLING,75 STERLING WAY,,MOUNT STERLING,KY,40353,8594990630,Profit,N,N,182555,38.0469751,-83.9397683
182556,FMC-  LEXINGTON SOUTH DIALYSIS,171 N  EAGLE CREEK DR  STE 110,,LEXINGTON,KY,40509,8592647775,Profit,Y,N,182556,0,0
182557,KENTUCKY NEPHROLOGY,1101 WINCHESTER RD -  SUITE 200,,LEXINGTON,KY,40505,8592254595,Profit,N,Y,182557,0,0
182558,FMC - KENTUCKY RENAL CARE GROUP - LEXINGTON EAST,"1101 WINCHESTER RD., SUITE 100",,LEXINGTON,KY,40505,8592254922,Profit,Y,N,182558,38.04244,-84.466078
182559,FMC - SOUTH PADUCAH,1061 HUSBAND RD,,PADUCAH,KY,42003,2704425020,Profit,Y,N,182559,0,0
182560,FMC - PAINTSVILLE,620 JEFFERSON AVE,,PAINTSVILLE,KY,41240,6067892278,Non-Profit,Y,N,182560,0,0
182561,CALDWELL COUNTY DIALYSIS,401 S. JEFFERSON STREET,,PRINCETON,KY,42445,2703657588,Profit,Y,N,182561,0,0
182562,FMC - GREENUP,965 TOWNHILL PLAZA,,GREENUP,KY,41144,6064730410,Profit,Y,N,182562,38.573,-82.829066
182563,FMC - LEXINGTON NORTH,"1610  LEESTOWN RD., SUITE 180",,LEXINGTON,KY,40511,8592540671,Profit,Y,N,182563,38.066144,-84.527543
182564,LONDON DIALYSIS CLINIC,775 N LAUREL RD,,LONDON,KY,40741,6068628888,Profit,Y,N,182564,37.1702681,-84.1229589
182565,FMC - NA HARLAN,136 VILLAGE CENTER RD,,HARLAN,KY,40831,6065740005,Profit,Y,Y,182565,36.8431441,-83.321848
182566,DAVITA - WHITESBURG DIALYSIS,"222 HOSPITAL ROAD STE, D",,WHITESBURG,KY,41858,6066333232,Profit,Y,N,182566,37.1148054,-82.8106386
182567,FMC-SOUTH CENTRAL LOUISVILLE,"8319 PRESTON HIGHWAY SUITE C,D,E",,LOUISVILLE,KY,40219,5029682225,Profit,Y,N,182567,38.1314009,-85.681537
182568,BARDSTOWN DIALYSIS,210 W JOHN FITCH AVENUE,,BARDSTOWN,KY,40004,5023501130,Profit,Y,N,182568,37.8081903,-85.4691706
182569,FMC - NALCO HOME PROGRAM,"1591 WINCHESTER RD.,  STE 102",,LEXINGTON,KY,40505,8592993379,Profit,N,Y,182569,38.043486,-84.450382
182570,DAVITA - LOUISVILLE DIALYSIS,8037 DIXIE HIGHWAY,,LOUISVILLE,KY,40258,5029379111,Profit,Y,Y,182570,38.133583,-85.84505
182571,FMC OF CYNTHIANA,994 US HWY 27 SO. SUITE 6,,CYNTHIANA,KY,41031,8592350542,Profit,Y,Y,182571,38.3951843,-84.2967282
182572,DAVITA - LAGRANGE DIALYSIS CENTER,240 PARKER DRIVE,,LA GRANGE,KY,40031,5022225527,Profit,Y,N,182572,38.4018016,-85.3784717
182573,FMC OF JACKSON,1550  US HIGHWAY 15 SOUTH,,JACKSON,KY,41339,6066934770,Profit,Y,N,182573,37.5642811,-83.3996406
182574,LEITCHFIELD DIALYSIS,"912 WALLACE AVE.,  SUITE 106",,LEITCHFIELD,KY,42754,2702300153,Profit,Y,N,182574,37.4730493,-86.2868321
182575,FMC - DIALYSIS SERVICES OF OLDHAM COUNTY,"2100 BUTTON LANE, SUITE 105",,LA GRANGE,KY,40031,5022256223,Profit,Y,N,182575,38.3982284,-85.4022153
182576,FMC - BARDSTOWN,"317 KENTUCKY HOME SQUARE, SUITE 3",,BARDSTOWN,KY,40004,5023483996,Profit,Y,N,182576,37.8060569,-85.4555319
182577,DAVITA - SPRINGHURST DIALYSIS CENTER,10201 CHAMPION FARMS DR,,LOUISVILLE,KY,40241,5024252131,Profit,Y,N,182577,38.2962015,-85.5630303
182578,FMC - NA OF GRAYSON,286 STATE HIGHWAY 1947,,GRAYSON,KY,41143,6064740475,Profit,Y,N,182578,38.3452121,-82.9644893
182580,LOUISA - FORT GAY REGIONAL DIALYSIS,2145 HIGHWAY 2565,,LOUISA,KY,41230,6066383403,Profit,Y,Y,182580,38.0949802,-82.6134459
182581,WEST BROADWAY DIALYSIS,720 WEST BROADWAY,,LOUISVILLE,KY,40202,5025842059,Profit,Y,Y,182581,38.2465742,-85.7644712
182582,TURFWAY DIALYSIS,"11 SPIRAL DRIVE, SUITE 15A",,FLORENCE,KY,41042,8593711263,Profit,Y,N,182582,39.019086,-84.640559
182583,COLD SPRING DIALYSIS,430 CROSSROADS BLVD,,COLD SPRING,KY,41076,8594413981,Profit,Y,N,182583,39.004115,-84.417303
182584,FMC - FRANKFORT,608 CHAMBERLIN AVE.,,FRANKFORT,KY,40601,5026070731,Profit,Y,N,182584,38.158918,-84.9165536
182586,TURFWAY PD TRAINING,"11 SPIRAL DRIVE, SUITE 15A",,FLORENCE,KY,41042,8596472802,Profit,N,Y,182586,39.019086,-84.640559
182587,GEORGETOWN DIALYSIS CLINIC,98 MARY LYNN DRIVE,,GEORGETOWN,KY,40324,5028673855,Profit,Y,Y,182587,38.1813168,-84.5588133
182588,FMC - NICHOLASVILLE DIALYSIS,115 ORCHARD PLACE DR.,,NICHOLASVILLE,KY,40356,8598810332,Profit,Y,N,182588,37.8806341,-84.5729961
182589,DAVITA - MAYSVILLE,489 TUCKER DRIVE,,MAYSVILLE,KY,41056,6067590923,Profit,Y,Y,182589,38.6249144,-83.7943547
182590,FMC OF NORTHEAST LOUISVILLE,3701 CHAMBERLAIN LANE,,LOUISVILLE,KY,40241,5023271144,Profit,Y,N,182590,38.301631,-85.545121
182591,FMC - BOONE COUNTY,7205 DIXIE HIGHWAY,,FLORENCE,KY,41042,8595251060,Profit,Y,Y,182591,38.9983354,-84.6263724
182592,DAVITA - MEADOWS EAST,"2529 SIX MILE LANE, SUITE B",,LOUISVILLE,KY,40220,5024994384,Profit,Y,N,182592,38.2105858,-85.587217
182593,RAI - BARBOURVILLE HOME THERAPY CTR.,"315 HOSPITAL DR., SUITE 3,  KNOX PROFESSIONAL PARK.",,BARBOURVILLE,KY,40906,6065456600,Profit,N,Y,182593,36.8664765,-83.8888138
182594,FMS - MADISONVILLE DIALYSIS,1020 WATERFALL COURT,,MADISONVILLE,KY,42431,2708253792,Profit,Y,Y,182594,37.3281005,-87.4988882
182595,WILLIAMSTOWN DIALYSIS,"103 BARNES ROAD, STE. A",,WILLIAMSTOWN,KY,41097,8598230500,Profit,Y,N,182595,38.6520522,-84.5728496
182596,FMC - LEBANON MARION COUNTY,"703 EAST MAIN STREET, SUITE 2",,LEBANON,KY,40033,2706921558,Profit,Y,N,182596,37.5757492,-85.2330177
182597,MADISONVILLE DIALYSIS CENTER,"435 N. KENTUCKY AVE., SUITE B",,MADISONVILLE,KY,42431,2708217836,Profit,Y,N,182597,37.334019,-87.4927716
182598,SOUTH WILLIAMSON DIALYSIS,204 APPALACHIAN PLAZA,,SOUTH WILLIAMSON,KY,41503,6062376221,Profit,Y,Y,182598,37.6658973,-82.2744504
182599,FMC - OF HARDIN COUNTY,"1324 WOODLAND DRIVE, STE B",,ELIZABETHTOWN,KY,42701,2707630396,Profit,Y,N,182599,37.7261295,-85.8854129
182600,SHEPHERDSVILLE DIALYSIS,"150 BROOKS WAY, SUITE 15",,BROOKS,KY,40109,5029552153,Profit,Y,N,182600,38.0628487,-85.7271705
182601,DAVITA - HAMBURG DIALYSIS,"1745 ALYSHEBA WAY, SUITE 110",,LEXINGTON,KY,40509,8595430084,Profit,Y,Y,182601,38.015487,-84.424626
182602,FMC - WINCHESTER,1145 W. LEXINGTON AVE.,,WINCHESTER,KY,40391,8597440750,Profit,Y,Y,182602,38.0001963,-84.1973318
182603,BOURBON COUNTY DIALYSIS,213 LETTON DRIVE,,PARIS,KY,40361,8599881117,Profit,Y,N,182603,38.2097987,-84.2529869
182604,DAVITA - 12TH ST. COVINGTON DIALYSIS,"1500 JAMES SIMPSON JR. WAY, STE. 1100",,COVINGTON,KY,41011,8592614345,Profit,Y,N,182604,39.0749158,-84.5177458
182605,FMC - SHEPHERDSVILLE,421 ADAM SHEPHERD PARKWAY,,SHEPHERDSVILLE,KY,40165,5029210977,Profit,Y,Y,182605,37.9943171,-85.7117146
182606,DAVITA - VERSAILLES DIALYSIS,"480 LEXINGTON ROAD STE, E",,VERSAILLES,KY,40383,8592560110,Profit,Y,N,182606,38.0510265,-84.7163634
182607,FMC  OF CAMPBELLSVILLE,107 MEDICAL PARK DRIVE,,CAMPBELLSVILLE,KY,42718,2704690923,Profit,Y,Y,182607,37.3648048,-85.3415311
182608,FMC - TRIGG COUNTY,2484 MAIN STREET,,CADIZ,KY,42211,2705220170,Profit,Y,N,182608,36.8668585,-87.7971703
182609,FMC - CENTRAL ASHLAND,424 RIVER HILL DRIVE,,ASHLAND,KY,41101,6063290363,Profit,Y,Y,182609,38.4856929,-82.6607344
190048,LADY OF THE SEA DIALYSIS CTR,17108 W MAIN ST,,CUT OFF,LA,70345,9856324900,Profit,Y,N,190048,29.4496892,-90.3039414
190111,WILLIS KNIGHTON MED CTR-DIALYSIS,2600 GREENWOOD RD,,SHREVEPORT,LA,71103,3182124849,Non-Profit,Y,N,190111,32.4839363,-93.7788456
192501,FMCNA - BATON ROUGE,524 COLONIAL DR,,BATON ROUGE,LA,70806,2259273311,Profit,Y,N,192501,30.4462408,-91.0985526
192503,FMCNA - ALEXANDRIA,225 N BOLTON AVE,,ALEXANDRIA,LA,71301,3184871063,Profit,Y,Y,192503,31.312883,-92.465741
192504,FMCNA - WEST LAFAYETTE,2804 AMBASSADOR CAFFERY PKWY,,LAFAYETTE,LA,70506,3379847299,Profit,Y,Y,192504,30.199415,-92.0784089
192505,FMCNA - FLORIDA PARISH KIDNEY CTR,16081 DOCTORS BLVD STE A,,HAMMOND,LA,70403,9853455621,Profit,Y,Y,192505,30.5043583,-90.4611995
192507,DAVITA - WESTBANK CHRONIC RENAL CTR,3631 BEHRMAN PL,,NEW ORLEANS,LA,70114,5043660808,Profit,Y,Y,192507,29.9176566,-90.0176226
192509,DSI - HOUMA,108 PICONE RD,,HOUMA,LA,70363,9858688187,Profit,Y,Y,192509,29.5682073,-90.6864928
192510,FMCNA - NORTHEAST LOUISIANA DIALYSIS CTR,711 WOOD ST STE B,,MONROE,LA,71201,3183227565,Profit,Y,Y,192510,32.5027199,-92.110503
192511,FMCNA - METAIRIE,4425 UTICA ST,,METAIRIE,LA,70006,5044555535,Profit,Y,Y,192511,29.9998885,-90.1814026
192512,FMCNA - SHREVEPORT REGIONAL,1800 BUCKNER ST STE A100,,SHREVEPORT,LA,71101,3182279765,Profit,Y,Y,192512,32.4929814,-93.7537114
192515,CHALMETTE DIALYSIS CTR,4020 PARIS RD,,CHALMETTE,LA,70043,5042778423,Profit,Y,N,192515,29.9587573,-89.9556792
192516,FMCNA - NEW ORLEANS-FERNCREST,14500 HAYNE BLVD STE 100,,NEW ORLEANS,LA,70128,5042487136,Profit,Y,N,192516,30.0723404,-89.9479083
192518,FMCNA - OPELOUSAS,528 E VINE ST,,OPELOUSAS,LA,70570,3379481550,Profit,Y,Y,192518,30.5314236,-92.0784324
192521,FMCNA - MARRERO,1111 MEDICAL CTR BLVD STE S150,,MARRERO,LA,70072,5043481845,Profit,Y,Y,192521,29.8930442,-90.0959943
192522,FMCNA - NEW IBERIA,609 RUE DE BRILLE,,NEW IBERIA,LA,70563,3373641185,Profit,Y,Y,192522,30.00857,-91.792092
192523,DAVITA - FLEUR DE LIS,"5555 BULLARD AVE, STE 110",,NEW ORLEANS,LA,70128,5042402696,Profit,Y,Y,192523,30.038114,-89.9532909
192524,FMCNA - MANCUSO,"4848 MANCUSO LN, STE A",,BATON ROUGE,LA,70809,2257666773,Profit,Y,Y,192524,30.399151,-91.1006902
192525,FMCNA - NATCHITOCHES DX,700 KEYSER AVE,,NATCHITOCHES,LA,71457,3183521960,Profit,Y,N,192525,0,0
192530,FMCNA - DIALYSIS CTR OF SHREVEPORT,3949 SOUTHERN AVE,,SHREVEPORT,LA,71106,3188693016,Profit,Y,N,192530,0,0
192531,FMCNA - OCHSNER NEW ORLEANS,1319 JEFFERSON HWY-FLOOR 2,,NEW ORLEANS,LA,70121,5048423520,Profit,Y,Y,192531,29.9625995,-90.1429336
192532,FMCNA - BOSSIER REGIONAL DX CTR,2907 PLANTATION DR,,BOSSIER CITY,LA,71111,3187468440,Profit,Y,N,192532,32.5407,-93.706721
192533,BIENVILLE DIALYSIS CTR NORTH,3333 BIENVILLE STE 1B-C,,NEW ORLEANS,LA,70119,5048226336,Profit,Y,N,192533,29.97163,-90.091904
192534,DVA RENAL HEALTHCARE - CHATEAU DIALYSIS,720 VILLAGE RD,,KENNER,LA,70065,5044692796,Profit,Y,Y,192534,30.0235458,-90.2578929
192538,FMCNA - CROWLEY,625 E 8TH ST,,CROWLEY,LA,70526,3377830013,Profit,Y,N,192538,30.220129,-92.369079
192539,FMCNA - NORTH BATON ROUGE-AIRPORT,12230 PLANK RD,,BATON ROUGE,LA,70811,2257744164,Profit,Y,N,192539,30.5573617,-91.1336142
192540,DAVITA - BOGALUSA KIDNEY CARE,2108 S AVE F,,BOGALUSA,LA,70427,9857357811,Profit,Y,N,192540,30.7506077,-89.8742307
192541,FMCNA - MINDEN DIALYSIS,610 FLEMING LN,,MINDEN,LA,71055,3183711532,Profit,Y,N,192541,32.6215411,-93.2612559
192543,LAPLACE DIALYSIS CTR,2700 AIRLINE HWY WEST,,LA PLACE,LA,70068,9855367860,Profit,Y,Y,192543,30.0769466,-90.5198808
192544,FMCNA - PONTCHARTRAIN KIDNEY CTR,170 GREENBRIAR DR STE A,,COVINGTON,LA,70433,9858937265,Profit,Y,N,192544,30.4240674,-90.1151684
192548,MORGAN CITY DIALYSIS CTR,1224 DAVID DR,,MORGAN CITY,LA,70380,9853854213,Profit,Y,N,192548,29.7083565,-91.1984562
192551,DVA RENAL HEALTHCARE - MAGNOLIA DIALYSIS,210 E SPILLMAN RD,,GONZALES,LA,70737,2256471195,Profit,Y,N,192551,30.216698,-90.919301
192552,FMCNA - HOUMA,800 POINT ST,,HOUMA,LA,70360,9858680989,Profit,Y,Y,192552,29.5922925,-90.7186138
192555,FMCNA - BUNKIE,102 STANDARD ST,,BUNKIE,LA,71322,3183466348,Profit,Y,N,192555,30.9516842,-92.1748528
192556,DAVITA - SLIDELL KIDNEY CARE,1150 ROBERT BLVD STE 240,,SLIDELL,LA,70458,9856437476,Profit,Y,Y,192556,30.286946,-89.770107
192557,FMCNA - AMITE,110 N FIRST ST,,AMITE,LA,70422,9857488155,Profit,Y,N,192557,30.727373,-90.510579
192558,FMCNA - FOSTER DR DIALYSIS SVCS,1919 N FOSTER DR,,BATON ROUGE,LA,70806,2253541611,Profit,Y,N,192558,30.4662527,-91.1397426
192560,FMCNA - ABBEVILLE,904 N JOHN HARDY DR,,ABBEVILLE,LA,70510,3378937577,Profit,Y,N,192560,29.9788856,-92.1126382
192562,FMCNA - NORTH SHREVEPORT DIALYSIS,990 AERO DR,,SHREVEPORT,LA,71107,3184257371,Profit,Y,N,192562,32.5290475,-93.7775697
192563,FMCNA - FERRIDAY,1618 EE WALLACE BLVD,,FERRIDAY,LA,71334,3187578319,Profit,Y,N,192563,31.6376663,-91.5540094
192564,FMCNA - DELHI DIALYSIS CTR,307 DETROIT ST,,DELHI,LA,71232,3188789072,Profit,Y,N,192564,32.4541028,-91.4952101
192565,FMCNA - QUALITY CARE DIALYSIS-HAMMOND,1204 S MORRISON BLVD STE A,,HAMMOND,LA,70403,9853450544,Profit,Y,Y,192565,30.4880346,-90.482776
192566,FMCNA - EUNICE,1101 NILE ST,,EUNICE,LA,70535,3375506585,Profit,Y,N,192566,30.4977043,-92.4027869
192568,FMCNA - WESTPORT,2500 COMMERCIAL DR,,PORT ALLEN,LA,70767,2253435753,Profit,Y,N,192568,30.4483087,-91.2371389
192572,DVA RENAL HEALTHCARE - DONALDSONVILLE DIALYSIS,101 PLIMSOL DR,,DONALDSONVILLE,LA,70346,2254731139,Profit,Y,Y,192572,30.0877044,-91.0028328
192573,FMCNA - DELTA,104 RAILROAD AVE,,DELTA,LA,71233,3186339662,Profit,Y,Y,192573,32.3396326,-90.888921
192574,FMCNA - THIBODAUX,694 S ACADIA RD,,THIBODAUX,LA,70301,9854483540,Profit,Y,Y,192574,29.7820977,-90.8083427
192575,DCI - TULANE-NEW ORLEANS,TULANE UNIVERSITY,1415 TULANE AVE - 7TH FLOOR,NEW ORLEANS,LA,70112,5049886418,Non-Profit,Y,N,192575,29.9550368,-90.0769365
192577,FMCNA - PINEVILLE,151 SANDIFER LN,,PINEVILLE,LA,71360,3184437131,Profit,Y,N,192577,31.3353556,-92.3767232
192578,RACELAND DIALYSIS CTR,4601 HIGHWAY 1,,RACELAND,LA,70394,9855376962,Profit,Y,N,192578,29.702644,-90.5630884
192579,FMCNA - SOUTHWEST SHREVEPORT,9076 KINGSTON RD,,SHREVEPORT,LA,71118,3186833296,Profit,Y,N,192579,32.4020458,-93.780431
192580,FMCNA - NORTH LAFAYETTE,910 MARTIN LUTHER KING DR,,LAFAYETTE,LA,70501,3372340084,Profit,Y,N,192580,30.248232,-92.019298
192581,DVA RENAL HEALTHCARE - NEW ORLEANS UPTOWN DIALYSIS,1401 FOUCHER ST 4TH FL-DIALYSIS UNIT,,NEW ORLEANS,LA,70115,5048978530,Profit,Y,Y,192581,29.921975,-90.098043
192582,FMCNA - OUACHITA DIALYSIS,102 THOMAS RD STE 306,,WEST MONROE,LA,71291,3183872747,Profit,Y,N,192582,32.513993,-92.158075
192584,DCI-WESTBANK-GRETNA,1010 BEHRMAN HWY,,GRETNA,LA,70056,5043919572,Non-Profit,Y,Y,192584,29.8828142,-90.0204197
192586,DCI - SHREVEPORT,1322 KINGS HWY,,SHREVEPORT,LA,71103,3182261020,Non-Profit,Y,Y,192586,32.4819346,-93.7577546
192587,FMCNA - FRANKLIN,1604 CYNTHIA ST,,FRANKLIN,LA,70538,3378284747,Profit,Y,N,192587,29.8061059,-91.4979364
192588,LAKE CHARLES DIALYSIS CTR,1801 OAK PARK BLVD,,LAKE CHARLES,LA,70601,3374789585,Profit,Y,Y,192588,30.203793,-93.195577
192589,FMCNA - PICARDY KIDNEY CTR,7638 PICARDY AVE STE A,,BATON ROUGE,LA,70808,2257665600,Profit,Y,N,192589,30.3993592,-91.1098346
192592,FMCNA - ZACHARY CROSSROAD,4709 SECRETARY DR,,ZACHARY,LA,70791,2256541450,Profit,Y,N,192592,30.6485174,-91.1413864
192593,VACHERIE DX - DBA  NAPOLEONVILLE DX,"4781 HWY 1, STE A",,NAPOLEONVILLE,LA,70390,9853694650,Profit,Y,N,192593,29.9621065,-91.028051
192597,DVA RENAL HEALTHCARE - LAKE CHARLES SOUTHWEST DIALYSIS,433 DR MICHAEL DEBAKEY DRIVE,,LAKE CHARLES,LA,70601,3374941330,Profit,Y,Y,192597,30.2158012,-93.2264698
192598,DVA RENAL HEALTHCARE - DERIDDER DIALYSIS,239 E FIRST ST,,DERIDDER,LA,70634,3374620950,Profit,Y,N,192598,30.8466498,-93.2827846
192599,DAVITA - KENNER REG DIALYSIS,200 W ESPLANADE STE 100,,KENNER,LA,70065,5044710931,Profit,Y,N,192599,30.022946,-90.2711803
192601,FMCNA - WINNFIELD,601 W COURT ST,,WINNFIELD,LA,71483,3186481222,Profit,Y,N,192601,31.9257602,-92.6464436
192602,FMCNA - NEW ROADS,107 FAIRFIELD AVE,,NEW ROADS,LA,70760,2256387395,Profit,Y,N,192602,30.6795908,-91.4686408
192603,FMCNA - JENNINGS,1906 JOHNSON ST,,JENNINGS,LA,70546,3378245353,Profit,Y,N,192603,30.2392551,-92.6613246
192604,FMCNA - WINNSBORO,3982 FRONT ST,,WINNSBORO,LA,71295,3184353511,Profit,Y,N,192604,32.1595989,-91.7171903
192605,FMCNA - DESOTO DIALYSIS,1410 MCARTHUR DR,,MANSFIELD,LA,71052,3188718700,Profit,Y,N,192605,32.0388583,-93.6896434
192606,FMCNA - PLAQUEMINE,24660 PLAZA DR,,PLAQUEMINE,LA,70764,2256879100,Profit,Y,N,192606,30.2648015,-91.2492583
192608,DAVITA - MEMORIAL DIALYSIS,4427 S ROBERTSON ST - 2ND FLOOR,,NEW ORLEANS,LA,70115,5048991103,Profit,Y,N,192608,29.9362608,-90.104062
192609,FMCNA - OAK GROVE,711 E JEFFERSON DR,,OAK GROVE,LA,71263,3184281385,Profit,Y,N,192609,32.8609199,-91.4022357
192610,FMCNA - AIRLINE,5948 AIRLINE HWY,,BATON ROUGE,LA,70805,2253579055,Profit,Y,N,192610,30.5015348,-91.1307438
192611,FMCNA - EAST NATCHITOCHES DIALYSIS,111 MASONIC DR,,NATCHITOCHES,LA,71457,3183541170,Profit,Y,N,192611,31.7541032,-93.057502
192612,DVA RENAL HEALTHCARE - SULPHUR,944 S BEGLIS PKWAY,,SULPHUR,LA,70663,3376260774,Profit,Y,N,192612,30.246383,-93.3593692
192613,DAVITA - DIALYSIS SYSTEMS OF COVINGTON,210 GREENBRIAR BLVD,,COVINGTON,LA,70433,9858751915,Profit,Y,Y,192613,30.45729,-90.1372839
192614,FMCNA - SOUTH ALEXANDRIA,1915 BEATRICE ST,,ALEXANDRIA,LA,71301,3184878333,Profit,Y,N,192614,31.287261,-92.455888
192615,DAVITA - WASHINGTON PARISH DIALYSIS,724 WASHINGTON ST,,FRANKLINTON,LA,70438,9857951111,Profit,Y,N,192615,30.8441987,-90.1603967
192616,DSI - BATON ROUGE,1333 ONEAL LN,,BATON ROUGE,LA,70816,2252261444,Profit,Y,N,192616,30.4505759,-91.0079037
192617,DCI-EUNICE,2440 W LAUREL AVE,,EUNICE,LA,70535,3374570005,Non-Profit,Y,N,192617,30.4950331,-92.4419108
192618,FMCNA - VILLE PLATTE,616 JACK MILLER RD,,VILLE PLATTE,LA,70586,3373631275,Profit,Y,N,192618,30.6789342,-92.2652111
192623,FMCNA - CALDWELL PARISH,7720 HWY 165 STE 3,,COLUMBIA,LA,71418,3186492113,Profit,Y,N,192623,32.0851895,-92.0911764
192625,DCI - NEW ORLEANS EAST,5571 READ BLVD,,NEW ORLEANS,LA,70128,5042423770,Non-Profit,Y,N,192625,30.030195,-89.970523
192626,DAVITA - DIALYSIS SYSTEMS OF HAMMOND,15799 PROFESSIONAL PLAZA,,HAMMOND,LA,70403,9855428827,Profit,Y,Y,192626,30.4741586,-90.4606495
192627,FMCNA - NORTH MONROE,2344 STERLINGTON RD,,MONROE,LA,71203,3186990001,Profit,Y,N,192627,32.545348,-92.076527
192628,FMCNA - UNION PARISH DX,1012 STERLINGTON HWY,,FARMERVILLE,LA,71241,3183681071,Profit,Y,N,192628,32.7686042,-92.3835626
192630,FMCNA - LINCOLN KIDNEY CTR,219 MILLS AVE,,RUSTON,LA,71270,3182513730,Profit,Y,N,192630,32.5196454,-92.637203
192631,FMCNA - SOUTH SHREVEPORT,410 ASHLEY RIDGE BLVD,,SHREVEPORT,LA,71106,3188688320,Profit,Y,N,192631,32.418193,-93.7349579
192632,FMCNA - NORTH BOULEVARD,2661 NORTH BLVD,,BATON ROUGE,LA,70806,2253875777,Profit,Y,N,192632,30.4480436,-91.1611956
192633,FMCNA - FARMERVILLE,108 HILL ST,,FARMERVILLE,LA,71241,3183683337,Profit,Y,N,192633,32.7706914,-92.4061152
192635,FMCNA - MONROE,1501 SOUTHERN AVE,,MONROE,LA,71202,3183984181,Profit,Y,N,192635,32.491875,-92.081103
192636,KIDNEY CARE OF ACADIANA-NEW IBERIA,902-A S LEWIS AVE,,NEW IBERIA,LA,70560,3373673995,Profit,Y,N,192636,29.988647,-91.817328
192637,FMCNA - DIALYSIS SERVICES AVONDALE,141 S JAMIE BLVD,,AVONDALE,LA,70094,5043427773,Profit,Y,N,192637,29.909144,-90.203335
192638,FMCNA - EAST MINDEN,10000 INDUSTRIAL RD,,MINDEN,LA,71055,3183719400,Profit,Y,N,192638,32.585422,-93.2620139
192640,FMCNA - KENTWOOD,916 AVENUE G,,KENTWOOD,LA,70444,9852298018,Profit,Y,N,192640,30.9366985,-90.5212639
192641,FMCNA - COUSHATTA,501 WILKINSON ST,,COUSHATTA,LA,71019,3189325378,Profit,Y,N,192641,32.0148834,-93.3421165
192643,FMCNA - BREAUX BRIDGE,100 CHAMPAGNE BLVD BLDG A,,BREAUX BRIDGE,LA,70517,3373326813,Profit,Y,N,192643,30.281628,-91.889214
192644,FMCNA - ASCENSION,17392 VALLEE CT,,PRAIRIEVILLE,LA,70769,2256220685,Profit,Y,N,192644,30.324307,-90.919237
192649,FMCNA - SUNSET,115 ACORN ST,,SUNSET,LA,70584,3376623702,Profit,Y,N,192649,30.4108322,-92.0576589
192650,DCI - EAST SHREVEPORT,102 ARDMORE AVE,,SHREVEPORT,LA,71105,3188615051,Non-Profit,Y,Y,192650,32.47823,-93.718473
192651,KIDNEY CARE OF ACADIANA-LAFAYETTE,224 ST LANDRY  STE 3C,,LAFAYETTE,LA,70506,3372315511,Profit,Y,N,192651,30.219197,-92.025617
192652,FMCNA - FELICIANAS DIALYSIS CTR,2995 RACE ST,,JACKSON,LA,70748,2256342733,Profit,Y,N,192652,30.8364283,-91.2188324
192653,FMCNA - OCHSNER-ST CHARLES,150 JAMES DR EAST  STE 110,,SAINT ROSE,LA,70087,5047125454,Profit,Y,N,192653,29.9807179,-90.2818058
192656,DCI - CROWLEY,1325 WRIGHT AVE  STE B,,CROWLEY,LA,70526,3377881990,Non-Profit,Y,N,192656,30.226806,-92.365356
192657,FMCNA - DIALYSIS SERVICES-MAMOU,801 POINCIANA AVE,,MAMOU,LA,70554,3374682245,Profit,Y,N,192657,30.6410842,-92.418416
192658,FMCNA - WEST SHREVEPORT,4338 PINES RD,,SHREVEPORT,LA,71119,3186210750,Profit,Y,N,192658,32.4594949,-93.866095
192659,FMCNA - LEESVILLE DIALYSIS,900 N FIFTH ST  STE #5,,LEESVILLE,LA,71446,3373925122,Profit,Y,Y,192659,0,0
192660,FMCNA - FRANKLINTON,806 B RIVERSIDE DR,,FRANKLINTON,LA,70438,9857954134,Profit,Y,Y,192660,30.8331546,-90.1535587
192663,FMCNA - HOMER,3680 HWY 79,,HOMER,LA,71040,3189278987,Profit,Y,N,192663,32.7664556,-93.0749301
192665,DCI-OPELOUSAS,927 E PRUDHOMME ST,,OPELOUSAS,LA,70570,3375948535,Profit,Y,Y,192665,30.5427829,-92.0703541
192666,DAVITA - SOUTHEAST- NORTHSHORE KIDNEY CTR,106 MEDICAL CENTER DR STE 101,,SLIDELL,LA,70461,9856906018,Profit,Y,N,192666,30.2878277,-89.7443137
192669,DCI - NORTH SHREVEPORT,1515 N HEARNE AVE,,SHREVEPORT,LA,71107,3182207012,Non-Profit,Y,N,192669,32.5373477,-93.7696392
192670,FMCNA - OCHSNER WESTBANK,4899 WESTBANK EXPWY  STE B,,MARRERO,LA,70072,5043408577,Profit,Y,N,192670,29.8943123,-90.0989005
192671,FMCNA - DIALYSIS SERVICES OF BON CARRE,7656 REALTORS AVE,,BATON ROUGE,LA,70806,2252160388,Profit,Y,N,192671,30.455979,-91.1111833
192672,FMCNA - MORGAN CITY,7552-A HWY 182 EAST,,MORGAN CITY,LA,70380,9853853338,Profit,Y,N,192672,29.6934565,-91.179446
192674,RENAL SOUTH OF ST TAMMANY,397 HWY 21 STE 602,,MADISONVILLE,LA,70447,9857925334,Profit,Y,Y,192674,30.409142,-90.1597045
192676,FMCNA - MOREHOUSE PARISH DIALYSIS,530 DURHAM ST,,BASTROP,LA,71220,3182813725,Profit,Y,N,192676,32.7731006,-91.9179786
192677,FMCNA - RICHLAND PARISH,230 HWY 3048,,RAYVILLE,LA,71269,3187289801,Profit,Y,N,192677,32.4696128,-91.7505051
192678,DAVITA - METAIRIE,7100 AIRLINE DR,,METAIRIE,LA,70003,5047311969,Profit,Y,N,192678,29.9778246,-90.2131642
192680,DAVITA - BATON ROUGE RENAL CTR,3888 NORTH BLVD,,BATON ROUGE,LA,70806,2253889045,Profit,Y,Y,192680,30.4483564,-91.1495896
192681,DAVITA - RIVER PARISHES DIALYSIS,2880 W AIRLINE HWY,,LA PLACE,LA,70068,9854797505,Profit,Y,Y,192681,30.0777056,-90.5280904
192682,METAIRIE KIDNEY CTR,4424 CONLIN ST STE 1A,,METAIRIE,LA,70006,5048878319,Profit,Y,N,192682,30.0176241,-90.1976654
192683,DAVITA - OAKWOOD DIALYSIS,148 HECTOR AVE,,GRETNA,LA,70056,5043761603,Profit,Y,N,192683,29.9178815,-90.0412573
192684,DAVITA - DENHAM SPRINGS,26737 HIGHWAY 1032,,DENHAM SPRINGS,LA,70726,2256642059,Profit,Y,N,192684,30.4545165,-90.9700627
192685,FMCNA - EAST LAFAYETTE,1340 SURREY,,LAFAYETTE,LA,70501,3372641265,Profit,Y,N,192685,30.221885,-91.996009
192686,FMCNA - MANY,100 DEVERA DR,,MANY,LA,71449,3182563122,Profit,Y,N,192686,31.5477875,-93.4606319
192687,DCI - JENNINGS,1322 ELTON RD STE C,,JENNINGS,LA,70546,3376168232,Non-Profit,Y,N,192687,30.2339671,-92.6633917
192688,FMCNA - RUSTON,760 S FARMERVILLE,,RUSTON,LA,71270,3182558666,Profit,Y,Y,192688,32.5204104,-92.6308356
192689,RENAL SOUTH OF NEW ORLEANS,2620 JENA,,NEW ORLEANS,LA,70115,5042696004,Profit,Y,Y,192689,29.9363794,-90.1044199
192690,NEW ORLEANS KIDNEY CTR,3434 PRYTANIA STE 200,,NEW ORLEANS,LA,70115,5048998414,Profit,Y,Y,192690,29.926065,-90.091364
192691,FMCNA - KENNER DIALYSIS,2717 DECATUR ST,,KENNER,LA,70062,5044691075,Profit,Y,N,192691,30.0047602,-90.2652338
192692,FMCNA - DENHAM SPRINGS,137 VETERANS BLVD,,DENHAM SPRINGS,LA,70726,2256652796,Profit,Y,N,192692,30.4669775,-90.9580862
192693,FMCNA - SLIDELL,877 BROWNSWITCH RD,,SLIDELL,LA,70458,9856436283,Profit,Y,Y,192693,30.3103901,-89.7446624
192694,DAVITA - MARRERO DIALYSIS CENTER,1908 JUTLAND DR,,HARVEY,LA,70058,5043476224,Profit,Y,N,192694,29.8769964,-90.0876357
192695,DAVITA - SHREVEPORT HOME DX,1560 IRVING PL,,SHREVEPORT,LA,71101,3182262654,Profit,N,Y,192695,32.496578,-93.744881
192696,DAVITA - CRESCENT CITY,3909 BIENVILLE RD STE 1B,,NEW ORLEANS,LA,70119,5044837117,Profit,Y,Y,192696,29.9751103,-90.0972867
192697,FMCNA - BARATARIA,1849 BARATORIA BLVD STE A,,MARRERO,LA,70072,5043474228,Profit,Y,Y,192697,29.8772639,-90.0982517
192698,FMCNA - PIERREMONTE DX,2240 E BERT KOUNS INDUSTRIAL LOOP,,SHREVEPORT,LA,71105,3185249906,Profit,Y,N,192698,32.4445718,-93.7024028
192699,FMCNA - SOUTH BOSSIER,3087 STAFFORD ST,,BOSSIER CITY,LA,71112,3187415167,Profit,Y,N,192699,32.49642,-93.691384
192700,ST JAMES DIALYSIS,1661 HIGHWAY 3125,,GRAMERCY,LA,70052,2258696681,Profit,Y,N,192700,30.066345,-90.6917912
192701,FMCNA - WEST MONROE,401 THOMAS RD UNIT C,,WEST MONROE,LA,71292,3183873188,Profit,Y,Y,192701,32.503113,-92.155766
192702,FMCNA - TRINITY,1400 LINDBERG DR STE 101,,SLIDELL,LA,70458,9856436753,Profit,Y,N,192702,30.281435,-89.753945
192703,"DCI - KIDNEY TREATMENT OPTION CTR, LLC (KTOC)",301 ALCIDE DOMINIQUE ROAD,,LAFAYETTE,LA,70506,3374567400,Profit,Y,Y,192703,30.247107,-92.044243
192704,FMCNA - CENTRAL LAKE CHARLES DX,2309 RYAN ST,,LAKE CHARLES,LA,70601,3374365406,Profit,Y,Y,192704,30.209461,-93.218247
192705,FMCNA - LACOMBE,"64026 HIGHWAY 434, STE 100",,LACOMBE,LA,70445,9858820097,Profit,Y,Y,192705,30.3543409,-89.9191888
192706,FMCNA - HOWELL PLACE,7707 HOWELL PL BLVD,,BATON ROUGE,LA,70807,2253573798,Profit,Y,N,192706,30.5570973,-91.1833043
192707,DAVITA - RIVER BEND DIALYSIS,"1057 PAUL MAILLARD RD, STE B1350",,LULING,LA,70070,9853311156,Profit,Y,N,192707,29.9255774,-90.3709306
193300,CHILDRENS HOSPITAL-DIALYSIS,200 HENRY CLAY AVE,,NEW ORLEANS,LA,70118,5048962061,Non-Profit,Y,Y,193300,29.917601,-90.127033
200018,COUNTY DIALYSIS CENTER,21 NORTH STREET,,PRESQUE ISLE,ME,4769,2077685863,Non-Profit,Y,N,200018,46.6881798,-68.0103398
200033,EASTERN MAINE MEDICAL CENTER,DIALYSIS UNIT,489 STATE STREET,BANGOR,ME,4401,2079737467,Non-Profit,Y,Y,200033,0,0
200039,MAINEGENERAL MEDICAL CENTER,THAYER CAMPUS,149 NORTH STREET,WATERVILLE,ME,4901,2078721290,Non-Profit,Y,Y,200039,0,0
202500,SOUTHERN MAINE DIALYSIS FACILITY,1600B CONGRESS STREET,,PORTLAND,ME,4102,2077745985,Profit,Y,Y,202500,43.6595204,-70.3092823
202501,LEWISTON AUBURN KIDNEY CENTER,(NEPHROLOGY SERVICES INC.),710 MAIN STREET,LEWISTON,ME,4240,2077842268,Profit,Y,N,202501,0,0
202502,COASTAL DIALYSIS CENTER,55 CONGRESS AVENUE,,BATH,ME,4530,2074437485,Profit,Y,Y,202502,43.910234,-69.833833
202503,YORK COUNTY DIALYSIS CENTER,20B WEST COLE ROAD,,BIDDEFORD,ME,4005,2072823908,Profit,Y,Y,202503,43.4791406,-70.4877381
202504,KENNEBEC KIDNEY CENTER,164 CIVIC CENTER DRIVE,,AUGUSTA,ME,4330,2076227097,Profit,Y,Y,202504,44.3401422,-69.7924386
202505,CASCO BAY DIALYSIS FACILITY,2 CHABOT STREET,,WESTBROOK,ME,4092,2078549822,Profit,Y,Y,202505,43.6818536,-70.3326259
202506,ANDROSCOGGIN KIDNEY CENTER,1100 MINOT AVENUE,,AUBURN,ME,4210,2077951315,Profit,Y,Y,202506,44.0807553,-70.2757318
202507,DAMARISCOTTA DIALYSIS,4 EDWARD AVE,,DAMARISCOTTA,ME,4543,2075632601,Profit,Y,Y,202507,0,0
202508,UMBAGOG KIDNEY CENTER,DIALYSIS SERVICES,73 ALLEN STREET,WILTON,ME,4294,2076452102,Profit,Y,Y,202508,0,0
202509,DCI SKOWHEGAN,"DIALYSIS CLINIC INC. SKOWHEGAN, ME",27 RESEARCH DRIVE/PO BOX  2231,SKOWHEGAN,ME,4976,2074746002,Non-Profit,Y,N,202509,0,0
202510,SUNRISE COUNTY DIALYSIS,19 VANASSE ROAD,,EASTPORT,ME,4631,2078539600,Profit,Y,Y,202510,44.9344808,-67.0273491
202511,DIALYSIS CLINIC INC. - BELFAST,"125 NORTHPORT AVE, SUITE 101",,BELFAST,ME,4915,2073381170,Non-Profit,Y,N,202511,44.4039315,-68.989997
203500,EASTERN MAINE DIALYSIS,ESRD SATELLITE UNIT,11 SHORT STREET,ELLSWORTH,ME,4605,2076679294,Non-Profit,Y,N,203500,0,0
203501,LINCOLN LAKES REGION DIALYSIS,250 ENFIELD RD / PO BOX 367,,LINCOLN,ME,4457,2077946095,Non-Profit,Y,N,203501,45.3247635,-68.5324015
210004,HOLY CROSS HOSPITAL,RENAL DIALYSIS UNIT,1500 FOREST GLEN RD,SILVER SPRING,MD,20910,3017547560,Non-Profit,Y,Y,210004,39.0041504,-77.0391754
210009,JOHNS HOPKINS OUTPATIENT CARE (JHOC),DAVID RUBENSTEIN CHILDREN'S HEALTH BUILDING,PEDIATRIC NEPH       200 N WOLFE ST,BALTIMORE,MD,21287,4109554427,Non-Profit,N,Y,210009,39.297512,-76.5928888
210013,BON SECOURS HOSPITAL,RENAL DIALYSIS UNIT,2000 W BALTIMORE STREET,BALTIMORE,MD,21223,4103623094,Non-Profit,Y,N,210013,39.2866135,-76.647047
210024,UNION MEMORIAL HOSPITAL DIALYSIS UNIT,201 E UNIVERSITY PARKWAY,GUILFORD AVE ENTRANCE,BALTIMORE,MD,21218,4105544535,Non-Profit,Y,N,210024,39.329267,-76.614289
210027,WESTERN MARYLAND REGIONAL DIALYSIS CENTER,12502 WILLOWBROOK RD   STE 250,,CUMBERLAND,MD,21502,2409648600,Non-Profit,Y,Y,210027,39.6492645,-78.7319457
210056,GOOD SAMARITAN HOSPITAL,RENAL DIALYSIS UNIT,5601 LOCH RAVEN BLVD,BALTIMORE,MD,21239,4434444095,Non-Profit,Y,Y,210056,39.3716204,-76.5892774
212003,DEERS HEAD CENTER,351 DEERS HEAD HOSPITAL ROAD,,SALISBURY,MD,21801,4105434085,Non-Profit,Y,N,212003,38.383648,-75.593033
212501,BMA - CAMP SPRINGS,3700 - A  ST BARNABAS RD,,SUITLAND,MD,20746,3014235657,Profit,Y,N,212501,38.839701,-76.94009
212503,BMA - BETHESDA,6420 ROCKLEDGE DR,STE 1100,BETHESDA,MD,20817,3016522554,Profit,Y,N,212503,39.024541,-77.133617
212504,BMA - BALTIMORE,733 W 40TH ST   STE 101,ROTUNDA PRINT SHOP,BALTIMORE,MD,21211,4102351768,Profit,Y,N,212504,39.3371778,-76.6292266
212507,WESTERN MARYLAND CENTER,RENAL DIVISION,1500 PENNSYLVANIA AVE,HAGERSTOWN,MD,21740,3017453748,Non-Profit,Y,N,212507,39.6417629,-77.7199932
212510,BMA - LEONARDTOWN,40865 MERCHANTS LANE,,LEONARDTOWN,MD,20650,3018702174,Profit,Y,Y,212510,38.305863,-76.662942
212511,DAVITA - ROCKVILLE,14915 BROSCHART RD,STE 100,ROCKVILLE,MD,20850,3014243633,Non-Profit,Y,N,212511,39.1027575,-77.1999282
212512,DAVITA - EASTON,402 MARVEL COURT,,EASTON,MD,21601,4108229114,Profit,Y,Y,212512,38.764798,-76.063441
212513,IDF - CHESTNUT SQUARE DIALYSIS CTR,3303 CHESTNUT AVE,,BALTIMORE,MD,21211,4103665400,Non-Profit,Y,N,212513,39.3273078,-76.628985
212515,IDF - PARKVIEW CENTER,840 HOLLINS ST,,BALTIMORE,MD,21201,4104680900,Non-Profit,Y,Y,212515,39.2880051,-76.6307791
212516,DAVITA - HOWARD COUNTY,5999 HARPERS FARM RD,STE E-110,COLUMBIA,MD,21044,4109974244,Profit,Y,N,212516,39.2165097,-76.8800842
212520,DAVITA - BERLIN DIALYSIS,314 FRANKLIN AVE,STE 306,BERLIN,MD,21811,4106414747,Profit,Y,Y,212520,38.3302891,-75.213221
212522,DOWNTOWN DIALYSIS CENTER,821 N EUTAW ST,STE 401,BALTIMORE,MD,21201,4103833450,Profit,Y,Y,212522,39.3002599,-76.6215783
212523,DAVITA - WHITE SQUARE,1 NASHUA CT,STE E,BALTIMORE,MD,21221,4106875580,Profit,Y,Y,212523,39.338414,-76.46886
212525,CHARING CROSS DIALYSIS LLC,MIE EXECUTIVE PARK,5730 EXECUTIVE DR   STES 124-130,CATONSVILLE,MD,21228,4107479356,Non-Profit,Y,Y,212525,39.2720509,-76.7319161
212528,DAVITA - CATONSVILLE,1581 SULPHUR SPRING RD,STE 112,BALTIMORE,MD,21227,4102427766,Profit,Y,N,212528,39.248207,-76.686308
212529,RAI - BALTIMORE-BELTSVILLE,10701 BALTIMORE AVE,,BELTSVILLE,MD,20705,3015950263,Non-Profit,Y,Y,212529,39.030197,-76.913464
212530,KIDNEY CARE OF LARGO,1300 MERCANTILE LN,STE 194,LARGO,MD,20774,3019254100,Profit,N,Y,212530,38.907916,-76.838424
212531,FMC - GREATER BALTIMORE,1840 YORK RD,STE A1,LUTHERVILLE,MD,21093,4105601499,Profit,Y,Y,212531,39.4327263,-76.6226724
212534,FMC - HAGERSTOWN,12931 OAK HILL AVE,,HAGERSTOWN,MD,21742,3017972311,Profit,Y,Y,212534,39.669521,-77.699836
212535,DAVITA - MARYLAND (BOND ST),409 N CAROLINE ST,,BALTIMORE,MD,21231,4109550721,Profit,Y,Y,212535,39.2959027,-76.5974424
212536,RAI - SILVER HILL,5652 SILVER HILL RD,PENN STATION SHOPPING CTR,DISTRICT HEIGHTS,MD,20747,3019679891,Profit,Y,N,212536,38.8528909,-76.9112737
212537,CARROLL COUNTY DIALYSIS FACILITY,412 MALCOM DR,STE 310,WESTMINSTER,MD,21157,4108767060,Profit,Y,N,212537,39.5626088,-76.9798708
212538,KIDNEY CARE OF LAUREL,14631 LAUREL BOWIE RD,STE 100,LAUREL,MD,20707,3017253559,Profit,Y,Y,212538,39.0930294,-76.8438136
212539,QUALITY CARE DIALYSIS - SOUTHERN MARYLAND,6357 OLD BRANCH AVE,,CAMP SPRINGS,MD,20748,3014494166,Profit,Y,Y,212539,38.8021013,-76.9054505
212541,BMA - LA PLATA,101 CATALPA DR,SUITE 103,LA PLATA,MD,20646,3019345718,Non-Profit,Y,N,212541,38.516331,-76.983082
212542,DAVITA DIALYSIS - MERCY,315 N CALVERT ST,STE 300,BALTIMORE,MD,21202,4103321122,Profit,Y,N,212542,39.2929135,-76.6123839
212543,BERTHA SIRK DIALYSIS CENTER,5820 YORK RD,STE 10,BALTIMORE,MD,21212,4105329311,Profit,Y,N,212543,39.3616554,-76.610134
212544,IDF - ARUNDEL CENTER,804 LANDMARK DRIVE,STE 112,GLEN BURNIE,MD,21061,4107685722,Non-Profit,Y,N,212544,39.147301,-76.6402889
212545,DAVITA - LANDOVER,1200 MERCANTILE LN   STE 105,,LARGO,MD,20774,3013222861,Profit,Y,N,212545,38.9060924,-76.8378083
212546,BALTIMORE COUNTY DIALYSIS FACILITY,9635 LIBERTY RD STE A,,RANDALLSTOWN,MD,21133,4105217851,Profit,Y,N,212546,39.3797888,-76.8202694
212548,IDF - ALLEGANY CENTER,939 FREDRICK ST,,CUMBERLAND,MD,21502,3017240351,Non-Profit,Y,Y,212548,39.4654827,-77.4125748
212549,IDF - CALVERT CENTER,225 W DARES BEACH RD,,PRINCE FREDERICK,MD,20678,4105356300,Non-Profit,Y,Y,212549,38.545478,-76.59365
212551,GREENSPRING DIALYSIS CENTER,4701 MT HOPE DR    STE C,,BALTIMORE,MD,21215,4105850467,Profit,Y,N,212551,39.3452112,-76.7096011
212552,RENAL CARE OF LANHAM,8855 ANNAPOLIS RD,STE 200,LANHAM,MD,20706,3017310880,Profit,Y,Y,212552,38.960676,-76.8639079
212556,DAVITA - HARBOR PARK DIALYSIS,111 CHERRY HILL RD,,BALTIMORE,MD,21225,4103543037,Profit,Y,N,212556,39.251295,-76.617262
212557,BMA - SOUTH ANNAPOLIS,304 HARRY S TRUMAN PKWY,STES H-K,ANNAPOLIS,MD,21401,3012611036,Profit,Y,Y,212557,38.974695,-76.555674
212560,ELLICOTT CITY DIALYSIS CENTER LLC,3000 N RIDGE RD,,ELLICOTT CITY,MD,21043,4107508426,Non-Profit,Y,N,212560,39.290553,-76.8202529
212563,DAVITA - SOUTHERN MARYLAND,9211 STUART LN,,CLINTON,MD,20735,3018566602,Profit,Y,N,212563,38.7616761,-76.8829956
212564,DAVITA - LAKESIDE,10401 HOSPITAL DR,STE G-02,CLINTON,MD,20735,3018566550,Profit,Y,Y,212564,38.745982,-76.876813
212565,TOTAL RENAL CARE - CHESTERTOWN,100 BROWN ST,,CHESTERTOWN,MD,21620,4107789555,Profit,Y,N,212565,39.21837,-76.064499
212566,RENAL ADVANTAGE INC - OXON HILL,5410 INDIAN HEAD HWY,,OXON HILL,MD,20745,3017499307,Profit,Y,N,212566,38.8158079,-76.997845
212568,FMC OF PORTER DIALYSIS - WHITE MARSH,8013 CORPORATE DR    STE K,,NOTTINGHAM,MD,21236,4109312478,Profit,Y,N,212568,39.3714129,-76.4680674
212573,FMC - ELKTON,216 S BRIDGE ST,,ELKTON,MD,21921,4106203911,Profit,Y,Y,212573,39.603758,-75.8299097
212574,DAVITA - OWINGS MILLS,10 CROSSROADS DR,STE 110,OWINGS MILLS,MD,21117,4109027310,Profit,Y,N,212574,39.397949,-76.7528389
212576,RENAL TREATMENT CENTER - WHEATON,WHEATON PARK SHOPPING CTR,11941 GEORGIA AVE,WHEATON,MD,20902,3019499620,Profit,Y,Y,212576,39.0451663,-77.0391754
212577,US RENAL CARE - NORTH BALTIMORE,2700 NORTH CHARLES ST,,BALTIMORE,MD,21218,4102434193,Profit,Y,N,212577,39.321258,-76.617703
212578,MANOR CARE DIALYSIS,6600 RIDGE RD,,BALTIMORE,MD,21237,4107807355,Non-Profit,Y,N,212578,39.342532,-76.486077
212582,IDF - DEATON CENTER,DIALYSIS - 2ND FLOOR,611 S CHARLES ST,BALTIMORE,MD,21230,4107528866,Non-Profit,Y,N,212582,39.2635174,-76.6239423
212583,BMA - FORT WASHINGTON,12780 OLD FORT RD,,FORT WASHINGTON,MD,20744,3012039010,Profit,Y,N,212583,38.7131925,-76.9873859
212585,BMA - ROCKVILLE,7524 STANDISH PL   STE 100-B,,ROCKVILLE,MD,20855,3016100711,Non-Profit,Y,Y,212585,39.1080964,-77.1549187
212586,ADVENTIST DIALYSIS SERVICES,12325 NEW HAMPSHIRE AVENUE,,SILVER SPRING,MD,20904,3016258890,Non-Profit,Y,N,212586,39.059159,-76.996491
212587,BMA - WHEATON,11160 VIERS MILL RD,WHEATON PLAZA SHOPPING CTR,WHEATON,MD,20902,3019627282,Profit,Y,Y,212587,39.03727,-77.053986
212588,DAVITA - FALLS ROAD,10753 FALLS RD,SUITE # 115,LUTHERVILLE,MD,21093,4104940811,Profit,Y,N,212588,39.4199709,-76.670081
212590,TAKOMA PARK DIALYSIS,1502 UNIVERSITY BLVD E,,HYATTSVILLE,MD,20783,3014081202,Profit,Y,N,212590,38.9853684,-76.9816958
212592,DAVITA - J.B. ZACHARY,DIALYSIS CENTER,333 CASSELL DR  STE 2300,BALTIMORE,MD,21224,4105500611,Profit,Y,Y,212592,39.2713976,-76.5603828
212593,DAVITA - SILVER SPRING,8412 GEORGIA AVE,,SILVER SPRING,MD,20910,3015636618,Profit,Y,N,212593,38.993969,-77.027165
212594,DAVITA - BELAIR,2225 OLD EMMORTON RD   STE 100,,BEL AIR,MD,21015,4105152078,Profit,Y,Y,212594,39.4951909,-76.3229222
212595,25TH STREET DIALYSIS INC,920 E 25TH ST,,BALTIMORE,MD,21218,4102351611,Profit,Y,N,212595,39.3180051,-76.6005592
212596,SILVER SPRING ARTIFICIAL KIDNEY CENTER,8630 FENTON ST STE 238,,SILVER SPRING,MD,20910,3015636808,Profit,Y,Y,212596,38.9977079,-77.0286262
212597,DAVITA - BALTIMORE GERIATRIC & REHAB CENTER,4940 EASTERN AVENUE,5TH FLOOR,BALTIMORE,MD,21224,4105502332,Profit,Y,N,212597,39.2910032,-76.5462343
212598,DAVITA - FREDERICK,140 THOMAS JOHNSON DR,STE 100,FREDERICK,MD,21702,3016950900,Profit,Y,Y,212598,39.4434127,-77.4070821
212603,FMC OF PORTER DIALYSIS - ROSEDALE,9411 PHILADELPHIA ROAD,SUITE A,ROSEDALE,MD,21237,4109180991,Profit,Y,Y,212603,39.3530924,-76.4622258
212605,HARFORD ROAD DIALYSIS CENTER,5800 HARFORD ROAD,,BALTIMORE,MD,21214,4104441544,Profit,Y,Y,212605,39.355386,-76.559219
212609,FMC OF PORTER DIALYSIS - DUNDALK,1107 N POINT BOULEVARD,SUITE 201,DUNDALK,MD,21224,4102882010,Profit,Y,N,212609,39.2902679,-76.5062612
212610,FMC - WALDORF,3510 OLD WASHINGTON ROAD,SUITE 300,WALDORF,MD,20603,3018700220,Profit,Y,Y,212610,38.6162779,-76.9168361
212611,FMC - PRINCE GEORGES COUNTY DIALYSIS,7558 ANNAPOLIS ROAD   STE C-1,(BELOW MCDONALDS),LANHAM,MD,20784,3014293555,Non-Profit,Y,N,212611,38.9641152,-76.8531784
212612,DULANEY TOWSON DIALYSIS CENTER,113 WEST ROAD,,TOWSON,MD,21204,4108253690,Profit,Y,N,212612,39.410571,-76.6145
212613,DAVITA - PASADENA,8894 FORT SMALLWOOD ROAD,SUITE 15,PASADENA,MD,21122,4104391390,Profit,Y,Y,212613,39.13247,-76.518659
212614,RAI - CHILLUM-HYATTSVILLE,2426 CHILLUM RD,,HYATTSVILLE,MD,20782,3019278808,Profit,Y,Y,212614,38.9522647,-76.9696826
212615,FMC OF PORTER DIALYSIS - PIKESVILLE,115 MCHENRY AVE,BEDFORD SQUARE 2  SUITE D,PIKESVILLE,MD,21208,4104843127,Profit,Y,N,212615,39.376246,-76.7260572
212616,DAVITA - DUNDALK,14 COMMERCE ST,,DUNDALK,MD,21222,4102849000,Profit,Y,N,212616,39.2571251,-76.5223617
212617,IDF - LIONS MANOR,SETON DRIVE EXTENDED,,CUMBERLAND,MD,21502,3017226299,Non-Profit,Y,N,212617,0,0
212618,GOOD SAMARITAN HOSPITAL AT CROMWELL CENTER,8710 EMGE RD,,BALTIMORE,MD,21234,4106610801,Non-Profit,Y,N,212618,0,0
212619,US RENAL CARE - CHESAPEAKE,305 COLLEGE PKY,,ARNOLD,MD,21012,4104315106,Profit,Y,N,212619,39.049565,-76.505493
212620,US RENAL CARE - HYATTSVILLE,4920 LASALLE RD,,HYATTSVILLE,MD,20782,3012770490,Profit,Y,N,212620,38.9510273,-76.9778463
212621,RIVERTOWNE DIALYSIS CENTER,6192 OXON HILL ROAD,,OXON HILL,MD,20745,3018393443,Profit,Y,N,212621,0,0
212622,ARA - ADELPHI,1801 METZEROTT RD,,ADELPHI,MD,20783,3014341884,Profit,Y,N,212622,39.002253,-76.977147
212625,"MONTGOMERY RENAL CENTER, LLC",12401 MIDDLEBROOK RD   STE 160,,GERMANTOWN,MD,20874,3015406020,Profit,Y,Y,212625,39.17624,-77.256244
212626,"RENAL CARE OF BOWIE, LLC",4861 TELSA DR   STE H,,BOWIE,MD,20715,3018095342,Profit,Y,Y,212626,38.9568225,-76.7116499
212627,FMC - ROBINWOOD,11110 MEDICAL CAMPUS RD   STE 149,,HAGERSTOWN,MD,21742,2403139620,Profit,Y,N,212627,39.621739,-77.682236
212628,DAVITA - CEDAR LANE,6334 CEDAR LANE,,COLUMBIA,MD,21044,4105315390,Profit,Y,N,212628,39.1974607,-76.8843336
212629,FMC - SALISBURY,1340 SOUTH DIVISION ST   STE 302,,SALISBURY,MD,21804,4107421800,Profit,Y,Y,212629,38.33717,-75.6007039
212630,FMC - FORT FOOTE,8507 OXON HILL RD,,FORT WASHINGTON,MD,20744,3016860802,Profit,Y,N,212630,38.772579,-77.006731
212631,DAVITA - GLEN BURNIE DIALYSIS,120 N LANGLEY RD,,GLEN BURNIE,MD,21060,4107607100,Profit,Y,N,212631,39.1802788,-76.6085635
212632,COMMUNITY DIALYSIS CENTERS INC,2707 ROLLING RD   STES 104-105,,BALTIMORE,MD,21244,4102779101,Profit,Y,N,212632,39.3390072,-76.7913558
212633,US RENAL CARE - CHEVY CHASE,3 BETHESDA METRO CENTER   STE B005,,BETHESDA,MD,20814,3016523434,Profit,Y,Y,212633,38.9844637,-77.095901
212634,DAVITA - NORTH ROLLING ROAD DIALYSIS,1108 N ROLLING RD,,BALTIMORE,MD,21228,4107881378,Profit,Y,N,212634,39.2854611,-76.7528165
212636,PIKESVILLE DIALYSIS,1500 REISTERSTOWN RD   STE 220,,PIKESVILLE,MD,21208,4104155527,Profit,Y,N,212636,39.377287,-76.7256892
212637,FMC - ANNE ARUNDEL,2032 INDUSTRIAL DR,,ANNAPOLIS,MD,21401,4102667288,Profit,Y,N,212637,38.9935958,-76.5451618
212638,GERMANTOWN DIALYSIS,20111 CENTURY BLVD   STE C,,GERMANTOWN,MD,20874,3015404601,Profit,Y,Y,212638,39.186618,-77.259227
212639,CAMBRIDGE DIALYSIS CENTER,300 BYRN STREET,,CAMBRIDGE,MD,21613,4102289024,Profit,Y,N,212639,38.5709359,-76.0687352
212640,"RENAL CARE OF SEAT PLEASANT, LLC",6274 CENTRAL AVE,,SEAT PLEASANT,MD,20743,3013366274,Profit,Y,Y,212640,38.8868594,-76.8999955
212641,US RENAL CARE - ROCKVILLE,11800 A   NEBEL ST,,ROCKVILLE,MD,20852,3014683221,Profit,Y,Y,212641,39.048834,-77.107067
212642,ADVANCED DIALYSIS CENTER - RANDALLSTOWN,9109 LIBERTY RD,,RANDALLSTOWN,MD,21133,4104960077,Profit,Y,N,212642,39.368583,-76.801246
212643,RENAL CAREPARTNERS - PRINCE FREDERICK,205 STEEPLE CHASE DR   STE 201,,PRINCE FREDERICK,MD,20678,4104148000,Profit,Y,Y,212643,38.5508895,-76.59189
212646,GOOD SAMARITAN HOSP - LORIEN FRANKFORD,DIALYSIS UNIT,5009 FRANKFORD AVE,BALTIMORE,MD,21206,4103254000,Non-Profit,Y,N,212646,39.3356402,-76.5430429
212647,US RENAL CARE - WEST BALTIMORE,22 S ATHOL AVE,,BALTIMORE,MD,21229,4109473227,,Y,N,212647,39.28497,-76.689981
212649,ADVANCED DIALYSIS CENTER - EASTON,610 E DUTCHMANS LN,,EASTON,MD,21601,4108209873,Profit,Y,N,212649,38.7589929,-76.063861
212650,ABERDEEN DIALYSIS,780 W BEL AIR AVE,,ABERDEEN,MD,21001,4102739333,Profit,Y,N,212650,39.519452,-76.186402
212651,IDF - GARRETT DIALYSIS CENTER,888 MEMORIAL DR,,OAKLAND,MD,21550,3013348955,Non-Profit,Y,N,212651,39.415056,-79.392241
212653,SETON DRIVE DIALYSIS,4800 SETON DRIVE,,BALTIMORE,MD,21215,4105850446,,Y,N,212653,39.343803,-76.708095
212654,FREDERICK RENAL CARE,405 W 7TH STREET,,FREDERICK,MD,21701,3016962290,Profit,Y,N,212654,39.4237003,-77.4138854
212655,NORTHWEST DIALYSIS CENTER,2245 ROLLING RUN DR   STE 1,,BALTIMORE,MD,21244,4102650158,Profit,Y,N,212655,39.318747,-76.760826
212656,ADVANCED DIALYSIS CENTER - ROCKVILLE,299 HURLEY AVE,,ROCKVILLE,MD,20850,3018389119,Profit,Y,N,212656,39.088733,-77.180184
212657,DISTRICT HEIGHTS DIALYSIS,5701 SILVER HILLL RD,,DISTRICT HEIGHTS,MD,20747,3018170010,Profit,Y,Y,212657,38.8534118,-76.9090386
212659,KIDNEY HOME CENTER,2245 ROLLING RUN DR   STE 3,,BALTIMORE,MD,21244,4102656515,Profit,N,Y,212659,39.318747,-76.760826
212660,FMC - SILVER SPRING,12120 PLUM ORCHARD RD   STE 140,,SILVER SPRING,MD,20904,3015722484,Profit,Y,Y,212660,39.055038,-76.958534
212661,WELLBOUND OF FREDERICK LLC,45 THOMAS JOHNSON DR    STE 211,,FREDERICK,MD,21702,3016241054,Profit,N,Y,212661,39.454344,-77.4018409
212662,RAI - OLD ALEXANDRIA-CLINTON,7201 OLD ALEXANDRIA FERRY RD,,CLINTON,MD,20735,3018773263,Profit,Y,Y,212662,38.78296,-76.881917
212663,CALVERTON DIALYSIS,4780 CORRIDOR PLACE    STE C,,BELTSVILLE,MD,20705,3015950231,Profit,Y,N,212663,39.053226,-76.92436
212664,FMC - NORTH SALISBURY,1314 BELMONT AVE    STE 304,,SALISBURY,MD,21804,4108606650,Profit,Y,Y,212664,38.3700723,-75.5702078
213503,HOLY CROSS DIALYSIS CENTER - WOODMORE,11721 WOODMORE RD   STE 190,,MITCHELLVILLE,MD,20721,3013907270,Non-Profit,Y,N,213503,38.920582,-76.802099
220028,SAINT VINCENT'S HOSPITAL,HEMODIALYSIS UNIT,"123 SUMMER ST, SUITE 380",WORCESTER,MA,1608,5083639460,Profit,Y,Y,220028,0,0
220036,SAINT ELIZABETH'S MEDICAL CENTER OF BOSTON,DIALYSIS UNIT - CCP 7,736 CAMBRIDGE STREET,BRIGHTON,MA,2135,6177892592,Non-Profit,Y,Y,220036,0,0
220046,BERKSHIRE MEDICAL CENTER,DIALYSIS UNIT,725 NORTH STREET,PITTSFIELD,MA,1201,4134473066,Non-Profit,Y,Y,220046,0,0
220071,MASSACHUSETTS GENERAL HOSPITAL,DIALYSIS UNIT,"55 FRUIT ST, BIGELOW 10",BOSTON,MA,2114,6177263700,Non-Profit,Y,Y,220071,0,0
220081,NANTUCKET COTTAGE HOSPITAL,DIALYSIS UNIT,57 PROSPECT STREET,NANTUCKET,MA,2554,5082281200,Non-Profit,Y,N,220081,0,0
220082,SAINTS MEDICAL CENTER DIALYSIS,847 ROGERS STREET SUITE 101,,LOWELL,MA,1852,9784415100,Non-Profit,Y,Y,220082,42.6291114,-71.2752775
220110,BRIGHAM AND WOMEN'S HOSPITAL,DIALYSIS UNIT,75 FRANCIS STREET,BOSTON,MA,2115,6177326130,Non-Profit,Y,Y,220110,0,0
220123,MARTHA'S VINEYARD HOSPITAL,DIALYSIS UNIT - 1 HOSPITAL ROAD,P.O. BOX 1477,OAK BLUFFS,MA,2557,5086930410,Non-Profit,Y,N,220123,0,0
220163,U-MASS MEMORIAL HEALTH CARE SYSTEMS,DIALYSIS UNIT,55 LAKE AVENUE NORTH RM H7-331,WORCESTER,MA,1655,7744423814,Non-Profit,Y,N,220163,0,0
221302,FAIRVIEW HOSPITAL DIALYSIS CENTER,"10 MAPLE AVENUE, SUITE 200",,GREAT BARRINGTON,MA,1230,4138549910,Non-Profit,Y,N,221302,42.1889983,-73.3650154
222006,LEMUEL SHATTUCK HOSPITAL,170 MORTON STREET,,JAMAICA PLAIN,MA,2130,6179713470,Non-Profit,Y,N,222006,42.3004095,-71.1056729
222500,KIDNEY CENTER,888 COMMONWEALTH AVENUE,,BOSTON,MA,2215,6177393000,Profit,Y,Y,222500,42.3509419,-71.1151856
222501,CAPE COD ARTIFICIAL KIDNEY CENTER (BMA CAPE COD),241 WILLOW STREET,,YARMOUTH,MA,2675,5083624535,Profit,Y,Y,222501,41.690223,-70.256536
222502,WESTERN MASS. KIDNEY CENTER (BMA SPRINGFIELD),2000 MAIN STREET,,SPRINGFIELD,MA,1103,4137394751,Profit,Y,N,222502,42.107003,-72.599318
222503,HAWTHORN KIDNEY CENTER,"237 B STATE ROAD, ROUTE 6",,NORTH DARTMOUTH,MA,2747,5089949692,Profit,Y,Y,222503,0,0
222504,FRESENIUS MEDICAL CARE FRAMINGHAM,4 VERNON STREET,,FRAMINGHAM,MA,1701,5088794144,Profit,Y,N,222504,42.3013959,-71.436061
222505,BROCKTON DIALYSIS CENTER (BMA OF MASSACHUSETTS),375 WESTGATE DRIVE,,BROCKTON,MA,2301,5085862791,Profit,Y,Y,222505,42.0967737,-71.0542945
222506,BOSTON DIALYSIS CENTER (BMA BOSTON),2100 DORCHESTER AVENUE,1 SOUTH,DORCHESTER,MA,2124,6172982475,Profit,Y,N,222506,42.277388,-71.065146
222507,MEDFORD DIALYSIS CENTER (BMA MEDFORD),305 MYSTIC AVENUE,,MEDFORD,MA,2155,7813969282,Profit,Y,N,222507,42.404418,-71.1008753
222508,"DIALYSIS CLINIC, INC. (DCI BOSTON)",35 KNEELAND STREET,5TH FLOOR,BOSTON,MA,2111,6176366389,Non-Profit,Y,N,222508,42.350507,-71.061966
222511,WESTWOOD DIALYSIS CENTER (BMA WESTWOOD),90 GLACIER DRIVE,,WESTWOOD,MA,2090,7813269985,Profit,Y,N,222511,42.2143154,-71.1846864
222512,NORTH SUBURBAN DIALYSIS CENTER (BMA ESSEX COUNTY),AUGUSTINE PLAZA,"124 BROADWAY, ROUTE 1N",SAUGUS,MA,1906,7812332877,Profit,Y,Y,222512,0,0
222513,BMA OF CHICOPEE,I 391 INDUSTRIAL PARK,317 MEADOW STREET,CHICOPEE,MA,1013,4135352529,Profit,Y,Y,222513,0,0
222515,SOUTH SUBURBAN DIALYSIS FACILITY,(BMA QUINCY),241 PARKINGWAY,QUINCY,MA,2169,6178471700,Profit,Y,Y,222515,0,0
222516,ARTIFICIAL KIDNEY CENTER OF FALL RIVER (BMA FALL RIVER),48 WEAVER STREET,,FALL RIVER,MA,2720,5086774911,Profit,Y,Y,222516,41.7282243,-71.1439867
222517,WEYMOUTH DIALYSIS,330 LIBBEY INDUSTRIAL PARKWAY,SUITE 900,WEYMOUTH,MA,2189,7813317700,Profit,Y,Y,222517,42.1899119,-70.9357388
222519,QUALITY CARE DIALYSIS CENTER,UNIT 1 STETSON WEST,2-6 WEST STREET,WEYMOUTH,MA,2190,7813314100,Profit,Y,Y,222519,42.2154459,-70.9648785
222520,WOBURN DIALYSIS,23 WARREN AVENUE,,WOBURN,MA,1801,7819357700,Profit,Y,Y,222520,42.4765747,-71.1540918
222521,UNIVERSITY DIALYSIS CENTER (BMA OF SHREWSBURY),239-243 BOSTON TURNPIKE ROAD,,SHREWSBURY,MA,1545,5087530886,Profit,Y,Y,222521,42.2749557,-71.7451131
222523,GODDARD BROCKTON KIDNEY CENTER,MED. OFFICE BLDG SUITE M107,907 SUMNER STREET,STOUGHTON,MA,2072,7813418550,Profit,Y,Y,222523,42.0984854,-71.0620772
222524,FMC SERVICES OF STONEHAM,2 MAIN STREET SUITE 100,,STONEHAM,MA,2180,7812792454,Profit,Y,N,222524,42.500995,-71.101069
222525,MARY ELIZA MAHONEY DIALYSIS CENTER (BMA OF MASSACHUSETTS),416 WARREN STREET,,ROXBURY,MA,2119,6174459989,Profit,Y,N,222525,42.3169402,-71.0825148
222526,BOSTON DIALYSIS,DIALYSIS UNIT,660 HARRISON AVENUE,BOSTON,MA,2118,6178597000,Profit,Y,Y,222526,0,0
222529,BROOKLINE DIALYSIS,322 WASHINGTON STREET,,BROOKLINE,MA,2445,6177347794,Profit,Y,Y,222529,42.3333872,-71.1201882
222530,NEW BEDFORD DIALYSIS,524 UNION STREET,,NEW BEDFORD,MA,2740,5089847700,Profit,Y,Y,222530,41.632506,-70.941046
222532,DSI AMESBURY RENAL CENTER,24 MORRILL PLACE,,AMESBURY,MA,1913,9783887100,Profit,Y,N,222532,42.8490478,-70.932541
222533,NORTHEAST CAMBRIDGE DIALYSIS,799 CONCORD AVENUE,,CAMBRIDGE,MA,2138,6175477700,Profit,Y,Y,222533,42.3915474,-71.1554968
222534,WELLESLEY DIALYSIS,195 WORCESTER STREET,LOWER LEVEL,WELLESLEY,MA,2481,7814311414,Profit,Y,Y,222534,42.316229,-71.2451899
222535,EAST SPRINGFIELD DIALYSIS (BMA OF MASSACHUSETTS),435 COTTAGE STREET,,SPRINGFIELD,MA,1104,4137818855,Profit,Y,N,222535,42.143827,-72.5370777
222536,"PHYSICIANS DIALYSIS INC., - FITCHBURG",551 ELECTRIC AVENUE,,FITCHBURG,MA,1420,9783434100,Profit,Y,Y,222536,42.5681927,-71.8163237
222537,HAMPSHIRE COUNTY DIALYSIS CENTER,84 CONZ STREET,,NORTHAMPTON,MA,1060,4135867989,Profit,Y,N,222537,42.313732,-72.627186
222538,PIONEER VALLEY DIALYSIS CENTER,208 ASHLEY AVENUE,,WEST SPRINGFIELD,MA,1089,4137503400,Profit,Y,N,222538,42.141547,-72.620778
222539,YANKEE FAMILY DIALYSIS CENTER,115 WILDWOOD AVENUE,,GREENFIELD,MA,1301,4137730001,Profit,Y,Y,222539,42.605872,-72.579099
222542,WELLINGTON CIRCLE DIALYSIS CENTER,10 CABOT ROAD SUITE 103B,,MEDFORD,MA,2155,7813069740,Profit,Y,Y,222542,42.4065948,-71.076426
222543,SALEM NORTHEAST DIALYSIS,10 COLONIAL ROAD,SUITE 205,SALEM,MA,1970,9787443660,Profit,Y,Y,222543,42.509526,-70.900577
222544,TAUNTON KIDNEY CENTER,ONE WASHINGTON STREET,,TAUNTON,MA,2780,5088800889,Profit,Y,Y,222544,41.9025208,-71.0998072
222545,DSI NORTH ANDOVER RENAL CENTER,201 SUTTON STREET,,NORTH ANDOVER,MA,1845,9789751119,Profit,Y,Y,222545,42.707014,-71.1318007
222546,PEABODY DIALYSIS CENTER,19-A CENTENNIAL DRIVE,,PEABODY,MA,1960,9785327663,Profit,Y,Y,222546,42.523914,-70.951925
222548,NORWOOD DIALYSIS CENTER,101 ACCESS ROAD,,NORWOOD,MA,2062,7817621544,Profit,Y,N,222548,42.186392,-71.177212
222549,DCI BALL SQUARE,643 BROADWAY,,SOMERVILLE,MA,2145,6176163600,Non-Profit,Y,Y,222549,42.3993669,-71.1101445
222550,NORTH SHORE REGIONAL DIALYSIS CENTER,133 BRIMBAL AVE,UNIT E,BEVERLY,MA,1915,9789212052,Profit,Y,Y,222550,42.5740646,-70.8768662
222551,FMC DIALYSIS SERVICES OF BLACKSTONE VALLEY,42 CAPE ROAD,,MILFORD,MA,1757,5086344331,Profit,Y,Y,222551,42.128857,-71.521752
222552,DCI BRIGHAM/FAULKNER,DCI BRIGHAM/FAULKNER,"1153 CENTRE STREET, BELKIN HOUSE",JAMAICA PLAIN,MA,2130,6179834470,Non-Profit,Y,Y,222552,0,0
222553,FRESENIUS MEDICAL CARE OF MASHPEE,34 BATES ROAD,SUITE 201,MASHPEE,MA,2649,5085397080,Profit,Y,Y,222553,41.6130997,-70.5122706
222554,DCI BILLERICA,267 BOSTON ROAD,RT 3A  SUITE 8,NORTH BILLERICA,MA,1862,9782941000,Non-Profit,Y,N,222554,42.575565,-71.282443
222556,BURLINGTON REGIONAL DIALYSIS,31 MALL ROAD-DIALYSIS SUITE 1B,,BURLINGTON,MA,1805,7812703580,Profit,Y,Y,222556,0,0
222557,FMC DIALYSIS SERVICES OF PALMER,42 WRIGHT STREET,,PALMER,MA,1069,4132840700,Profit,Y,N,222557,42.1682505,-72.3418986
222559,DCI WALDEN POND,56 B WINTHROP STREET,,CONCORD,MA,1742,9783691683,Non-Profit,Y,N,222559,42.459591,-71.395871
222560,SPRINGFIELD DIALYSIS CENTER,"125 LIBERTY STREET, SUITE 101",,SPRINGFIELD,MA,1103,4137369600,Profit,Y,Y,222560,42.1082451,-72.5933299
222561,SOUTH COUNTY DIALYSIS CENTER,336 THOMPSON ROAD SUITE 1,,WEBSTER,MA,1570,5089433998,Profit,Y,Y,222561,42.0283312,-71.8504239
222562,FMC OF NEWBURYPORT,260 MERRIMAC STREET,TOWLE BUILDING,NEWBURYPORT,MA,1950,9784657030,Profit,Y,Y,222562,42.817573,-70.880734
222563,"PERSONAL DIALYSIS,  INC.",747 CAMBRIDGE STREET,,BRIGHTON,MA,2135,6177833800,Profit,N,N,222563,42.3807,-71.1369
222564,PDI - WORCESTER,19 GLENNIE STREET,SUITE A,WORCESTER,MA,1605,5084219539,Profit,Y,Y,222564,42.2851291,-71.8056939
222565,FRESENIUS MEDICAL CARE OF METHUEN,421 MERRIMACK STREET,,METHUEN,MA,1844,9789753117,Profit,Y,Y,222565,42.747924,-71.127156
222566,DIALYSIS CENTER OF FALL RIVER,221-223 WEAVER STREET,,FALL RIVER,MA,2720,5086760112,Profit,Y,Y,222566,41.7278415,-71.1419606
222567,FRESENIUS MEDICAL CARE OF PLYMOUTH CORDAGE,10 CORDAGE PARK CIRCLE SUITE 213,,PLYMOUTH,MA,2360,5087329272,Profit,Y,Y,222567,41.9801103,-70.6902516
222568,THE DIALYSIS CENTER AT WALTHAM,"135 BEAVER STREET, SUITE 111",,WALTHAM,MA,2452,7816420331,Profit,Y,N,222568,42.3829025,-71.2079403
222570,FRESENIUS MEDICAL CARE OF MARLBOROUGH,360 CEDAR HILL STREET,SUITE 3,MARLBOROUGH,MA,1752,5084609250,Profit,Y,Y,222570,42.3192293,-71.5930742
222571,DIALYSIS CENTER OF WESTERN MASSACHUSETTS,"601 MEMORIAL DRIVE, SUITE H",,CHICOPEE,MA,1020,4135933078,Profit,Y,Y,222571,42.1745265,-72.5761318
222572,"HERITAGE DIALYSIS CENTER, LLC",67 COOPER STREET,,AGAWAM,MA,1001,4137862022,Profit,Y,Y,222572,42.0819983,-72.6190321
222573,TAUNTON REGIONAL DIALYSIS CENTER,MILL RIVER PLACE,"1 WASHINGTON ST, SUITE 9",TAUNTON,MA,2780,5088285986,Profit,Y,Y,222573,41.929417,-71.112019
222574,BROCKTON REGIONAL KIDNEY CENTER,76 CAMPANELLI INDUSTRIAL DRIVE,,BROCKTON,MA,2301,5084275329,Profit,Y,Y,222574,42.0999899,-71.0526275
223302,CHILDREN'S HOSPITAL BOSTON,"DIALYSIS UNIT, FARLEY FOUR",300 LONGWOOD AVENUE,BOSTON,MA,2115,6173557631,Non-Profit,Y,Y,223302,0,0
223501,SAINTS MEMORIAL MED CTR/MERRIMACK VALLEY DIALYSIS - METHUEN,100 MILK STREET,,METHUEN,MA,1844,9786869900,Non-Profit,Y,Y,223501,42.7369388,-71.1554416
223504,UMASS MEMORIAL MEDICAL CENTER ESRD,119 BELMONT STREET,,WORCESTER,MA,1605,5083346596,Non-Profit,Y,N,223504,42.2719815,-71.7918765
230030,GREAT LAKES RENAL NW - ALMA,330 E WARWICK DR,,ALMA,MI,48801,9894663330,Non-Profit,Y,Y,230030,43.3917348,-84.6604995
230038,DEVOS CHILDRENS HOSP -  DIALYSIS UNIT,100 MICHIGAN ST NE,MC 83,GRAND RAPIDS,MI,49503,6163911091,Non-Profit,Y,Y,230038,42.9688134,-85.6664886
230046,UNIV OF MI DIALYSIS - ADULT,1500 E MEDICAL CTR DR,D7605 UNIVERSITY HOSPITAL,ANN ARBOR,MI,48109,7349365656,Non-Profit,Y,N,230046,42.2847544,-83.7317955
230054,MARQUETTE GENERAL HOSPITAL,580 W COLLEGE AVE,ATTN:  HEMODIALYSIS UNIT,MARQUETTE,MI,49855,9062253266,Non-Profit,Y,Y,230054,46.5546545,-87.4003733
230105,NORTHERN MICHIGAN HOSPITAL,DIALYSIS UNIT,416 CONNABLE ST,PETOSKEY,MI,49770,2314874685,Non-Profit,Y,Y,230105,45.3733428,-84.9553296
230108,PORTAGE HEALTH DIALYSIS CTR,500 CAMPUS DRIVE,,HANCOCK,MI,49930,9064831720,Non-Profit,Y,N,230108,47.1413014,-88.5858028
230130,BEAUMONT DIALYSIS SERVICES - BERKLEY,2624 11 MILE RD,,BERKLEY,MI,48072,2485437005,Non-Profit,Y,Y,230130,42.489172,-83.184561
230156,ST JOSEPH MERCY HOSP DIALYSIS,"5301 E HURON RIVER DR, PO BOX 995",,ANN ARBOR,MI,48106,7347123476,Non-Profit,Y,Y,230156,42.327051,-83.8311565
230217,OAKLAWN DIALYSIS CENTER,310 E MICHIGAN AVE,,MARSHALL,MI,49068,2697897023,Non-Profit,Y,N,230217,42.2719592,-84.9561209
230230,SPARROW DIALYSIS - SPARROW CAMPUS,1215 EAST MICHIGAN AVE,,LANSING,MI,48909,5173642625,Non-Profit,Y,N,230230,42.7341229,-84.535263
230239,CHIPPEWA DIALYSIS SERVICES,WAR MEMORIAL HOSPITAL,509 OSBORNE BLVD STE 200,SAULT ST MARIE,MI,49783,9066354640,Non-Profit,Y,N,230239,46.4987088,-84.3495562
230269,BEAUMONT HOSPITAL - STERLING HGTS,44300 DEQUINDRE RD,,STERLING HEIGHTS,MI,48314,2489640100,Non-Profit,Y,Y,230269,42.6182786,-83.0912442
232500,FMC DIALYSIS - DETROIT,9300 CONANT,,HAMTRAMCK,MI,48212,3137580019,Profit,Y,Y,232500,42.3966132,-83.0485811
232501,FMC DIALYSIS - LIVONIA,32423 SCHOOLCRAFT RD,,LIVONIA,MI,48150,7345250780,Profit,Y,Y,232501,42.3823768,-83.3628094
232502,WASHTENAW REGIONAL DIALYSIS CTR,5205 MC AULEY DR,,YPSILANTI,MI,48197,7344349511,Profit,Y,N,232502,42.2411499,-83.6129939
232503,FMC DIALYSIS - EAST DETROIT,"22151 MOROSS RD, PROF BLDG ONE",SUITE G-05,DETROIT,MI,48236,3134172900,Profit,Y,N,232503,42.4192083,-82.8963604
232504,RENAL ADVANTAGE - JACKSON,200 SOUTH EAST AVE,,JACKSON,MI,49201,5177888727,Profit,Y,Y,232504,42.248166,-84.393258
232505,GREENFIELD HS - DETROIT WEST PAVILION,2799 W GRAND BLVD,,DETROIT,MI,48202,3139167062,Non-Profit,Y,Y,232505,42.367618,-83.084609
232506,GREENFIELD HS - TROY,"2050 LIVERNOIS, SUITE A",,TROY,MI,48083,2485241270,Non-Profit,Y,Y,232506,42.5528469,-83.1471673
232507,GREENFIELD HS - DEARBORN,19001 HUBBARD DR,,DEARBORN,MI,48126,3134411160,Non-Profit,Y,Y,232507,42.3213774,-83.2243471
232508,FMC - COLDWATER,"360 E CHICAGO ST, SUITE 112",,COLDWATER,MI,49036,5172782970,Profit,Y,N,232508,41.9383361,-84.9867731
232509,FMC DIALYSIS - PORT HURON,2607 ELECTRIC AVE,,PORT HURON,MI,48060,8109825483,Profit,Y,Y,232509,42.9556885,-82.4321496
232510,GREENFIELD HS - TAYLOR,24565 HAIG ROAD,,TAYLOR,MI,48180,3132917800,Non-Profit,Y,Y,232510,42.234961,-83.273209
232511,NORTH OAKLAND KIDNEY CENTER OF DAVITA,450 NORTH TELEGRAPH,,PONTIAC,MI,48341,2483332230,Profit,Y,Y,232511,42.6443646,-83.3261484
232512,CORNERSTONE DIALYSIS OF DAVITA,23857 GREENFIELD RD,,SOUTHFIELD,MI,48075,2485696111,Profit,Y,Y,232512,42.4658075,-83.2015083
232513,FMC DIALYSIS - WARREN,30300 HOOVER RD STE 100,,WARREN,MI,48093,5865588890,Profit,Y,N,232513,42.515928,-83.006676
232514,FMC DIALYSIS - ADRIAN,715 LAKESHIRE TRL,,ADRIAN,MI,49221,5172635384,Profit,Y,Y,232514,41.9131978,-84.0448802
232515,GREENFIELD HS - LIVONIA,14555 LEVAN RD,,LIVONIA,MI,48154,7345916409,Non-Profit,Y,Y,232515,42.3902507,-83.4026627
232516,GREENFIELD HS - PONTIAC,44200 WOODWARD AVE STE 109,,PONTIAC,MI,48341,2483227253,Non-Profit,Y,Y,232516,42.614521,-83.272476
232517,QUALITY CARE DIALYSIS CENTER,26100 HARPER AVE,,SAINT CLAIR SHORES,MI,48081,5867750630,Profit,Y,N,232517,42.4852614,-82.8994089
232518,FMC - BOTSFORD PARK,28425 W 8 MILE RD,,LIVONIA,MI,48152,2484270089,Profit,Y,Y,232518,42.440804,-83.32744
232519,BAY AREA REGL DIALYSIS CTR - SAGINAW,4800 MCLEOD DR E,,SAGINAW,MI,48604,9897909440,Profit,Y,Y,232519,43.47661,-83.965957
232520,DAVITA - DEARBORN,1185 MONROE ST,,DEARBORN,MI,48124,3132748100,Profit,Y,Y,232520,42.3044238,-83.2432525
232521,FMC DIALYSIS - FLINT,"2222 S LINDEN RD, SUITE S",,FLINT,MI,48532,8107332283,Profit,Y,Y,232521,42.996817,-83.773719
232522,FMC DIALYSIS - OWOSSO,918 CORUNNA AVE,,OWOSSO,MI,48867,9897253144,Profit,Y,Y,232522,42.9899656,-84.1586849
232523,FMC DIALYSIS - ROMEO PLANK,"46591 ROMEO PLANK RD, SUITE 101",,MACOMB TOWNSHIP,MI,48044,5862266150,Profit,Y,N,232523,42.640401,-82.9376769
232525,FMC DIALYSIS - MADISON HEIGHTS,25780 COMMERCE DR,,MADISON HEIGHTS,MI,48071,2483988090,Profit,Y,N,232525,42.48137,-83.08786
232526,FMC DIALYSIS - NORTHWEST DETROIT,18944 GRAND RIVER AVE,,DETROIT,MI,48223,3138371530,Profit,Y,N,232526,42.4044944,-83.2272622
232528,MUNSON DIALYSIS CENTER,4062 W ROYAL DR,,TRAVERSE CITY,MI,49684,2319350447,Non-Profit,Y,Y,232528,44.7608996,-85.6542371
232529,NEW CENTER DIALYSIS OF DAVITA,3011 W GRAND BLVD,SUITE 650,DETROIT,MI,48202,3138737711,Profit,Y,N,232529,42.3694409,-83.0770621
232530,FMC DIALYSIS - UNIVERSITY,18430 LIVERNOIS ST,,DETROIT,MI,48221,3133414366,Profit,Y,N,232530,42.4272289,-83.1409241
232531,REGIONAL DIALYSIS - BAY CITY,3170 PROFESSIONAL CT,,BAY CITY,MI,48706,9896868782,Non-Profit,Y,Y,232531,43.5986728,-83.9236022
232532,BAY AREA REG DIALYSIS - ESSEXVILLE,1536 W CENTER AVE,,ESSEXVILLE,MI,48732,9898942810,Profit,Y,Y,232532,43.5943056,-83.8385293
232533,GREAT LAKES DIALYSIS - MONROE,"700 STEWART RD, SUITE 103",,MONROE,MI,48162,7342410000,Profit,Y,Y,232533,41.9368983,-83.3953537
232534,REGIONAL DIALYSIS - WEST BRANCH,599 COURT ST,,WEST BRANCH,MI,48661,9893458422,Non-Profit,Y,Y,232534,44.2690639,-84.2463356
232535,DAVITA - SOUTHGATE,14752 NORTHLINE RD,,SOUTHGATE,MI,48195,7342840005,Profit,Y,N,232535,42.215193,-83.204958
232539,DAVITA - MOTOR CITY DIALYSIS,4727 SAINT ANTOINE ST,SUITE 101,DETROIT,MI,48201,3138316842,Profit,N,Y,232539,42.3578967,-83.0560981
232540,MACOMB KIDNEY CENTER OF DAVITA,28295 SCHOENHERR RD,SUITE A,WARREN,MI,48088,5865588160,Profit,Y,Y,232540,42.5021595,-82.9875466
232541,REGIONAL DIALYSIS - MIDLAND,4901 JEFFERSON AVE,,MIDLAND,MI,48640,9898397770,Non-Profit,Y,Y,232541,43.6422282,-84.2268722
232543,DAVITA - REDFORD,22711 GRAND RIVER AVE,,DETROIT,MI,48219,3132550171,Profit,Y,Y,232543,42.419313,-83.2658809
232544,GREENFIELD HS - NORTHWEST DETROIT,7800 W OUTER DR SUITE L10,,DETROIT,MI,48235,3132709239,Non-Profit,Y,Y,232544,42.4194695,-83.2147503
232545,DAVITA OF DETROIT - KRESGE,4145 CASS AVE,,DETROIT,MI,48201,3138334330,Profit,Y,N,232545,42.3500898,-83.0634842
232547,FMC - BATTLE CREEK SOUTH,"2845 CAPITAL AVE SW, STE 104",,BATTLE CREEK,MI,49015,2699793301,Profit,Y,Y,232547,42.2600584,-85.1985656
232548,FMC - EAST LANSING,2601 COOLIDGE RD STE A,,EAST LANSING,MI,48823,5173339400,Profit,Y,Y,232548,42.764107,-84.504277
232549,NOVI KIDNEY CENTER OF DAVITA,47250 W TEN MILE RD,,NOVI,MI,48374,2484494215,Profit,Y,Y,232549,42.4655936,-83.5114579
232550,DAVITA - GARDEN WEST,5715 N VENOY RD,,WESTLAND,MI,48185,7342619418,Profit,Y,N,232550,42.326403,-83.365819
232551,BRIGHTON DIALYSIS OF DAVITA,7960 GRAND RIVER RD STE 210,,BRIGHTON,MI,48114,8102256288,Profit,Y,N,232551,42.5591019,-83.7944474
232552,FMC DIALYSIS - BRIGHTON,"315 WEST NORTH ST, STE C",,BRIGHTON,MI,48116,8102251790,Profit,Y,Y,232552,42.528429,-83.7827121
232553,ALPENA DIALYSIS SERVICES,301 OXBOW DR,,ALPENA,MI,49707,9893563128,Non-Profit,Y,Y,232553,45.0616794,-83.4327528
232554,FMC DIALYSIS - CLINTON,35351-A GRATIOT AVE,,CLINTON TOWNSHIP,MI,48035,5867916203,Profit,Y,Y,232554,42.5583415,-82.8979186
232555,FMC DIALYSIS - ROMULUS,"11200 METRO AIRPORT CTR DR, SUITE 120",,ROMULUS,MI,48174,7349557333,Profit,Y,N,232555,42.222206,-83.3803447
232556,DIALYSIS SERVICES OF GAYLORD,1989 WALDEN DR,,GAYLORD,MI,49735,9897316418,Non-Profit,Y,N,232556,45.0033668,-84.6730511
232559,FMC - ALLEGAN,730 AIRWAY DR,,ALLEGAN,MI,49010,2696731700,Profit,Y,N,232559,42.5406989,-85.83103
232560,FMC - OSHTEMO,6739 SEECO DR,,KALAMAZOO,MI,49009,2693755815,Profit,Y,N,232560,42.2931661,-85.6807444
232561,FMC - KALAMAZOO,521 E MICHIGAN AVE,,KALAMAZOO,MI,49007,2693846180,Profit,Y,N,232561,42.294676,-85.574898
232562,DAVITA - MUSKEGON,1277  MERCY DR,,MUSKEGON HEIGHTS,MI,49444,2317371507,Profit,Y,Y,232562,43.2074247,-86.2127212
232563,DAVITA - GRAND HAVEN,16964 ROBBINS RD,,GRAND HAVEN,MI,49417,6168472825,Profit,Y,N,232563,43.044298,-86.209282
232564,RAI ROYAL PARK - ZEELAND,2 ROYAL PARK DR,,ZEELAND,MI,49464,6167480522,Profit,Y,N,232564,42.8028,-86.019387
232565,DAVITA - GRAND RAPIDS,801 CHERRY ST SE,,GRAND RAPIDS,MI,49506,6164585100,Profit,Y,Y,232565,42.9595672,-85.6493646
232566,RENAL ADVANTAGE - CLYDE PARK,4893 CLYDE PARK AVE SW,,WYOMING,MI,49509,6165315353,Profit,Y,Y,232566,42.8753431,-85.6844153
232567,GREENFIELD HS - EASTPOINTE,21400 KELLY RD,,EASTPOINTE,MI,48021,5867798779,Non-Profit,Y,Y,232567,42.455543,-82.9354773
232568,YPSILANTI DIALYSIS OF DAVITA,2766 WASHTENAW RD,,YPSILANTI,MI,48197,7345289280,Profit,Y,N,232568,42.2496717,-83.6546738
232569,GRAND BLANC DIALYSIS OF DAVITA,3625 GENESYS PKWY,,GRAND BLANC,MI,48439,8109538800,Profit,Y,Y,232569,42.889462,-83.6331371
232570,DAVITA - HIGHLAND PARK,64 VICTOR,,HIGHLAND PARK,MI,48203,3138527700,Profit,Y,N,232570,42.406807,-83.095264
232571,JACKSON DIALYSIS OF DAVITA,234 W LOUIS GLICK HWY STE 200,,JACKSON,MI,49201,5178411712,Profit,Y,N,232571,42.25009,-84.411173
232572,DAVITA - LUDINGTON,5 ATKINSON DR STE 101,,LUDINGTON,MI,49431,2318437060,Profit,Y,N,232572,43.9592162,-86.4292129
232573,THUMB AREA DIALYSIS CENTER,6757 MAIN ST,,CASS CITY,MI,48726,9898725544,Non-Profit,Y,N,232573,43.6010975,-83.1668488
232574,SOUTHEAST MICHIGAN KIDNEY CENTER,"1695 W 12 MILE RD, SUITE 250",,BERKLEY,MI,48072,2484145200,Profit,N,Y,232574,42.503164,-83.175414
232575,CLARKSTON DIALYSIS OF DAVITA,6770 DIXIE HWY STE 205,,CLARKSTON,MI,48346,2486200958,Profit,Y,N,232575,42.7205186,-83.4185446
232576,UNIV OF MI DIALYSIS CLINICS - ANN ARBOR,"2850 S INDUSTRIAL HWY, SUITE 100",,ANN ARBOR,MI,48104,7346771490,Non-Profit,Y,Y,232576,42.246557,-83.7307038
232577,UNIV OF MI DIALYSIS CLINICS - LIVONIA,"19900 HAGGERTY RD, SUITE 106",,LIVONIA,MI,48152,7344327870,Non-Profit,Y,N,232577,42.4327227,-83.4331534
232578,STATE FAIR DIALYSIS - DAVITA,19800 WOODWARD AVE,,DETROIT,MI,48203,3138938610,Profit,Y,N,232578,42.4384464,-83.119045
232579,DETROIT DIALYSIS OF DAVITA,2674 E JEFFERSON AVE,,DETROIT,MI,48207,3135672224,Profit,Y,N,232579,42.338557,-83.0218741
232580,FMC DIALYSIS - BEWICK,"10201 E JEFFERSON AVE, 1ST FL",SUITE A,DETROIT,MI,48214,3138243430,Profit,Y,Y,232580,42.3612206,-82.9877866
232581,FMC DIALYSIS - CONNER,5555 CONNER AVE SUITE 2003,,DETROIT,MI,48213,3139240019,Profit,Y,N,232581,42.391307,-82.9804493
232582,FMC DIALYSIS - WEST ANN ARBOR,2355 W STADIUM BLVD,,ANN ARBOR,MI,48103,7346232259,Profit,Y,N,232582,42.2772366,-83.778835
232583,DAVITA - SCHAEFER DR,18100 SCHAEFER HWY,,DETROIT,MI,48235,3138614354,Profit,Y,N,232583,42.4232765,-83.180089
232584,DAVITA - CADIEUX,6150 CADIEUX,,DETROIT,MI,48224,3136409295,Profit,Y,Y,232584,42.415186,-82.935328
232585,FMC - ESCANABA,3501 LUDINGTON ST,,ESCANABA,MI,49829,9067898009,Profit,Y,Y,232585,45.7457397,-87.1025078
232586,SAGINAW DIALYSIS CLINIC - DAVITA,1527 E GENESEE AVE,,SAGINAW,MI,48607,9897712000,Profit,Y,Y,232586,43.420327,-83.9257669
232587,RENAL ADVANTAGE - WEST NORTON,1080 WEST NORTON AVE,,MUSKEGON,MI,49441,2317805468,Profit,Y,Y,232587,43.190876,-86.2706433
232588,DAVITA - GRAND RAPIDS EAST,1230 EKHART ST NE,,GRAND RAPIDS,MI,49503,6167428930,Profit,Y,N,232588,42.9830849,-85.6398889
232589,FMC - MANISTEE,1293 E PARKDALE AVE,,MANISTEE,MI,49660,2313981790,Profit,Y,N,232589,44.2719369,-86.27591
232590,FMC - CADILLAC,203 PALUSTER ST,,CADILLAC,MI,49601,2317798917,Profit,Y,Y,232590,44.2409894,-85.3937703
232591,FMC - BALDWIN,1101 WASHINGTON AVE,,BALDWIN,MI,49304,2317452020,Profit,Y,N,232591,43.900871,-85.8490101
232592,DAVITA - DOWNRIVER KIDNEY CTR,5600 ALLEN RD,,ALLEN PARK,MI,48101,3133825933,Profit,Y,Y,232592,42.2623134,-83.2033935
232594,RRC - MT MORRIS,G-7220 N SAGINAW RD,,MOUNT MORRIS,MI,48458,8106876837,Profit,Y,N,232594,43.1124395,-83.694346
232596,DAVITA - ROMULUS,31470 ECORSE RD,,ROMULUS,MI,48174,7347225455,Profit,Y,N,232596,42.253359,-83.349131
232597,MOSES DIALYSIS UNIT,1140 N STATE ST,,SAINT IGNACE,MI,49781,9066430408,Non-Profit,Y,N,232597,45.8914178,-84.7276438
232598,BAY AREA REGL DIALYSIS CTR - SAGINAW RIVERSIDE,920 N NIAGARA ST,,SAGINAW,MI,48602,9899212170,Profit,Y,Y,232598,43.42145,-83.9536399
232599,RENAL ADVANTAGE - ROCKFORD PARK,311 ROCKFORD PARK DR NE,,ROCKFORD,MI,49341,6168636214,Profit,Y,Y,232599,43.141577,-85.552135
232600,DAVITA - GREENVIEW,18544 EIGHT MILE ROAD,,SOUTHFIELD,MI,48075,2485691729,Profit,Y,N,232600,42.4444971,-83.2254451
232601,FLUSHING DIALYSIS OF DAVITA,"3469 PIERSON PLACE, STE A",,FLUSHING,MI,48433,8107335004,Profit,Y,Y,232601,43.058743,-83.784096
232602,RRC - DAVISON,2031 FAIRWAY DR,,DAVISON,MI,48423,8106540138,Profit,Y,N,232602,43.0053337,-83.5178057
232604,SOUTHFIELD WEST DIALYSIS OF DAVITA,21900 MELROSE AVE,SUITE #4,SOUTHFIELD,MI,48075,2483568079,Profit,Y,Y,232604,42.4457502,-83.2570899
232605,DAVISON DIALYSIS OF DAVITA,1011 SOUTH STATE RD,,DAVISON,MI,48423,8106588224,Profit,Y,N,232605,43.0194992,-83.5176721
232606,FMC - THREE RIVERS,601 S HEALTH PKWY,,THREE RIVERS,MI,49093,2692734991,Profit,Y,N,232606,41.9345946,-85.6470475
232607,DAVITA - NEWAYGO COUNTY,1317 W MAIN ST,,FREMONT,MI,49412,2319244535,Profit,Y,N,232607,43.4672068,-85.9680108
232608,FLINT DIALYSIS OF DAVITA,"2 HURLEY PLAZA, SUITE 115",,FLINT,MI,48503,8102399920,Profit,Y,Y,232608,43.0227079,-83.7051946
232609,HALLWOOD DIALYSIS OF DAVITA,4929 CLIO ROAD STE B,,FLINT,MI,48504,8107874496,Profit,Y,N,232609,43.0576355,-83.7331633
232610,PARK PLAZA DIALYSIS OF DAVITA,G-1075 N BALLENGER HWY,,FLINT,MI,48504,8102358468,Profit,Y,N,232610,43.019295,-83.735279
232611,FMC - BIG RAPIDS,14307 NORTHLAND DR,,BIG RAPIDS,MI,49307,2315271622,Profit,Y,N,232611,43.6734624,-85.4833846
232612,NW DETROIT DIALYSIS - LAHSER SATELLITE,25664 LAHSER ROAD,,SOUTHFIELD,MI,48034,2483587521,Profit,Y,Y,232612,42.476739,-83.259876
232613,DAVITA OAK PARK DIALYSIS,13481 W 10 MILE RD,PARKSWOODS PLAZA,OAK PARK,MI,48237,2485829750,Profit,Y,N,232613,42.4742179,-83.1813506
232614,"GREAT LAKES DIALYSIS, LLC",14614 KERCHEVAL ST,,DETROIT,MI,48215,3133084200,Profit,Y,Y,232614,42.3794247,-82.9455881
232615,FMC - ST CLAIR SHORES,26210 HARPER AVE STE 200,,SAINT CLAIR SHORES,MI,48081,5867714868,Profit,Y,Y,232615,42.48586,-82.898284
232616,LIFE - ALYSIS KIDNEY CENTER,5830 CONNER STREET,,DETROIT,MI,48213,3133715433,Profit,Y,Y,232616,42.3945815,-82.9852437
232617,DAVITA BATTLE CREEK DIALYSIS,220 GOODALE AVE E STE B,,BATTLE CREEK,MI,49037,2699688401,Profit,Y,Y,232617,42.3408709,-85.1808975
232618,FMC - LANSING,"3960 PATIENT CARE DR, SUITE 112",,LANSING,MI,48911,5173930352,Profit,Y,N,232618,42.6774058,-84.5019838
232619,FRESENIUS MEDICAL CARE - TAYLOR,"22970 NORTHLINE ROAD, #100",,TAYLOR,MI,48180,7342876585,Profit,Y,N,232619,0,0
232620,FMC - TAWAS BAY,1698 E HURON,,EAST TAWAS,MI,48730,9893625267,Profit,Y,Y,232620,44.3312735,-83.3754648
232621,FMC - SOUTH HAVEN,199 VETERANS BLVD,,SOUTH HAVEN,MI,49090,2696391800,Profit,Y,Y,232621,42.4038738,-86.2441177
232622,WESTLAND DIALYSIS OF DAVITA,36588 FORD RD,,WESTLAND,MI,48185,7347211030,Profit,Y,N,232622,42.3242656,-83.4000659
232623,FMC - BATTLE CREEK NORTH,233 E ROOSEVELT AVE,,BATTLE CREEK,MI,49017,2699688860,Profit,Y,N,232623,42.3393936,-85.1837112
232624,DAVITA - BALLENGER POINTE,2262 S BALLENGER HWY,,FLINT,MI,48503,8102329004,Profit,Y,N,232624,42.9948407,-83.7331244
232625,FMC - CHARLOTTE,"111 LANSING ST, SUITE 120",,CHARLOTTE,MI,48813,5175436777,Profit,Y,N,232625,42.5652188,-84.8303553
232626,FMC - KALAMAZOO PD UNIT,527 EAST MICHIGAN AVE,,KALAMAZOO,MI,49007,2693846191,Profit,N,Y,232626,42.294676,-85.574898
232627,FMC - SHELBY,56065 VAN DYKE AVE,,SHELBY TOWNSHIP,MI,48316,5866772008,Profit,Y,Y,232627,42.7063312,-83.0350033
232628,ROCHESTER HILLS DIALYSIS OF DAVITA,1886 W AUBURN RD,SUITE 100,ROCHESTER HILLS,MI,48309,2482997901,Profit,Y,N,232628,42.635111,-83.1687078
232629,RRC - LAPEER,1375 N MAIN STREET,,LAPEER,MI,48446,8106675940,Profit,Y,N,232629,43.063291,-83.320827
232630,FMC - CHESTERFIELD,48656 GRATIOT AVE,,CHESTERFIELD,MI,48051,5869490329,Profit,Y,Y,232630,42.657512,-82.8467072
232631,DAVITA EAST DEARBORN DIALYSIS,13200 W WARREN AVE,SUITE A,DEARBORN,MI,48126,3135820131,Profit,Y,Y,232631,42.3441306,-83.1731388
232632,DAVITA - CHELSEA,1620 COMMERCE PARK DR,SUITE 200,CHELSEA,MI,48118,7344759710,Profit,Y,N,232632,42.298444,-84.029085
232633,FMC - KALAMAZOO EAST,2901 E KILGORE RD,,KALAMAZOO,MI,49001,2693451660,Profit,Y,N,232633,42.2450104,-85.5492696
232634,LANSING DIALYSIS OF FMC,2710 S WASHINGTON AVE,SUITE 100,LANSING,MI,48910,5172721380,Profit,Y,N,232634,42.7047242,-84.5584555
232635,FENTON DIALYSIS OF DAVITA,17420 SILVER PARKWAY,,FENTON,MI,48430,8107509200,Profit,Y,N,232635,42.7955915,-83.7380027
232637,COMMERCE TOWNSHIP DIALYSIS OF DAVITA,120 W COMMERCE RD,,COMMERCE TOWNSHIP,MI,48382,2483634862,Profit,Y,N,232637,42.5912733,-83.4814323
232638,DAVITA - IONIA DIALYSIS,2622 HEARTLAND BLVD,,IONIA,MI,48846,6165220265,Profit,Y,Y,232638,42.9483774,-85.0723736
232639,DAVITA - KALAMAZOO CENTRAL,535 S BURDICK #110,,KALAMAZOO,MI,49007,2693430251,Profit,Y,Y,232639,0,0
232640,RENAL ADVANTAGE - HOLLAND,649 HASTINGS AVE,,HOLLAND,MI,49423,6163923263,Profit,Y,Y,232640,42.770974,-86.084584
232641,DAVITA - KALAMAZOO WEST,"1040 N 10TH S, STE 100",,KALAMAZOO,MI,49009,2693534366,Profit,Y,Y,232641,42.29755,-85.6675902
232642,MACOMB REGIONAL DIALYSIS CENTER,16151 NINETEEN MILE ROAD,STE 200,CLINTON TOWNSHIP,MI,48038,5862638350,Profit,Y,Y,232642,42.613831,-82.959999
232643,GROSSE POINT DIALYSIS OF DAVITA,18000 E WARREN AVE,,DETROIT,MI,48224,3133435371,Profit,Y,Y,232643,42.409725,-82.9187479
232644,RRC - FLINT,G4007 CORUNNA RD,,FLINT,MI,48532,8108776582,Profit,Y,Y,232644,42.999908,-83.852291
232645,KALKASKA DIALYSIS CENTER,415 - 2ND ST,,KALKASKA,MI,49646,2312583680,Non-Profit,Y,N,232645,44.7304027,-85.1844958
232646,DAVITA - LANSING HOME HEMODIALYSIS,1676 WATER TOWER PL STE 700,,EAST LANSING,MI,48823,5172033998,Profit,N,N,232646,42.7369792,-84.4838654
232647,CLINTON TOWNSHIP DIALYSIS OF DAVITA,15918 NINETEEN MILE RD,SUITE 110,CLINTON TOWNSHIP,MI,48038,5864129195,Profit,Y,Y,232647,42.611144,-82.963272
232648,FMC - SANDUSKY,47 DAWSON ST,SUITE 3,SANDUSKY,MI,48471,8106489490,Profit,Y,Y,232648,43.4217614,-82.8402506
232649,REGIONAL DIALYSIS - GLADWIN,673 QUARTER ST,,GLADWIN,MI,48624,9892466440,Non-Profit,Y,N,232649,43.9742377,-84.495289
232650,FRESENIUS - IRON MOUNTAIN,1711 S STEPHENSON AVE,SUITE 130,IRON MOUNTAIN,MI,49801,9067761393,Profit,Y,N,232650,45.8085349,-88.0497688
232651,FMC - DUNDEE,129 HELLE BLVD,,DUNDEE,MI,48131,7345293406,Profit,Y,Y,232651,41.9576259,-83.6790819
232652,RRC - MARLETTE,2898 N MAIN ST,,MARLETTE,MI,48453,9896351111,Profit,Y,N,232652,43.3298769,-83.0801267
232653,DAVITA - DEARBORN AT HOME,22030 PARK ST,,DEARBORN,MI,48124,3137927343,Profit,N,Y,232653,42.3042574,-83.2437624
232654,FMC - CASS RIVER,5414 ROLLING HILLS DR,,BRIDGEPORT,MI,48722,9897771608,Profit,Y,Y,232654,41.2229004,-73.2763235
232655,FRESENIUS MEDICAL CARE - STURGIS,1276 KITSON ST,,STURGIS,MI,49091,2696513025,Profit,Y,Y,232655,41.8192869,-85.422157
232656,TEL HURON-WATERFORD DIALYSIS OF DAVITA,225 SUMMIT DR,SUMMIT CROSSING,WATERFORD,MI,48328,2486818345,Profit,Y,N,232656,42.6483602,-83.3324438
232657,FMC - CARO DIALYSIS,95 ELMDOR DR,,CARO,MI,48723,9896732045,Profit,Y,Y,232657,43.5023882,-83.3860802
232658,WAYNE COUNTY DIALYSIS,20001 LIVERNOIS AVE STE 500,,DETROIT,MI,48221,3138610340,Profit,Y,N,232658,42.4406589,-83.1421376
232659,FMC - GULL ROAD,5010 GULL RD,SUITE 6,KALAMAZOO,MI,49048,2693823012,Profit,Y,N,232659,42.319067,-85.5309814
232660,FMS - SHELDON CORNERS,6064 N SHELDON RD,,CANTON,MI,48187,7342076219,Profit,Y,Y,232660,42.3259418,-83.4782969
232661,DAVITA - WEST BLOOMFIELD DIALYSIS,6010 W MAPLE RD STE 215,,WEST BLOOMFIELD,MI,48322,2485391025,Profit,Y,N,232661,42.5425461,-83.3758641
232662,FRESENIUS MEDICAL CARE - JACKSON OAKS,128 N ELM AVE,,JACKSON,MI,49202,5177871893,Profit,Y,Y,232662,42.25263,-84.384939
232663,DAVITA - BURTON DIALYSIS,4015 DAVISON RD,,BURTON,MI,48509,8107151312,Profit,Y,Y,232663,43.0331998,-83.6347853
232664,LIBERTY DIALYSIS AT LAKELAND - ROYALTON,3772 HOLLYWOOD RD,,SAINT JOSEPH,MI,49085,2694287474,Non-Profit,Y,Y,232664,42.0486911,-86.4558887
232665,DAVITA - RIVERWOOD DIALYSIS,24467 W 10 MILE RD,,SOUTHFIELD,MI,48033,2483523137,Profit,Y,N,232665,42.4718347,-83.284152
232666,BEAUMONT DIALYSIS SVCS - FRANKLIN CENTER,26400 W 12 MILE RD STE 112,,SOUTHFIELD,MI,48034,2482288777,Non-Profit,Y,N,232666,42.500765,-83.30681
232667,FMC - GARDEN CITY,27201 W WARREN ST,,DEARBORN HEIGHTS,MI,48127,3132745568,Profit,Y,Y,232667,42.339776,-83.3098459
232668,LIBERTY DIALYSIS AT LAKELAND - NILES,8 LONGMEADOW VILLAGE DR,,NILES,MI,49120,2696840116,Non-Profit,Y,N,232668,41.825078,-86.309825
233300,CHILDRENS HOSP OF MI DIALYSIS (6 WEST),3901 BEAUBIEN BLVD,,DETROIT,MI,48201,3137455604,Non-Profit,Y,Y,233300,42.351646,-83.054347
233513,BEAUMONT HOSPITAL - ROCHESTER HILLS,6700 N ROCHESTER RD,,ROCHESTER HILLS,MI,48306,2486501533,Non-Profit,Y,N,233513,42.699514,-83.135647
233515,GREAT LAKES RENAL NW - GREENVILLE,101 S GREENVILLE WEST DR,,GREENVILLE,MI,48838,6162259500,Non-Profit,Y,Y,233515,43.1832561,-85.2778538
233517,SPARROW DIALYSIS - ST LAWRENCE CAMPUS,1210 W SAGINAW ST,,LANSING,MI,48915,5173647373,Non-Profit,Y,N,233517,42.741883,-84.5699099
233519,NORTHSTAR HEALTH SYSTEM - DIALYSIS,1328 US HWY 2,PO BOX 60,CRYSTAL FALLS,MI,49920,9068754746,Non-Profit,Y,N,233519,46.0857471,-88.3356169
233522,BEAUMONT HOSPITAL - HAZEL PARK,23231 JOHN R RD,,HAZEL PARK,MI,48030,2485450550,Non-Profit,Y,N,233522,42.4631313,-83.1040738
233523,GREAT LAKES RENAL NW - MT PLEASANT,404 S CRAPO ST,,MOUNT PLEASANT,MI,48858,9897798724,Non-Profit,Y,Y,233523,43.6012839,-84.7576584
240022,SANFORD REGL HOSPITAL - WORTHINGTON,1018 6TH AVE,PO BOX 997,WORTHINGTON,MN,56187,5073723279,Non-Profit,Y,N,240022,43.6218765,-95.5991397
240044,WINONA HEALTH SERVICES,DIALYSIS UNIT,855 MANKATO AVE,WINONA,MN,55987,5074574391,Non-Profit,Y,N,240044,44.0478889,-91.6404389
240049,"U OF MN MED CTR, FAIRVIEW - DIALYSIS","UNIV CAMPUS, MAYO BLDG C-223",420 DELAWARE ST SE,MINNEAPOLIS,MN,55455,6122733999,Non-Profit,Y,Y,240049,44.9720076,-93.2328535
240061,MAYO DIALYSIS ROCHESTER - METHODIST HOSP,"201 W CENTER ST, EI-1G",,ROCHESTER,MN,55905,5072668733,Non-Profit,Y,Y,240061,44.0557303,-92.5253639
240088,RICE MEMORIAL HOSPITAL,301 BECKER AVE SW,,WILLMAR,MN,56201,3202314235,Non-Profit,Y,Y,240088,45.1204885,-95.0463692
240093,IMMANUEL ST JOSEPHS HOSPITAL,1025 MARSH ST,,MANKATO,MN,56001,5073852666,Non-Profit,Y,Y,240093,44.1644935,-93.9845433
240101,SANFORD DIALYSIS DETROIT LAKES,114 EAST FRAZEE STREET,,DETROIT LAKES,MN,56501,2188470825,Non-Profit,Y,N,240101,46.816222,-95.843468
242501,EDINA DIALYSIS OF DAVITA,"6550 YORK AVE S, SUITE 110",,EDINA,MN,55435,9529259339,Profit,Y,N,242501,44.884786,-93.320204
242502,MARSHALL DIALYSIS OF DAVITA,300 S BRUCE ST,,MARSHALL,MN,56258,5075379348,Profit,Y,N,242502,44.447834,-95.777342
242503,MINNEAPOLIS DIALYSIS OF DAVITA,"825 S 8TH ST, SL42",,MINNEAPOLIS,MN,55404,6123475972,Profit,Y,N,242503,44.9605503,-93.2616717
242505,WEST ST PAUL DIALYSIS OF DAVITA,1555 LIVINGSTON AVE,,WEST ST PAUL,MN,55118,6514552995,Profit,Y,N,242505,44.899311,-93.083203
242507,FMC DIALYSIS - GOLDEN VALLEY,6155 DULUTH ST,,GOLDEN VALLEY,MN,55422,7635440298,Profit,Y,Y,242507,44.9997649,-93.3590229
242508,FARIBAULT DIALYSIS OF DAVITA,"201 S LYNDALE AVE, SUITE F",,FARIBAULT,MN,55021,5073340306,Profit,Y,N,242508,44.2893327,-93.290437
242510,FMC DIALYSIS - NORTH SUBURBAN,9144 SPRINGBROOK DR,,COON RAPIDS,MN,55433,7637830103,Profit,Y,Y,242510,45.1374584,-93.2741464
242511,MONTEVIDEO DIALYSIS OF DAVITA,824 N 11TH ST,,MONTEVIDEO,MN,56265,3202697451,Profit,Y,Y,242511,44.953122,-95.7135699
242512,MAPLEWOOD DIALYSIS OF DAVITA,"2785 WHITE BEAR AVE, SUITE 201",,MAPLEWOOD,MN,55109,6517792222,Profit,Y,N,242512,45.025017,-93.019047
242513,ST PAUL DIALYSIS OF DAVITA,"555 PARK ST, SUITE 180",,SAINT PAUL,MN,55103,6512918855,Profit,Y,N,242513,44.958327,-93.104434
242514,COON RAPIDS DIALYSIS OF DAVITA,"3960 COON RAPIDS BLVD, SUITE 309",,COON RAPIDS,MN,55433,7634218717,Profit,Y,N,242514,45.182757,-93.3672876
242515,BURNSVILLE DIALYSIS OF DAVITA,501 E NICOLLET BLVD,SUITE 150,BURNSVILLE,MN,55337,9528921117,Profit,Y,N,242515,44.750508,-93.269169
242516,PINE CITY DIALYSIS OF DAVITA,129 6TH AVE SE,,PINE CITY,MN,55063,7634447245,Profit,Y,N,242516,45.8233879,-92.9650933
242518,ARDEN HILLS DIALYSIS OF DAVITA,3900 NORTHWOODS DR STE 110,,ARDEN HILLS,MN,55112,6514833159,Profit,Y,N,242518,45.058401,-93.150543
242520,RED WING DIALYSIS OF DAVITA,3028 N SERVICE DR,,RED WING,MN,55066,6513887711,Profit,Y,Y,242520,44.5673699,-92.580836
242521,FMC DIALYSIS - HUTCHINSON,1069 HIGHWAY 15 SOUTH,,HUTCHINSON,MN,55350,3202344940,Profit,Y,N,242521,44.8760218,-94.3755301
242522,REDWOOD FALLS DIALYSIS OF DAVITA,100 FALLWOOD RD,,REDWOOD FALLS,MN,56283,5076373625,Profit,Y,N,242522,44.537005,-95.106905
242523,FMC DIALYSIS - ROSEVILLE,2045 RICE ST,,ROSEVILLE,MN,55113,6514893312,Profit,Y,Y,242523,45.003172,-93.106673
242526,MINNETONKA DIALYSIS OF DAVITA,17809 HUTCHINS DR,,MINNETONKA,MN,55345,9524709944,Profit,Y,N,242526,44.910891,-93.506053
242528,CASS LAKE DIALYSIS OF DAVITA,602 GRANT UTLEY STREET,,CASS LAKE,MN,56633,2183356671,Profit,Y,Y,242528,47.383339,-94.607986
242529,FMC DIALYSIS - BUFFALO,"104 MARTY DR, SUITE 2",,BUFFALO,MN,55313,7636820211,Profit,Y,N,242529,45.192707,-93.872986
242531,FOREST LAKE DIALYSIS OF DAVITA,"1068 S LAKE ST, SUITE 110",,FOREST LAKE,MN,55025,6519829212,Profit,Y,N,242531,45.268684,-92.984238
242532,FMC DIALYSIS - FERGUS FALLS,714 S MILL ST,,FERGUS FALLS,MN,56537,2187396208,Profit,Y,Y,242532,46.2771032,-96.0742304
242533,CAPITOL DIALYSIS OF DAVITA,"555 PARK ST, SUITE 230",,SAINT PAUL,MN,55103,6512213318,Profit,Y,N,242533,44.958327,-93.104434
242534,FMC DIALYSIS - SOUTH MINNEAPOLIS,4310 NICOLLET AVE S,,MINNEAPOLIS,MN,55409,6128224411,Profit,Y,Y,242534,44.924556,-93.278325
242535,RIVER CITY DIALYSIS,1970 NORTHWESTERN AVE N,,STILLWATER,MN,55082,6514300067,Profit,Y,N,242535,45.03705,-92.830524
242536,WOODBURY DIALYSIS OF DAVITA,1850 WEIR DR #3,,WOODBURY,MN,55125,6517304522,Profit,Y,N,242536,0,0
242539,RIVERSIDE DIALYSIS OF DAVITA,1045 WESTGATE DRIVE,SUITE 90,SAINT PAUL,MN,55114,6516451847,Profit,Y,Y,242539,44.9717105,-93.2050629
242541,PIPESTONE DIALYSIS OF DAVITA,916 4TH AVE SW,,PIPESTONE,MN,56164,5078256623,Profit,Y,N,242541,43.9914795,-96.3221274
242542,FMS DIALYSIS - SHAKOPEE,1515 SAINT FRANCIS AVE STE 150,,SHAKOPEE,MN,55379,9524031038,Profit,Y,Y,242542,44.771191,-93.502211
242544,FMC DIALYSIS - NEW BRIGHTON,"550 COUNTY RD D, SUITE 7",,NEW BRIGHTON,MN,55112,6516310885,Profit,Y,N,242544,45.0356469,-93.1954232
242545,FMC - PARK AVE DIALYSIS CENTER,2637 PARK AVE S,,MINNEAPOLIS,MN,55407,6128721946,Profit,Y,N,242545,44.954858,-93.2651293
242546,FMC MORA DIALYSIS CENTER,820 HOWE AVE,SUITE 104,MORA,MN,55051,3206791250,Profit,Y,N,242546,45.8751975,-93.2859381
242547,BLOOMINGTON DIALYSIS OF DAVITA,8591 LYNDALE AVE S,,BLOOMINGTON,MN,55420,9527035888,Profit,Y,N,242547,44.8481624,-93.2884594
242548,FMC DIALYSIS - DULUTH,530 EAST 2ND ST,,DULUTH,MN,55805,2187861533,Profit,Y,N,242548,46.7940433,-92.0928334
242549,FMC DIALYSIS - EVELETH,233 MCKINLEY AVE,,EVELETH,MN,55734,2187443226,Profit,Y,N,242549,47.4613556,-92.5347319
242550,FMC DIALYSIS - GRAND RAPIDS,410 SW 1ST AVE,,GRAND RAPIDS,MN,55744,2183271930,Profit,Y,N,242550,47.2277492,-93.5299462
242551,FMC DIALYSIS - CENTRAL MN REGIONAL DIALYSIS,124 RUM RIVER DR N,,PRINCETON,MN,55371,7633891045,Profit,Y,Y,242551,45.5693909,-93.580106
242553,MINNEAPOLIS NE DIALYSIS OF DAVITA,1049 10TH AVE SE,,MINNEAPOLIS,MN,55414,6123316088,Profit,Y,N,242553,44.9900915,-93.2370008
242554,ST LOUIS PARK DIALYSIS OF DAVITA,3505 LOUISIANA AVENUE,,SAINT LOUIS PARK,MN,55426,9522851400,Profit,Y,Y,242554,44.9394888,-93.3699518
242555,FRESENIUS MEDICAL CARE - SPIRIT VALLEY,4700 MIKE COLALILLO DRIVE,,DULUTH,MN,55807,2186247787,Profit,Y,Y,242555,46.743473,-92.1584314
242556,EDEN PRAIRIE DIALYSIS OF DAVITA,14852 SCENIC HEIGHTS ROAD,SUITE 255,EDEN PRAIRIE,MN,55344,9529342411,Profit,Y,N,242556,44.85596,-93.465618
242557,EAGAN DIALYSIS OF DAVITA,"2750 BLUE WATER RD, SUITE 300",,EAGAN,MN,55121,6516880132,Profit,Y,N,242557,44.856948,-93.135254
242559,FMC DIALYSIS SERVICES OF ST PAUL,445 ETNA STREET,SUITE 60,SAINT PAUL,MN,55106,6512513847,Profit,Y,N,242559,44.9549143,-93.0415017
242560,FRESENIUS MEDICAL CARE - CHAMPLIN,12339 CHAMPLIN DR,,CHAMPLIN,MN,55316,7634211032,Profit,Y,N,242560,45.1778257,-93.3927077
242561,FRESENIUS MEDICAL CARE OF HIBBING,750 E 34TH ST,SUITE 3127,HIBBING,MN,55746,2182637300,Profit,Y,N,242561,47.4111653,-92.931826
242562,FRESENIUS MEDICAL CARE  - MIDWAY ST PAUL,1690 UNIVERSITY AVE W,SUITE B - 100,SAINT PAUL,MN,55104,6519170081,Profit,Y,Y,242562,44.9554633,-93.1719983
242563,DAVITA - RICHFIELD,6601 LYNDALE AVE SOUTH,SUITE 150,RICHFIELD,MN,55423,6128692118,Profit,Y,Y,242563,44.8827,-93.28588
242564,DAVITA - NEW HOPE,5640 INTERNATIONAL PKWY,,NEW HOPE,MN,55428,7635370300,Profit,Y,N,242564,45.0558646,-93.3968787
242566,DAVITA - COTTAGE GROVE,8800 EAST POINT DOUGLAS DR,,COTTAGE GROVE,MN,55016,6514595655,Profit,Y,N,242566,44.8135893,-92.9288032
242567,SCOTT COUNTY DIALYSIS OF DAVITA,7456 SOUTH PARK DR,,SAVAGE,MN,55378,9522264766,Profit,Y,N,242567,44.7402028,-93.3745833
242568,DAVITA - UPTOWN,3601 LYNDALE AVENUE SOUTH,,MINNEAPOLIS,MN,55409,6128254583,Profit,Y,N,242568,44.937397,-93.287784
242569,FRIDLEY DIALYSIS OF DAVITA,5301 E RIVER RD NE,SUITE 117,FRIDLEY,MN,55421,7635715556,Profit,Y,N,242569,45.066076,-93.27839
242570,FMC - MAPLEWOOD HEIGHTS,2017 WOODLYN AVE,STE 32,MAPLEWOOD,MN,55109,6517485774,Profit,Y,N,242570,45.0332557,-93.0150619
242571,MAPLE GROVE DIALYSIS OF DAVITA,15655 GROVE CIR N,,MAPLE GROVE,MN,55369,7634202804,Profit,Y,Y,242571,45.1348893,-93.4766603
242572,FMC - COON RAPIDS,3465 NORTHDALE BLVD,,COON RAPIDS,MN,55448,7638626088,Profit,Y,N,242572,45.2079499,-93.353898
242573,HIGHLAND PARK DIALYSIS OF DAVITA,1559 7TH ST W,,SAINT PAUL,MN,55102,6512227139,Profit,Y,N,242573,44.917792,-93.14205
242574,SUN RAY DIALYSIS OF DAVITA,1758 OLD HUDSON ROAD,SUITE 100,SAINT PAUL,MN,55106,6517935191,Profit,Y,N,242574,44.9525561,-93.0260468
242575,FMC - SOUTHTOWN DIALYSIS,7901 XERXES AVE S,STE 103,BLOOMINGTON,MN,55431,9528816986,Profit,Y,N,242575,44.8596173,-93.318636
242576,DAVITA - WESTWOOD HILLS,7525 WAYZATA BLVD,,SAINT LOUIS PARK,MN,55426,9525461401,Profit,Y,N,242576,44.970542,-93.375628
242577,FMC - WEST ST PAUL DIALYSIS,1590 S ROBERT ST,STE 130,WEST ST PAUL,MN,55118,6514572232,Profit,Y,N,242577,44.8983723,-93.080426
242578,FRESENIUS MEDICAL CARE - WACONIA DIALYSIS,"560 S MAPLE ST, STE 6",,WACONIA,MN,55387,9524424605,Profit,Y,Y,242578,44.8428842,-93.7907644
242579,FMC - MAPLE GROVE DIALYSIS,"7365 KIRKWOOD CT N, STE 135",,MAPLE GROVE,MN,55369,7634940316,Profit,Y,Y,242579,45.088424,-93.43351
242580,FRESENIUS - ST LOUIS PARK DIALYSIS,5680 36TH ST W,,SAINT LOUIS PARK,MN,55416,9529260959,Profit,Y,Y,242580,44.9377588,-93.3512585
243511,IMMANUEL ST JOSEPHS - NEW ULM,1324 5TH ST N,,NEW ULM,MN,56073,5072331621,Non-Profit,Y,N,243511,44.3119634,-94.4763486
243513,CENTRACARE KIDNEY PROGRAM - BRAINERD,BUSINESS HIGHWAY 371,2024 SOUTH 6TH ST,BRAINERD,MN,56401,2188258964,Non-Profit,Y,N,243513,46.3158978,-94.2245717
243514,MAYO DIALYSIS - OWATONNA,2200 26TH STREET,,OWATONNA,MN,55060,5074465112,Non-Profit,Y,N,243514,44.109744,-93.250086
243515,MAYO DIALYSIS - WABASHA,1200 5TH GRANT BLVD W,,WABASHA,MN,55981,6515655995,Non-Profit,Y,N,243515,44.3858734,-92.0479188
243518,SANFORD DIALYSIS BEMIDJI,1600 ANNE ST NW,,BEMIDJI,MN,56601,2183335640,Non-Profit,Y,N,243518,47.5050218,-94.9041064
243521,CENTRACARE KIDNEY PROG AT ST GABRIELS HOSP,"808 3RD ST SE, #330",,LITTLE FALLS,MN,56345,3206315091,Non-Profit,Y,N,243521,0,0
243523,CENTRACARE KIDNEY PROG AT DOUGLAS COUNTY HOSP,111 17TH AVE S,,ALEXANDRIA,MN,56308,3207621226,Non-Profit,Y,N,243523,45.8730254,-95.3794292
243524,CENTRACARE KIDNEY PROGRAM AT BIG LAKE,16830 - 198TH AVE NW,,BIG LAKE,MN,55309,7632637320,Non-Profit,Y,N,243524,45.331925,-93.7094241
243525,SANFORD CANBY DIALYSIS,112 ST OLAF AVE S,,CANBY,MN,56220,5072237277,Non-Profit,Y,N,243525,44.7078303,-96.2776914
243526,CENTRACARE KIDNEY PROGRAM AT PRINCETON,"112 S RUM RIVER DR, SUITE 10",,PRINCETON,MN,55371,7633897969,Non-Profit,Y,N,243526,45.5695517,-93.5801048
243528,CENTRACARE KIDNEY PROGRAM,HEALTH PLAZA DIALYSIS,1900 CENTRACARE CIRCLE,SAINT CLOUD,MN,56303,3202294921,Non-Profit,Y,Y,243528,45.5711784,-94.193691
243529,MAYO DIALYSIS - FAIRMONT,835 JOHNSON ST,,FAIRMONT,MN,56031,5072385060,Non-Profit,Y,N,243529,43.6376497,-94.4496226
243530,SANFORD DIALYSIS MORRIS,400 E 1ST STREET,,MORRIS,MN,56267,3205892832,Non-Profit,Y,N,243530,45.5851896,-95.9055571
243531,CENTRACARE KIDNEY PROG AT LAKEWOOD HEALTH SYSTEM,403 EAST PRAIRIE AVE,,STAPLES,MN,56479,2188940026,Non-Profit,Y,N,243531,46.3758217,-94.7944796
243532,MAYO DIALYSIS ROCHESTER - NE CLINIC,3041 STONEHEDGE DRIVE NE,,ROCHESTER,MN,55906,5075388580,Non-Profit,Y,N,243532,44.055317,-92.435264
243533,SATELLITE DIALYSIS - ORTONVILLE,814 ROY ST,,ORTONVILLE,MN,56278,3208394070,Non-Profit,Y,N,243533,45.3149182,-96.4472663
243534,SANFORD DIALYSIS RED LAKE,RED LAKE HOSPITAL,HIGHWAY 1,RED LAKE,MN,56671,2186793117,Non-Profit,Y,N,243534,47.8935057,-95.4127003
243535,MAYO DIALYSIS - ALBERT LEA,1705 SE BROADWAY,ATTN: DIALYSIS,ALBERT LEA,MN,56007,5073775920,Non-Profit,Y,N,243535,43.6308014,-93.3584693
243536,CENTRACARE KIDNEY PROGRAM - LITCHFIELD,520 US HIGHWAY 12 E,STE 6,LITCHFIELD,MN,55355,3206937777,Non-Profit,Y,N,243536,45.1313157,-94.5281397
243537,CENTRACARE KIDNEY PROGRAM - CAMBRIDGE,520 SW 11TH AVE,SOUTH BLDG,CAMBRIDGE,MN,55008,7632637390,Non-Profit,Y,N,243537,45.5620341,-93.2303631
243538,SANFORD DIALYSIS THIEF RIVER FALLS,120 LABREE AVE S,,THIEF RIVER FALLS,MN,56701,2186834246,Non-Profit,Y,N,243538,48.1167049,-96.1801416
243539,CENTRACARE HOME DIALYSIS PROGRAM,48 29TH AVE N,,SAINT CLOUD,MN,56303,3202555792,Non-Profit,Y,Y,243539,45.5541097,-94.1931307
250001,UMC PEDIATRIC NEPHROLOGY,"2500 N. STATE ST, R116A",,JACKSON,MS,39216,6019845970,Non-Profit,Y,Y,250001,32.3305009,-90.1518394
252501,DSI JACKSON NORTH,571 BEASLEY RD,SUITE A (IN-CENTER CARE),JACKSON,MS,39206,6019571999,Profit,Y,Y,252501,32.385003,-90.151984
252502,HATTIESBURG CLINIC DIALYSIS,5909 HWY 49,SUITE 10,HATTIESBURG,MS,39402,6012962964,Profit,Y,Y,252502,31.310052,-89.320993
252503,RCG GREENVILLE,2001 S MEDICAL PARK DRIVE,,GREENVILLE,MS,38703,6623782454,Profit,Y,Y,252503,33.379719,-91.027026
252504,RCG MERIDIAN,2205 HWY 39 NORTH,,MERIDIAN,MS,39301,6014830606,Profit,Y,Y,252504,32.380292,-88.6814757
252505,FMC JACKSON,381 MEDICAL DRIVE,,JACKSON,MS,39216,6019819652,Profit,Y,Y,252505,32.335881,-90.1659379
252506,RCG BROOKHAVEN,534 IRBY DRIVE,,BROOKHAVEN,MS,39601,6018339720,Profit,Y,Y,252506,31.5790588,-90.4406506
252507,RCG CLARKSDALE,2010 N. STATE ST.,,CLARKSDALE,MS,38614,6626274786,Profit,Y,N,252507,34.1993362,-90.5510037
252508,RCG COLUMBUS,92 BROOKMOORE DR.,,COLUMBUS,MS,39705,6623279200,Profit,Y,Y,252508,33.518865,-88.427466
252509,RCG VICKSBURG,105 KEYSTONE CIRCLE,,VICKSBURG,MS,39180,6016346057,Profit,Y,N,252509,32.353079,-90.827011
252510,LAUREL DIALYSIS,1527 LARRY DRIVE,,LAUREL,MS,39440,6014251853,Profit,Y,N,252510,31.7274072,-89.1470536
252511,RCG OXFORD,1760 BARRON STREET,,OXFORD,MS,38655,6622343412,Profit,Y,N,252511,34.3429035,-89.5103465
252513,RCG TUPELO,2978 MATTOX STREET,,TUPELO,MS,38801,6628440009,Profit,Y,Y,252513,34.2181176,-88.7140127
252514,RCG GREENWOOD,609 TALLAHATCHIE STREET,,GREENWOOD,MS,38930,6624535208,Profit,Y,Y,252514,33.5277723,-90.2095096
252515,RCG NATCHEZ,312 HIGHLAND BLVD,,NATCHEZ,MS,39120,6014468060,Profit,Y,N,252515,31.5211572,-91.3963039
252516,SINGING RIVER DIALYSIS,4907 TELEPHONE RD,,PASCAGOULA,MS,39567,2287620701,Profit,Y,Y,252516,30.382557,-88.53608
252517,PEARL RIVER DIALYSIS,1835 COOPER ROAD,,PICAYUNE,MS,39466,6017988951,Profit,Y,N,252517,30.5474016,-89.6480843
252518,RCG CORINTH,810 ALCORN DRIVE,,CORINTH,MS,38834,6622879577,Profit,Y,N,252518,34.9364032,-88.5585636
252519,OCEAN SPRINGS DIALYSIS,13150 PONCE DE LEON RD,,OCEAN SPRINGS,MS,39564,2288183201,Profit,Y,Y,252519,30.436232,-88.828916
252520,RCG PHILADELPHIA,PO BOX 6264,,PHILADELPHIA,MS,39350,6016560282,Profit,Y,N,252520,32.7715227,-89.1167275
252521,DSI CANTON,620 E. PEACE ST.,,CANTON,MS,39046,6018593382,Profit,Y,N,252521,32.6127961,-90.0195307
252522,FMC CANTON,1976 HWY 43 N.,SUITE  F,CANTON,MS,39046,6018592285,Profit,Y,N,252522,32.6177743,-90.0013219
252523,COLUMBIA DIALYSIS,1214 HIGHWAY 98 BYPASS,,COLUMBIA,MS,39429,6017311234,Profit,Y,N,252523,31.2493264,-89.813071
252524,FMC SOUTHWEST JACKSON,1856 HOSPITAL DRIVE,,JACKSON,MS,39204,6013712896,Profit,Y,N,252524,32.283237,-90.253421
252525,RCG MCCOMB,1404 WHITE STREET,,MCCOMB,MS,39648,6016846380,Profit,Y,N,252525,31.2530043,-90.4696708
252527,RCG GRENADA,35 WEST MONROE STREET,,GRENADA,MS,38901,6622268229,Profit,Y,N,252527,33.7647751,-89.8038902
252528,RCG CLEVELAND,222 N. PEARMAN AVENUE,,CLEVELAND,MS,38732,6628436965,Profit,Y,N,252528,33.7457342,-90.7239083
252529,FMC MAGEE,211 FIRST STREET S.E.,,MAGEE,MS,39111,6018493053,Profit,Y,N,252529,31.872311,-89.7294828
252530,RCG ABERDEEN,308 HIGHWAY 8 WEST,,ABERDEEN,MS,39730,6623696149,Profit,Y,N,252530,33.8230159,-88.5525569
252531,RCG PORT GIBSON,123-A MCCOMB AVE,,PORT GIBSON,MS,39150,6014373707,Profit,Y,N,252531,31.9465223,-90.9868972
252532,RCG NEWTON,121 OLD 15 LOOP,,NEWTON,MS,39345,6016839485,Profit,Y,N,252532,32.333417,-89.1447581
252533,DSI JACKSON SOUTHWEST,1828 RAYMOND ROAD,,JACKSON,MS,39204,6013737897,Profit,Y,N,252533,32.278815,-90.263937
252534,WAYNESBORO DIALYSIS,950 MATTHEW DRIVE,,WAYNESBORO,MS,39367,6017355858,Profit,Y,N,252534,31.6746966,-88.6356561
252535,DSI JACKSON SOUTH,2460 TERRY RD,SUITE  27-J,JACKSON,MS,39204,6013739154,Profit,Y,N,252535,32.272108,-90.213505
252536,FMC YAZOO CITY,716 GRAND AVENUE,,YAZOO CITY,MS,39194,6627464172,Profit,Y,N,252536,32.8569637,-90.4043083
252537,FMC FOREST,1151 HWY 35 SOUTH,,FOREST,MS,39074,6014693390,Profit,Y,N,252537,32.3798709,-89.479372
252538,RCG STARKVILLE,104  W. GARRARD ROAD,,STARKVILLE,MS,39759,6623248300,Profit,Y,N,252538,33.4840036,-88.8152714
252539,DSI LEXINGTON,22579 DEPOT STREET,,LEXINGTON,MS,39095,6628343355,Profit,Y,N,252539,33.1128049,-90.0503543
252540,FMC GULFPORT S. MS KIDNEY CTR,4300 A WEST RAILROAD STREET,,GULFPORT,MS,39501,2288640009,Profit,Y,N,252540,30.363744,-89.113322
252541,RCG EUPORA,241 MEADOWLANE STREET,,EUPORA,MS,39744,6622586528,Profit,Y,N,252541,33.5352357,-89.2675271
252542,RCG INDIANOLA,627 HIGHWAY 82 WEST,,INDIANOLA,MS,38751,6628875155,Profit,Y,N,252542,33.4580363,-90.6418398
252543,FMC BILOXI,784 VIEUX MARCHE MALL,,BILOXI,MS,39530,2284369204,Profit,Y,Y,252543,30.3965546,-88.8884159
252544,FMC BAY ST LOUIS S. MS KIDNEY CTR,4405 EAST ALOHA DRIVE,SUITE I,DIAMONDHEAD,MS,39525,2282556679,Profit,Y,N,252544,30.376293,-89.3689222
252545,RCG HOLLY SPRINGS,1325 HIGHWAY 4 EAST,,HOLLY SPRINGS,MS,38635,6622526210,Profit,Y,N,252545,34.7314209,-89.4623236
252546,WIGGINS DIALYSIS,503 FIRST STREET,,WIGGINS,MS,39577,6019282999,Profit,Y,N,252546,30.8539454,-89.1377565
252547,FMC ORANGE GROVE,11531 OLD HIGHWAY 49,,GULFPORT,MS,39503,2288329293,Profit,Y,N,252547,30.456316,-89.106483
252548,FMC KOSCIUSKO,107 RIDGEWOOD CIRCLE,,KOSCIUSKO,MS,39090,6622893000,Profit,Y,N,252548,33.0665218,-89.5989392
252549,DSI BRANDON,101 CHRISTIAN DRIVE,,BRANDON,MS,39042,6018249764,Profit,Y,N,252549,32.271731,-90.03505
252550,"MID-DELTA KIDNEY CTR, INC.",1409 E. UNION STREET,,GREENVILLE,MS,38703,6623327100,Profit,N,Y,252550,33.4099003,-91.034939
252551,DSI HAZLEHURST,201 NORTH HALEY STREET,,HAZLEHURST,MS,39083,6018945509,Profit,Y,N,252551,31.8604537,-90.3924144
252552,RCG SOUTHAVEN,7318 SOUTHCREST PKWY,,SOUTHAVEN,MS,38671,6623492548,Profit,Y,Y,252552,34.9678236,-89.9951058
252553,FMC HAZLEHURST,232-A NORTH CALDWELL DRIVE,,HAZLEHURST,MS,39083,6018941300,Profit,Y,N,252553,31.8643331,-90.3965209
252554,BAY SPRINGS DIALYSIS,14 BAY AVENUE,,BAY SPRINGS,MS,39422,6017646427,Profit,Y,N,252554,31.9651834,-89.3004975
252555,RCG MAYERSVILLE,20019 HWY 61 SOUTH,P.O. BOX 9,ROLLING FORK,MS,39159,6628732272,Profit,Y,N,252555,32.905211,-90.872795
252556,LUCEDALE DIALYSIS,652 MANILA STREET,,LUCEDALE,MS,39452,6019478701,Profit,Y,N,252556,30.9199552,-88.5893884
252557,RCG SARDIS,200 EAST FRONTAGE ROAD,,SARDIS,MS,38666,6624873938,Profit,Y,N,252557,34.4394906,-89.8963171
252558,COLLINS DIALYSIS,15 COVINGTON RIDGE PLACE,,COLLINS,MS,39428,6017652711,Profit,Y,N,252558,31.6302623,-89.5559458
252559,TYLERTOWN DIALYSIS,4820 PLAZA DRIVE,#6,TYLERTOWN,MS,39667,6012220311,Profit,Y,N,252559,31.1160119,-90.1420331
252560,RCG MACON,703 NORTH WASHINGTON STREET,,MACON,MS,39341,6627269866,Profit,Y,N,252560,33.1229554,-88.5579565
252561,RICHTON DIALYSIS,507 FRONT STREET,HWY 15 NORTH,RICHTON,MS,39476,6017882555,Profit,Y,N,252561,31.3499232,-88.9358664
252562,DSI CARTHAGE,312 ELLIS STREET,,CARTHAGE,MS,39051,6012676856,Profit,Y,N,252562,32.740898,-89.517359
252563,FMC NORTH GULFPORT,2525 33RD STREET,,GULFPORT,MS,39501,2288641177,Profit,Y,N,252563,30.390581,-89.094362
252564,RCG CENTREVILLE,205 EAST MAIN STREET,,CENTREVILLE,MS,39631,6016459099,Profit,Y,N,252564,31.0883658,-91.0656685
252565,FMC DIBERVILLE,10374 LAMEY BRIDGE ROAD,,DIBERVILLE,MS,39540,2283921300,Profit,Y,N,252565,30.437845,-88.890804
252566,RCG LOUISVILLE,562-A EAST MAIN STREET,,LOUISVILLE,MS,39339,6627736565,Profit,Y,N,252566,33.1246212,-89.0337476
252567,RCG TUNICA,1821 US HIGHWAY 61 NORTH,,TUNICA,MS,38676,6623632620,Profit,Y,N,252567,34.6969834,-90.3757044
252568,FMC RANKIN COUNTY,141 GATEWAY DRIVE,,BRANDON,MS,39042,6015910053,Profit,Y,N,252568,32.285361,-90.021619
252569,SILVER CREEK DIALYSIS,21 EMU STREET,,SILVER CREEK,MS,39663,6018860072,Profit,Y,N,252569,31.598275,-89.998344
252570,PACHUTA DIALYSIS,P.O. BOX 340,(180 EAST MAIN STREET),PACHUTA,MS,39347,6017760973,Profit,Y,N,252570,32.0404284,-88.8847725
252571,DRG FAYETTE,225 COMMUNITY DRIVE,SUITE 300,FAYETTE,MS,39069,6014886347,Profit,Y,N,252571,34.9815472,-90.0175061
252572,RCG WINONA,410 HIGHWAY 82,,WINONA,MS,38967,6622836353,Profit,Y,N,252572,33.486973,-89.7590489
252573,RCG BELZONI,16451 U.S. HIGHWAY 49,,BELZONI,MS,39038,6622472255,Profit,Y,N,252573,33.184177,-90.54989
253503,MEDICAL MALL DIALYSIS,350 W. WOODROW WILSON,SUITE 479,JACKSON,MS,39213,6018156345,Non-Profit,Y,Y,253503,32.3269298,-90.1947446
260020,SAINT JOHNS MERCY MEDICAL CENTER DIALYSIS,615 S. NEW BALLAS RD.,,SAINT LOUIS,MO,63141,3142516424,Non-Profit,Y,N,260020,38.6428868,-90.4435476
260057,CAMERON REGIONAL MEDICAL CENTER RENAL DIALYSIS CENTER,1600 E EVERGREEN,,CAMERON,MO,64429,8166493398,Non-Profit,Y,N,260057,39.7317803,-94.230672
260100,SAMARITAN MEMORIAL HOSPITAL,1205 N MISSOURI ST,DIALYSIS UNIT,MACON,MO,63552,6603858744,Non-Profit,Y,N,260100,39.747832,-92.468823
260113,SIKESTON JAYCEE REGIONAL DIALYSIS CENTER,135 PLAZA DR # 101,,SIKESTON,MO,63801,5734727230,Non-Profit,Y,Y,260113,0,0
260137,FREEMAN NEPHROLOGY & DIALYSIS CENTER,932 E 34TH ST,,JOPLIN,MO,64804,4173478330,Non-Profit,Y,Y,260137,37.0508445,-94.5040132
260141,UNIVERSITY OF MISSOURI HOSPITAL & CLINICS DIALYSIS,ONE HOSPITAL DR.,,COLUMBIA,MO,65212,5738821051,Non-Profit,Y,Y,260141,38.9376581,-92.3282884
260172,SALEM MEMORIAL HOSPITAL,HWY 72 NORTH,P. O. BOX 774,SALEM,MO,65560,5737296626,Non-Profit,Y,N,260172,37.6339529,-91.4701504
260179,SAINT LUKES HOSPITAL - WEST DIALYSIS UNIT,232 S. WOODS MILL RD.,,CHESTERFIELD,MO,63017,3142056423,Non-Profit,Y,N,260179,38.654947,-90.509524
262501,KANSAS CITY DIALYSIS & TRANSPLANT CENTER,"6400 PROSPECT EAST BLDG, #100",,KANSAS CITY,MO,64132,8164442098,Profit,Y,Y,262501,0,0
262502,CHROMALLOY AMERICAN KIDNEY CENTER,4950 CHILDRENS PLACE,WOHL CLINIC BLDG,SAINT LOUIS,MO,63110,3143627209,Non-Profit,Y,N,262502,38.636995,-90.264349
262503,ST. LOUIS DIALYSIS CENTER,2610 CLARK AVE.,,SAINT LOUIS,MO,63103,3145340909,Profit,Y,Y,262503,38.6287449,-90.2177146
262504,NORTHLAND DIALYSIS,2750 CLAY EDWARDS DR. #100,,NORTH KANSAS CITY,MO,64116,8168422056,Profit,Y,Y,262504,0,0
262505,"DIALYSIS CLINICS, INC - KIRKSVILLE",600 ROSEWOOD DRIVE,,KIRKSVILLE,MO,63501,6606658372,Profit,Y,N,262505,40.208993,-92.5770427
262506,"DIALYSIS CLINICS, INC - COLUMBIA",3300 LEMONE BLVD,,COLUMBIA,MO,65201,5734431531,Non-Profit,Y,Y,262506,38.91417,-92.2909899
262507,BMA ST. LOUIS,10951 ST. CHARLES ROCK ROAD,,SAINT ANN,MO,63074,3147394691,Profit,Y,Y,262507,38.7345319,-90.3935424
262508,CREVE COEUR DIALYSIS CENTER,1009 EXECUTIVE PKWY #100,,CREVE COEUR,MO,63141,3144344770,Profit,Y,Y,262508,0,0
262509,METRO DIALYSIS CENTER - NORTH,2 GRANDVIEW PLAZA,,FLORISSANT,MO,63033,3148317990,Profit,Y,Y,262509,38.7737413,-90.3086065
262511,BLUE SPRINGS DIALYSIS CENTER,205 NW R D MIZE RD #205,,BLUE SPRINGS,MO,64014,8162292400,Profit,Y,N,262511,0,0
262513,"DIALYSIS CLINICS, INC - JEFFERSON CITY WEST",144 SCOTT STATION RD,,JEFFERSON CITY,MO,65109,5738935220,Non-Profit,Y,N,262513,38.593848,-92.252963
262514,RENAL CARE GROUP - JOPLIN WEST,1800 W. 30TH ST.,,JOPLIN,MO,64804,4177822055,Profit,Y,N,262514,37.0576349,-94.5350461
262515,"DIALYSIS CLINICS, INC - SEDALIA",950 MITCHELL RD,,SEDALIA,MO,65301,6608260566,Non-Profit,Y,N,262515,38.7116716,-93.2748843
