"Provider Number","Hospital Name","Address1","Address2","Address3","City","State","ZIP Code","County Name","Phone Number","Hospital Type","Hospital Ownership","Emergency Service","GeoProviderId","Lat","Lon"
"450034","CHRISTUS HOSPITAL","2830 CALDER AVENUE","","","BEAUMONT","TX","77702","JEFFERSON","4098927171","Acute Care Hospitals","Voluntary non-profit - Church","Yes","450034","30.0856117","-94.1313061"
"450035","ST JOSEPH MEDICAL CENTER","1401 ST. JOSEPH PARKWAY","","","HOUSTON","TX","77002","HARRIS","7137571000","Acute Care Hospitals","Government - Federal","Yes","450035","29.748021","-95.36609"
"450037","GOOD SHEPHERD MEDICAL CENTER","700 EAST MARSHALL AVENUE","","","LONGVIEW","TX","75601","GREGG","9033152000","Acute Care Hospitals","Voluntary non-profit - Private","Yes","450037","32.5021079","-94.7302581"
"450039","JPS HEALTH NETWORK","1500 S MAIN ST","","","FORT WORTH","TX","76104","TARRANT","8179213431","Acute Care Hospitals","Government - Hospital District or Authority","Yes","450039","32.728644","-97.325153"
"450040","COVENANT MEDICAL CENTER","3615 19TH STREET","","","LUBBOCK","TX","79410","LUBBOCK","8067256000","Acute Care Hospitals","Voluntary non-profit - Church","Yes","450040","33.576903","-101.8921"
"450042","PROVIDENCE HEALTH CENTER","6901 MEDICAL PARKWAY","","","WACO","TX","76712","MCLENNAN","2547514000","Acute Care Hospitals","Voluntary non-profit - Church","Yes","450042","31.5145691","-97.1997571"
"450044","UT SOUTHWESTERN UNIVERSITY HOSPITAL","5909 HARRY HINES BLVD","","","DALLAS","TX","75390","DALLAS","2148793758","Acute Care Hospitals","Government - State","Yes","450044","32.816047","-96.845957"
"450046","CHRISTUS SPOHN HOSPITAL CORPUS CHRISTI","600 ELIZABETH STREET","","","CORPUS CHRISTI","TX","78404","NUECES","3619024103","Acute Care Hospitals","Voluntary non-profit - Church","Yes","450046","27.775874","-97.395794"
"450051","METHODIST DALLAS MEDICAL CENTER","1441 NORTH BECKLEY AVENUE","","","DALLAS","TX","75203","DALLAS","2149472879","Acute Care Hospitals","Voluntary non-profit - Church","Yes","450051","32.7591876","-96.8232134"
"450052","GOODALL WITCHER HOSPITAL","101 S AVE T","","","CLIFTON","TX","76634","BOSQUE","2546758322","Acute Care Hospitals","Voluntary non-profit - Private","Yes","450052","31.7777686","-97.5887591"
"450054","SCOTT & WHITE MEMORIAL HOSPITAL","2401 31ST ST","","","TEMPLE","TX","76508","BELL","2547242111","Acute Care Hospitals","Voluntary non-profit - Private","Yes","450054","31.086581","-97.359807"
"450055","ROLLING PLAINS MEMORIAL HOSPITAL","200 E ARIZONA","","","SWEETWATER","TX","79556","NOLAN","3252351701","Acute Care Hospitals","Government - Hospital District or Authority","Yes","450055","32.4538518","-100.3982718"
"450056","SETON MEDICAL CENTER AUSTIN","1201 W 38TH ST","","","AUSTIN","TX","78705","TRAVIS","5123241000","Acute Care Hospitals","Voluntary non-profit - Church","Yes","450056","30.304815","-97.745591"
"450058","BAPTIST MEDICAL CENTER","111 DALLAS STREET","","","SAN ANTONIO","TX","78205","BEXAR","2102971020","Acute Care Hospitals","Proprietary","Yes","450058","29.433505","-98.492818"
"450064","TEXAS HEALTH ARLINGTON MEMORIAL HOSPITAL","800 W RANDOL MILL RD","","","ARLINGTON","TX","76012","TARRANT","8175486100","Acute Care Hospitals","Voluntary non-profit - Private","Yes","450064","32.748968","-97.1157939"
"450068","MEMORIAL HERMANN TEXAS MEDICAL CENTER","6411 FANNIN","","","HOUSTON","TX","77030","HARRIS","7137043700","Acute Care Hospitals","Voluntary non-profit - Private","Yes","450068","29.714641","-95.3973143"
"450072","BRAZOSPORT REGIONAL HEALTH SYSTEM","100 MEDICAL DRIVE","","","LAKE JACKSON","TX","77566","BRAZORIA","9792974411","Acute Care Hospitals","Voluntary non-profit - Private","Yes","450072","29.029697","-95.452427"
"450073","COGDELL MEMORIAL HOSPITAL","1700 COGDELL BLVD","","","SNYDER","TX","79549","SCURRY","3255747437","Acute Care Hospitals","Government - Local","Yes","450073","32.6884993","-100.9170314"
"450078","ANSON GENERAL HOSPITAL","101 AVENUE J","","","ANSON","TX","79501","JONES","3258233231","Acute Care Hospitals","Voluntary non-profit - Other","No","450078","32.7674854","-99.8955182"
"450079","BAYLOR MEDICAL CENTER AT IRVING","1901 N MACARTHUR BLVD","","","IRVING","TX","75061","DALLAS","9725798100","Acute Care Hospitals","Voluntary non-profit - Private","Yes","450079","32.8352","-96.961007"
"450080","TITUS REGIONAL MEDICAL CENTER","2001 N JEFFERSON","","","MOUNT PLEASANT","TX","75455","TITUS","9035776000","Acute Care Hospitals","Government - Hospital District or Authority","Yes","450080","33.1757289","-94.971802"
"450082","CHRISTUS SPOHN HOSPITAL BEEVILLE","1500 E HOUSTON HWY","","","BEEVILLE","TX","78102","BEE","3613542000","Acute Care Hospitals","Voluntary non-profit - Church","Yes","450082","28.4159118","-97.7319009"
"450083","EAST TEXAS MEDICAL CENTER","1000 SOUTH BECKHAM STREET","","","TYLER","TX","75701","SMITH","9035970351","Acute Care Hospitals","Voluntary non-profit - Private","Yes","450083","32.3375485","-95.291605"
"450085","GRAHAM REGIONAL MEDICAL CENTER","1301 MONTGOMERY ROAD","","","GRAHAM","TX","76450","YOUNG","9405493400","Acute Care Hospitals","Government - State","No","450085","33.0898841","-98.5844156"
"450087","NORTH HILLS HOSPITAL","4401 BOOTH CALLOWAY ROAD","","","NORTH RICHLAND HILLS","TX","76180","TARRANT","8172551000","Acute Care Hospitals","Proprietary","Yes","450087","32.829315","-97.213986"
"450090","NORTH TEXAS MEDICAL CENTER","1900 HOSPITAL BLVD","","","GAINESVILLE","TX","76240","COOKE","9406128600","Acute Care Hospitals","Government - Hospital District or Authority","Yes","450090","34.279115","-83.8386908"
"450092","FORT DUNCAN MEDICAL CENTER","3333 N FOSTER MALDONADO BLVD","","","EAGLE PASS","TX","78852","MAVERICK","8307735321","Acute Care Hospitals","Proprietary","Yes","450092","28.706064","-100.4550639"
"450097","BAYSHORE MEDICAL CENTER","4000 SPENCER HWY","","","PASADENA","TX","77504","HARRIS","7133592000","Acute Care Hospitals","Proprietary","Yes","450097","29.66363","-95.1850319"
"450099","PAMPA REGIONAL MEDICAL CENTER","1 MEDICAL PLAZA","","","PAMPA","TX","79065","GRAY","8066653721","Acute Care Hospitals","Proprietary","Yes","450099","29.656462","-95.2025273"
"450101","HILLCREST BAPTIST MEDICAL CENTER","100 HILLCREST MEDICAL BLVD","","","WACO","TX","76712","MCLENNAN","2542022000","Acute Care Hospitals","Voluntary non-profit - Church","Yes","450101","31.4904234","-97.1585087"
"450102","MOTHER FRANCES HOSPITAL","800 EAST DAWSON","","","TYLER","TX","75701","SMITH","9035938441","Acute Care Hospitals","Voluntary non-profit - Other","Yes","450102","32.3424876","-95.2925612"
"450104","GUADALUPE REGIONAL MEDICAL CENTER","1215 E COURT ST","","","SEGUIN","TX","78155","GUADALUPE","8303792411","Acute Care Hospitals","Government - Local","Yes","450104","29.567991","-97.947366"
"450107","LAS PALMAS MEDICAL CENTER","1801 NORTH OREGON STREET","","","EL PASO","TX","79902","EL PASO","9155211200","Acute Care Hospitals","Proprietary","Yes","450107","31.770318","-106.4987384"
"450108","CONNALLY MEMORIAL MEDICAL CENTER","499 10TH STREET","","","FLORESVILLE","TX","78114","WILSON","8303931300","Acute Care Hospitals","Government - Hospital District or Authority","No","450108","29.1502006","-98.1628026"
"450119","SOUTH TEXAS HEALTH SYSTEM","1102 W TRENTON ROAD","","","EDINBURG","TX","78539","HIDALGO","9563886000","Acute Care Hospitals","Proprietary","Yes","450119","26.2635227","-98.1845527"
"450123","RENAISSANCE HOSPITAL GROVES","5500 39TH ST","","","GROVES","TX","77619","JEFFERSON","4099625733","Acute Care Hospitals","Proprietary","Yes","450123","29.938893","-93.922125"
"450124","UNIVERSITY MEDICAL CENTER AT BRACKENRIDGE","601 E 15TH STREET","","","AUSTIN","TX","78701","TRAVIS","5123247000","Acute Care Hospitals","Government - Local","Yes","450124","30.2744056","-97.7339267"
"450128","KNAPP MEDICAL CENTER","1401 EAST EIGHT STREET","","","WESLACO","TX","78596","HIDALGO","9569688567","Acute Care Hospitals","Voluntary non-profit - Private","Yes","450128","25.9539035","-97.5112974"
"450130","NIX HEALTH CARE SYSTEM","414 NAVARRO","","","SAN ANTONIO","TX","78205","BEXAR","2102711800","Acute Care Hospitals","Proprietary","No","450130","29.425549","-98.489669"
"450132","MEDICAL CENTER HOSPITAL","500 W 4TH STREET","","","ODESSA","TX","79761","ECTOR","4326404000","Acute Care Hospitals","Government - Hospital District or Authority","Yes","450132","31.8446061","-102.3744838"
"450133","MIDLAND MEMORIAL HOSPITAL","2200 WEST ILLINOIS AVE","","","MIDLAND","TX","79701","MIDLAND","4326851111","Acute Care Hospitals","Government - Hospital District or Authority","Yes","450133","31.9957483","-102.0987166"
"450135","TEXAS HEALTH HARRIS METHODIST FORT WORTH","1301 PENNSYLVANIA AVENUE","","","FORT WORTH","TX","76104","TARRANT","8172502100","Acute Care Hospitals","Voluntary non-profit - Church","Yes","450135","32.736889","-97.33897"
"450137","BAYLOR ALL SAINTS MEDICAL CENTER AT FW","1400 EIGHTH AVE","","","FORT WORTH","TX","76104","TARRANT","8179262544","Acute Care Hospitals","Voluntary non-profit - Private","Yes","450137","32.7306945","-97.3437917"
"450143","SMITHVILLE REGIONAL HOSPITAL","800 EAST HIGHWAY 71","","","SMITHVILLE","TX","78957","BASTROP","5122373214","Acute Care Hospitals","Government - Hospital District or Authority","Yes","450143","30.003913","-97.136514"
"450144","PERMIAN REGIONAL MEDICAL CENTER ANDREWS COUNTY HO","720 HOSPITAL DRIVE","","","ANDREWS","TX","79714","ANDREWS","4325232200","Acute Care Hospitals","Government - Hospital District or Authority","Yes","450144","32.338104","-102.545872"
"450147","DETAR HOSPITAL NAVARRO","506 E SAN ANTONIO ST","","","VICTORIA","TX","77902","VICTORIA","3615757441","Acute Care Hospitals","Proprietary","Yes","450147","28.8076475","-96.9989598"
"450148","TEXAS HEALTH HARRIS METHODIST HOSPITAL CLEBURNE","201 WALLS DRIVE","","","CLEBURNE","TX","76033","JOHNSON","8176412551","Acute Care Hospitals","Voluntary non-profit - Church","Yes","450148","32.3304533","-97.437567"
"450152","METROPLEX HOSPITAL","2201 S CLEAR CREEK ROAD","","","KILLEEN","TX","76542","BELL","2545267523","Acute Care Hospitals","Voluntary non-profit - Church","Yes","450152","31.112485","-97.800866"
"450154","VAL VERDE REGIONAL MEDICAL CENTER","801 BEDELL AVE","","","DEL RIO","TX","78840","VAL VERDE","8307758566","Acute Care Hospitals","Government - Hospital District or Authority","Yes","450154","29.3740206","-100.8926418"
"450155","HEREFORD REGIONAL MEDICAL CENTER","801 EAST THIRD","","","HEREFORD","TX","79045","DEAF SMITH","8063642141","Acute Care Hospitals","Government - Hospital District or Authority","No","450155","34.820316","-102.3919115"
"450162","GRACE MEDICAL CENTER","2412 50TH ST","","","LUBBOCK","TX","79412","LUBBOCK","8067884100","Acute Care Hospitals","Proprietary","Yes","450162","33.5489996","-101.8702058"
"450163","CHRISTUS SPOHN HOSPITAL KLEBERG","1311 EAST GENERAL CAVAZOS BLVD","","","KINGSVILLE","TX","78363","KLEBERG","3615959701","Acute Care Hospitals","Voluntary non-profit - Church","Yes","450163","27.4914491","-97.8475825"
"450165","SOUTH TEXAS REGIONAL MEDICAL CENTER","1905 HWY 97 EAST","","","JOURDANTON","TX","78026","ATASCOSA","8307693515","Acute Care Hospitals","Proprietary","Yes","450165","28.924424","-98.537197"
"450176","MISSION REGIONAL MEDICAL CENTER","900 SOUTH BRYAN ROAD","","","MISSION","TX","78572","HIDALGO","9563239000","Acute Care Hospitals","Government - Local","Yes","450176","26.1966508","-98.314091"
"450177","UVALDE MEMORIAL HOSPITAL","1025 GARNER FIELD ROAD","","","UVALDE","TX","78801","UVALDE","8302786251","Acute Care Hospitals","Government - Hospital District or Authority","Yes","450177","29.2146563","-99.7696154"
"450178","PECOS COUNTY MEMORIAL HOSPITAL","387 WEST I 10","","","FORT STOCKTON","TX","79735","PECOS","4323364201","Acute Care Hospitals","Government - Local","Yes","450178","30.8939797","-102.8760661"
"450184","MEMORIAL HERMANN HOSPITAL SYSTEM","1635  NORTH LOOP WEST","","","HOUSTON","TX","77008","HARRIS","7134486796","Acute Care Hospitals","Voluntary non-profit - Other","Yes","450184","29.8122366","-95.4308649"
"450187","TRINITY MEDICAL CENTER","700 MEDICAL PARKWAY","","","BRENHAM","TX","77833","WASHINGTON","9798366173","Acute Care Hospitals","Voluntary non-profit - Church","Yes","450187","30.145561","-96.399438"
"450188","ETMC CLARKSVILLE","3000 W MAIN ST","","","CLARKSVILLE","TX","75426","RED RIVER","9034273851","Acute Care Hospitals","Voluntary non-profit - Other","Yes","450188","33.6119704","-95.0994204"
"450192","HILL REGIONAL HOSPITAL","101 CIRCLE DRIVE","","","HILLSBORO","TX","76645","HILL","2545808500","Acute Care Hospitals","Proprietary","Yes","450192","32.012439","-97.099195"
"450193","ST LUKES EPISCOPAL HOSPITAL","6720 BERTNER","","","HOUSTON","TX","77030","HARRIS","8323551000","Acute Care Hospitals","Voluntary non-profit - Church","Yes","450193","29.7070599","-95.40046"
"450194","EAST TEXAS MEDICAL CENTER JACKSONVILLE","501 S RAGSDALE","","","JACKSONVILLE","TX","75766","CHEROKEE","9035415000","Acute Care Hospitals","Voluntary non-profit - Private","Yes","450194","31.960715","-95.270981"
"450196","PARIS REGIONAL MEDICAL CENTER","820 CLARKSVILLE ST","","","PARIS","TX","75460","LAMAR","9037854521","Acute Care Hospitals","Proprietary","Yes","450196","33.659842","-95.547519"
"450200","WADLEY REGIONAL MEDICAL CENTER","1000 PINE STREET","","","TEXARKANA","TX","75501","BOWIE","9037988000","Acute Care Hospitals","Voluntary non-profit - Private","Yes","450200","33.4279309","-94.0467961"
"450203","WEATHERFORD REGIONAL MEDICAL CENTER","713 E ANDERSON ST","","","WEATHERFORD","TX","76086","PARKER","8175991190","Acute Care Hospitals","Proprietary","Yes","450203","32.747054","-97.787055"
"450209","NORTHWEST TEXAS HOSPITAL","1501 COULTER ROAD","","","AMARILLO","TX","79106","POTTER","8063541110","Acute Care Hospitals","Proprietary","Yes","450209","35.1966149","-101.9218435"
"450210","ETMC CARTHAGE","409 WEST COTTAGE","","","CARTHAGE","TX","75633","PANOLA","936933841","Acute Care Hospitals","Government - Local","Yes","450210","32.1673015","-94.3468849"
"450211","MEMORIAL HEALTH SYSTEM OF EAST TEXAS- LUFKIN","1201 WEST FRANK STREET","","","LUFKIN","TX","75901","ANGELINA","9366348111","Acute Care Hospitals","Voluntary non-profit - Private","Yes","450211","31.3363231","-94.7421221"
"450213","UNIVERSITY HEALTH SYSTEM","4502 MEDICAL DR","","","SAN ANTONIO","TX","78229","BEXAR","2103582000","Acute Care Hospitals","Government - Hospital District or Authority","Yes","450213","29.508219","-98.578543"
"450214","GULF COAST MEDICAL CENTER","10141 US 59 NORTH","","","WHARTON","TX","77488","WHARTON","9795322500","Acute Care Hospitals","Proprietary","Yes","450214","38.3197567","-95.2512159"
"450219","LLANO MEMORIAL HEALTHCARE SYSTEM","200 W OLLIE","","","LLANO","TX","78643","LLANO","3252475040","Acute Care Hospitals","Voluntary non-profit - Private","No","450219","30.742871","-98.677685"
"450221","MOORE COUNTY HOSPITAL DISTRICT","224 E SECOND STREET","","","DUMAS","TX","79029","MOORE","8069357171","Acute Care Hospitals","Government - Hospital District or Authority","Yes","450221","35.8642379","-101.9714687"
"450222","CONROE REGIONAL MEDICAL CENTER","504 MEDICAL CENTER BLVD","","","CONROE","TX","77304","MONTGOMERY","9365391111","Acute Care Hospitals","Proprietary","Yes","450222","30.284734","-95.467136"
"450224","MOTHER FRANCES HOSPITAL- WINNSBORO","719 WEST COKE ROAD","","","WINNSBORO","TX","75494","WOOD","9033425227","Acute Care Hospitals","Voluntary non-profit - Private","Yes","450224","32.94631","-95.31189"
"450229","HENDRICK MEDICAL CENTER","1900 PINE","","","ABILENE","TX","79601","TAYLOR","3256702000","Acute Care Hospitals","Voluntary non-profit - Church","Yes","450229","32.4725139","-99.733461"
"450231","BAPTIST ST ANTHONYS HEALTH SYSTEM-BAPTIST CAMPUS","1600 WALLACE BLVD","","","AMARILLO","TX","79106","POTTER","8062122000","Acute Care Hospitals","Voluntary non-profit - Church","Yes","450231","35.196412","-101.919214"
"450234","COMANCHE COUNTY MEDICAL CENTER","10201 HWY 16N","","","COMANCHE","TX","76442","COMANCHE","2548794900","Acute Care Hospitals","Government - Hospital District or Authority","Yes","450234","0","0"
"450235","MEMORIAL HOSPITAL","1110 NORTH SARAH DEWITT DRIVE","","","GONZALES","TX","78629","GONZALES","8306727581","Acute Care Hospitals","Voluntary non-profit - Other","Yes","450235","0","0"
"450236","HOPKINS COUNTY MEMORIAL HOSPITAL","115 AIRPORT RD","","","SULPHUR SPRINGS","TX","75482","HOPKINS","9038857671","Acute Care Hospitals","Government - Hospital District or Authority","Yes","450236","33.1561163","-95.5992635"
"450237","CHRISTUS SANTA ROSA HOSPITAL","333 N SANTA ROSA STREET","","","SAN ANTONIO","TX","78207","BEXAR","2107943336","Acute Care Hospitals","Voluntary non-profit - Church","Yes","450237","29.428254","-98.498592"
"450241","FAITH COMMUNITY HOSPITAL","717 MAGNOLIA ST","","","JACKSBORO","TX","76458","JACK","9405676633","Acute Care Hospitals","Government - Hospital District or Authority","Yes","450241","33.2260072","-98.1705198"
"450243","HAMLIN MEMORIAL HOSPITAL","632 N W SECOND STREET","","","HAMLIN","TX","79520","JONES","3255763646","Acute Care Hospitals","Government - Local","No","450243","32.8851763","-100.1347012"
"450253","BELLVILLE GENERAL HOSPITAL","44 N CUMMINGS","","","BELLVILLE","TX","77418","AUSTIN","9798653141","Acute Care Hospitals","Government - Hospital District or Authority","Yes","450253","29.9516463","-96.2610889"
"450270","LAKE WHITNEY MEDICAL CENTER","200 N SAN JACINTO STREET","","","WHITNEY","TX","76692","HILL","2546943165","Acute Care Hospitals","Proprietary","Yes","450270","31.951307","-97.319468"
"450271","WISE REGIONAL HEALTH SYSTEM","609 MEDICAL CENTER DRIVE","","","DECATUR","TX","76234","WISE","9406275921","Acute Care Hospitals","Government - Hospital District or Authority","Yes","450271","33.2199022","-97.5938317"
"450272","CENTRAL TEXAS MEDICAL CENTER","1301 WONDER WORLD DRIVE","","","SAN MARCOS","TX","78666","HAYS","5127533690","Acute Care Hospitals","Voluntary non-profit - Church","Yes","450272","29.852249","-97.945928"
"450280","BAYLOR MEDICAL CENTER AT GARLAND","2300 MARIE CURIE DRIVE","","","GARLAND","TX","75042","DALLAS","9724875000","Acute Care Hospitals","Government - Federal","Yes","450280","32.919554","-96.660812"
"450283","COZBY-GERMANY HOSPITAL","707 N WALDRIP","","","GRAND SALINE","TX","75140","VAN ZANDT","9039624242","Acute Care Hospitals","Voluntary non-profit - Private","Yes","450283","32.6790374","-95.7217785"
"450289","HARRIS COUNTY HOSPITAL DISTRICT","2525 HOLLY HALL","","","HOUSTON","TX","77054","HARRIS","7135666417","Acute Care Hospitals","Government - Hospital District or Authority","Yes","450289","29.686739","-95.386519"
"450292","TEXAS HEALTH PRESBYTERIAN HOSPITAL KAUFMAN","850 W HWY 243","","","KAUFMAN","TX","75142","KAUFMAN","9729327200","Acute Care Hospitals","Voluntary non-profit - Church","Yes","450292","32.5921752","-96.3184231"
"450293","FRIO REGIONAL HOSPITAL","200 S IH 35","","","PEARSALL","TX","78061","FRIO","8303343617","Acute Care Hospitals","Government - Hospital District or Authority","Yes","450293","28.7410872","-99.1427259"
"450296","CLEVELAND REGIONAL MEDICAL CTR","300 E CROCKETT","","","CLEVELAND","TX","77327","LIBERTY","2815931811","Acute Care Hospitals","Proprietary","Yes","450296","30.341828","-95.08553"
"450299","COLLEGE STATION MEDICAL CENTER","1604 ROCK PRAIRIE ROAD","","","COLLEGE STATION","TX","77842","BRAZOS","9797645151","Acute Care Hospitals","Proprietary","Yes","450299","30.581736","-96.292304"
"450306","STAMFORD MEMORIAL HOSPITAL","1601 COLUMBIA STREET","","","STAMFORD","TX","79553","JONES","3257732725","Acute Care Hospitals","Government - Hospital District or Authority","No","450306","32.927671","-99.783636"
"450315","VISTA HOSPITAL OF DALLAS","2696 WEST WALNUT STREET","","","GARLAND","TX","75042","DALLAS","9722767116","Acute Care Hospitals","Proprietary","Yes","450315","32.9163236","-96.6692542"
"450324","TEXOMA MEDICAL CENTER","5016 S US HIGHWAY 75","","","DENISON","TX","75020","GRAYSON","9034164000","Acute Care Hospitals","Proprietary","Yes","450324","33.71028","-96.5851385"
"450330","OAKBEND MEDICAL CENTER","1705 JACKSON ST","","","RICHMOND","TX","77469","FORT BEND","2813413000","Acute Care Hospitals","Government - Hospital District or Authority","Yes","450330","29.576232","-95.769992"
"450340","SAN ANGELO COMMUNITY MEDICAL CENTER","3501 KNICKERBOCKER ROAD","","","SAN ANGELO","TX","76904","TOM GREEN","3259499511","Acute Care Hospitals","Proprietary","Yes","450340","31.4200961","-100.4701323"
"450346","MEMORIAL HERMANN BAPTIST BEAUMONT HOSPITAL","3080 COLLEGE STREET","","","BEAUMONT","TX","77701","JEFFERSON","4092125012","Acute Care Hospitals","Voluntary non-profit - Church","Yes","450346","30.070355","-94.119863"
"450347","HUNTSVILLE MEMORIAL HOSPITAL","110 MEMORIAL HOSPITAL DRIVE","","","HUNTSVILLE","TX","77340","WALKER","9362913411","Acute Care Hospitals","Voluntary non-profit - Private","Yes","450347","30.699172","-95.559476"
"450348","FALLS COMMUNITY HOSPITAL AND CLINIC","322 COLEMAN STREET","","","MARLIN","TX","76661","FALLS","2548033561","Acute Care Hospitals","Voluntary non-profit - Private","Yes","450348","31.3072812","-96.8939448"
"450351","TEXAS HEALTH HARRIS METHODIST HOSPITAL STEPHENVILL","411 N BELKNAP ST","","","STEPHENVILLE","TX","76401","ERATH","2549651500","Acute Care Hospitals","Voluntary non-profit - Private","Yes","450351","32.2221951","-98.204183"
"450352","HUNT REGIONAL MEDICAL CENTER","4215 JOE RAMSEY BLVD","","","GREENVILLE","TX","75401","HUNT","9034085000","Acute Care Hospitals","Government - Hospital District or Authority","Yes","450352","33.122565","-96.123569"
"450358","METHODIST HOSPITALTHE","6565 FANNIN","","","HOUSTON","TX","77030","HARRIS","7137902221","Acute Care Hospitals","Voluntary non-profit - Church","Yes","450358","29.709786","-95.399866"
"450369","CHILDRESS REGIONAL MEDICAL CENTER","HWY 83 NORTH","","","CHILDRESS","TX","79201","CHILDRESS","9409376371","Acute Care Hospitals","Government - Hospital District or Authority","Yes","450369","34.6573","-100.188993"
"450370","COLUMBUS COMMUNITY HOSPITAL","110 SHULT DR","","","COLUMBUS","TX","78934","COLORADO","9797322371","Acute Care Hospitals","Voluntary non-profit - Private","No","450370","29.6946526","-96.5409876"
"450372","BAYLOR MEDICAL CENTER AT WAXAHACHIE","1405 W JEFFERSON ST","","","WAXAHACHIE","TX","75165","ELLIS","9729237000","Acute Care Hospitals","Voluntary non-profit - Other","Yes","450372","32.3960937","-96.8640475"
"450373","EAST TEXAS MEDICAL CENTER MOUNT VERNON","500 S STATE HWY 37","","","MOUNT VERNON","TX","75457","FRANKLIN","9035374552","Acute Care Hospitals","Voluntary non-profit - Private","No","450373","33.1888511","-95.2271773"
"450379","DALLAS MEDICAL CENTER","7 MEDICAL PARKWAY","","","DALLAS","TX","75234","DALLAS","9722471000","Acute Care Hospitals","Proprietary","Yes","450379","32.9152722","-96.869362"
"450388","METHODIST HOSPITAL","7700 FLOYD CURL DR","","","SAN ANTONIO","TX","78229","BEXAR","2105754000","Acute Care Hospitals","Proprietary","Yes","450388","29.507955","-98.572241"
"450389","EAST TEXAS MEDICAL CENTER ATHENS","2000 SOUTH PALESTINE","","","ATHENS","TX","75751","HENDERSON","9036761000","Acute Care Hospitals","Voluntary non-profit - Private","Yes","450389","32.1716506","-95.8441681"
"450395","MEMORIAL MEDICAL CENTER LIVINGSTON","1717 HWY 59 BYPASS","","","LIVINGSTON","TX","77351","POLK","9363274381","Acute Care Hospitals","Government - Local","Yes","450395","30.6899519","-94.9354353"
"450399","BROWNFIELD REGIONAL MEDICAL CENTER","705 EAST FELT STREET","","","BROWNFIELD","TX","79316","TERRY","8066373551","Acute Care Hospitals","Government - Hospital District or Authority","Yes","450399","33.1870815","-102.2677509"
"450400","PARKVIEW REGIONAL HOSPITAL","600 SOUTH BONHAM STREET","","","MEXIA","TX","76667","LIMESTONE","2545625332","Acute Care Hospitals","Proprietary","Yes","450400","31.6750807","-96.4799899"
"450403","MEDICAL CENTER OF MCKINNEY","4500 MEDICAL CENTER DRIVE","","","MCKINNEY","TX","75069","COLLIN","9725478000","Acute Care Hospitals","Voluntary non-profit - Private","Yes","450403","33.159465","-96.63669"
"450411","EASTLAND MEMORIAL HOSPITAL","304 S DAUGHERTY","","","EASTLAND","TX","76448","EASTLAND","2546292601","Acute Care Hospitals","Government - Hospital District or Authority","Yes","450411","32.3998803","-98.8214178"
"450419","TEXAS HEALTH HARRIS METHODIST HOSPITAL AZLE","108 DENVER TRAIL","","","AZLE","TX","76020","TARRANT","8174448700","Acute Care Hospitals","Voluntary non-profit - Church","Yes","450419","32.881083","-97.533274"
"450422","BAYLOR MEDICAL CENTER AT UPTOWN","2727 EAST LEMMON AVENUE BUILDING I","","","DALLAS","TX","75204","DALLAS","2144433000","Acute Care Hospitals","Voluntary non-profit - Private","Yes","450422","32.8041981","-96.7944335"
"450424","SAN JACINTO METHODIST HOSPITAL","4401 GARTH ROAD","","","BAYTOWN","TX","77521","HARRIS","2814208600","Acute Care Hospitals","Voluntary non-profit - Church","Yes","450424","29.769031","-94.978977"
"450431","ST DAVIDS HOSPITAL","919 E 32ND ST","","","AUSTIN","TX","78705","TRAVIS","5124767111","Acute Care Hospitals","Voluntary non-profit - Other","Yes","450431","30.290047","-97.7252631"
"450438","COLORADO FAYETTE MEDICAL CENTER","400 YOUENS DRIVE","","","WEIMAR","TX","78962","COLORADO","9797259531","Acute Care Hospitals","Voluntary non-profit - Private","Yes","450438","29.6932895","-96.7846563"
"450446","RIVERSIDE GENERAL HOSPITAL","3204 ENNIS ST","","","HOUSTON","TX","77004","HARRIS","7135262441","Acute Care Hospitals","Voluntary non-profit - Private","No","450446","29.731065","-95.3623549"
"450447","NAVARRO REGIONAL HOSPITAL","3201 WEST HIGHWAY 22","","","CORSICANA","TX","75110","NAVARRO","9036546800","Acute Care Hospitals","Proprietary","Yes","450447","32.0851014","-96.5037663"
"450451","GLEN ROSE MEDICAL CENTER","1021 HOLDEN STREET","","","GLEN ROSE","TX","76043","SOMERVELL","2548972215","Acute Care Hospitals","Government - Hospital District or Authority","Yes","450451","32.2407894","-97.7482955"
"450460","TYLER COUNTY HOSPITAL","1100 WEST BLUFF","","","WOODVILLE","TX","75979","TYLER","4092838141","Acute Care Hospitals","Government - Hospital District or Authority","No","450460","30.7753053","-94.4268726"
"450462","TEXAS HEALTH PRESBYTERIAN HOSPITAL  DALLAS","8200 WALNUT HILL LANE","","","DALLAS","TX","75231","DALLAS","2143456789","Acute Care Hospitals","Voluntary non-profit - Private","Yes","450462","32.8831059","-96.7633221"
"450465","MATAGORDA REGIONAL MEDICAL CENTER","104 7TH STREET","","","BAY CITY","TX","77414","MATAGORDA","9792456383","Acute Care Hospitals","Government - Hospital District or Authority","Yes","450465","28.980217","-95.9916937"
"450469","TEXAS HEALTH PRESBYTERIAN HOSPITAL-WNJ","500 N HIGHLAND AVENUE","","","SHERMAN","TX","75091","GRAYSON","9038704611","Acute Care Hospitals","Voluntary non-profit - Private","Yes","450469","33.636097","-96.623227"
"450475","ETMC HENDERSON","300 WILSON STREET","","","HENDERSON","TX","75652","RUSK","9036577541","Acute Care Hospitals","Voluntary non-profit - Other","Yes","450475","32.1616346","-94.7964035"
"450484","WOODLAND HEIGHTS MEDICAL CENTER","505 SOUTH JOHN REDDITT DRIVE","","","LUFKIN","TX","75904","ANGELINA","9366348311","Acute Care Hospitals","Proprietary","Yes","450484","31.3280395","-94.7561597"
"450488","ALLEGIANCE SPECIALTY HOSPITAL OF KILGORE","1612 SOUTH HENDERSON BLVD","","","KILGORE","TX","75662","GREGG","9039843505","Acute Care Hospitals","Proprietary","Yes","450488","32.374093","-94.867045"
"450489","MEDICAL ARTS HOSPITAL","2200 N BRYAN AVE","","","LAMESA","TX","79331","DAWSON","8068722183","Acute Care Hospitals","Voluntary non-profit - Other","Yes","450489","32.7466016","-101.9653569"
"450497","BOWIE MEMORIAL HOSPITAL","705 EAST GREENWOOD AV","","","BOWIE","TX","76230","MONTAGUE","9408721126","Acute Care Hospitals","Government - Hospital District or Authority","Yes","450497","33.5619753","-97.8352817"
"450498","STEPHENS MEMORIAL HOSPITAL","200 SOUTH GENEVA","","","BRECKENRIDGE","TX","76424","STEPHENS","2545592241","Acute Care Hospitals","Government - Local","Yes","450498","32.754706","-98.8877316"
"450508","MEMORIAL HOSPITAL","1204 MOUND ST","","","NACOGDOCHES","TX","75961","NACOGDOCHES","9365644611","Acute Care Hospitals","Government - Hospital District or Authority","Yes","450508","31.612581","-94.649454"
"450518","THE MEDICAL CENTER OF SOUTHEAST TEXAS","2555 JIMMY JOHNSON BLVD","","","PORT ARTHUR","TX","77640","JEFFERSON","4098535900","Acute Care Hospitals","Proprietary","Yes","450518","29.935704","-93.989004"
"450530","MAINLAND MEDICAL CENTER","6801 EMMETT LOWRY EXPRESSWAY","","","TEXAS CITY","TX","77591","GALVESTON","4099385000","Acute Care Hospitals","Proprietary","Yes","450530","29.39378","-94.986822"
"450537","METHODIST RICHARDSON MEDICAL CENTER","401 W CAMPBELL RD","","","RICHARDSON","TX","75080","DALLAS","9724984000","Acute Care Hospitals","Government - Hospital District or Authority","Yes","450537","32.973622","-96.726182"
"450539","COVENANT HOSPITAL PLAINVIEW","2601 DIMMITT RD","","","PLAINVIEW","TX","79072","HALE","8062965531","Acute Care Hospitals","Voluntary non-profit - Church","No","450539","34.206576","-101.732656"
"450547","EAST TEXAS MEDICAL CENTER QUITMAN","117 WINNSBORO STREET","","","QUITMAN","TX","75783","WOOD","9037634500","Acute Care Hospitals","Voluntary non-profit - Private","Yes","450547","32.7961682","-95.4451764"
"450558","ABILENE REGIONAL MEDICAL CENTER","6250 HWY 83/84","","","ABILENE","TX","79606","TAYLOR","3254281000","Acute Care Hospitals","Proprietary","Yes","450558","32.374808","-99.743612"
"450563","BAYLOR REGIONAL MEDICAL CENTER AT GRAPEVINE","1650 W COLLEGE ST","","","GRAPEVINE","TX","76051","TARRANT","8174811588","Acute Care Hospitals","Voluntary non-profit - Other","Yes","450563","32.934887","-97.093107"
"450565","PALO PINTO GENERAL HOSPITAL","400 SOUTHWEST 25 AVE","","","MINERAL WELLS","TX","76067","PALO PINTO","9403257891","Acute Care Hospitals","Government - Hospital District or Authority","Yes","450565","32.79966","-98.145334"
"450571","SHANNON MEDICAL CENTER","120 EAST HARRIS AVENUE","","","SAN ANGELO","TX","76903","TOM GREEN","3256536741","Acute Care Hospitals","Voluntary non-profit - Other","Yes","450571","31.4657435","-100.4346585"
"450573","CHRISTUS JASPER MEMORIAL HOSPITAL","1275 MARVIN HANCOCK DRIVE","","","JASPER","TX","75951","JASPER","4093845461","Acute Care Hospitals","Government - Hospital District or Authority","Yes","450573","30.9078371","-94.008423"
"450578","HEMPHILL COUNTY HOSPITAL","1020 S 4TH ST","","","CANADIAN","TX","79014","HEMPHILL","8063236622","Acute Care Hospitals","Government - Hospital District or Authority","Yes","450578","35.9028599","-100.3874378"
"450580","EAST TEXAS MEDICAL CENTER CROCKETT","1100 LOOP 304 EAST","","","CROCKETT","TX","75835","HOUSTON","9365463862","Acute Care Hospitals","Voluntary non-profit - Private","Yes","450580","31.323759","-95.439003"
"450584","WILBARGER GENERAL HOSPITAL","920 HILLCREST DR","","","VERNON","TX","76384","WILBARGER","9405529351","Acute Care Hospitals","Government - Hospital District or Authority","Yes","450584","34.1590351","-99.3131145"
"450586","SEYMOUR HOSPITAL","200 STADIUM DRIVE","","","SEYMOUR","TX","76380","BAYLOR","9408895572","Acute Care Hospitals","Government - Hospital District or Authority","No","450586","33.592261","-99.2473485"
"450587","BROWNWOOD REGIONAL MEDICAL CENTER","1501 BURNET DR","","","BROWNWOOD","TX","76801","BROWN","3256468541","Acute Care Hospitals","Proprietary","Yes","450587","31.677218","-98.993508"
"450591","ANGLETON-DANBURY MEDICAL CENTER","132 HOSPITAL DR","","","ANGLETON","TX","77515","BRAZORIA","9798497721","Acute Care Hospitals","Government - Hospital District or Authority","Yes","450591","29.184032","-95.4046879"
"450596","LAKE GRANBURY MEDICAL CENTER","1310 PALUXY RD","","","GRANBURY","TX","76048","HOOD","8175732683","Acute Care Hospitals","Proprietary","Yes","450596","32.432651","-97.803849"
"450597","CUERO COMMUNITY HOSPITAL","2550 N ESPLANADE","","","CUERO","TX","77954","DE WITT","3612756191","Acute Care Hospitals","Government - Hospital District or Authority","No","450597","29.112576","-97.282948"
"450604","HILL COUNTRY MEMORIAL HOSPITAL INC","1020 SOUTH STATE HIGHWAY 16","","","FREDERICKSBURG","TX","78624","GILLESPIE","8309974353","Acute Care Hospitals","Voluntary non-profit - Other","Yes","450604","30.2620929","-98.8808423"
"450605","NORTH BAY HOSPITAL","1711 W WHEELER AVENUE","","","ARANSAS PASS","TX","78336","SAN PATRICIO","3617588585","Acute Care Hospitals","Proprietary","Yes","450605","27.915702","-97.162636"
"45060F","VA AMARILLO HEALTHCARE SYSTEM","6010 AMARILLO BLVD. WEST","","","AMARILLO   ","TX","79106","POTTER","8063559703","ACUTE CARE - VETERANS ADMINISTRATION","Government Federal","NO","45060F","35.204689","-101.9064609"
"450610","MEMORIAL HERMANN MEMORIAL CITY MEDICAL CENTER","921 GESSNER","","","HOUSTON","TX","77024","HARRIS","7132423000","Acute Care Hospitals","Voluntary non-profit - Private","Yes","450610","29.7812088","-95.5455642"
"450615","ATLANTA MEMORIAL HOSPITAL","1007 SOUTH WILLIAMS STREET","","","ATLANTA","TX","75551","CASS","9037993000","Acute Care Hospitals","Government - Hospital District or Authority","Yes","450615","33.1050574","-94.1654267"
"450617","CLEAR LAKE REGIONAL MEDICAL CENTER","500 MEDICAL CENTER BLVD","","","WEBSTER","TX","77598","HARRIS","2813322511","Acute Care Hospitals","Proprietary","Yes","450617","29.541219","-95.127688"
"450620","DIMMIT COUNTY MEMORIAL HOSPITAL","704 HOSPITAL DRIVE","","","CARRIZO SPRINGS","TX","78834","DIMMIT","8308762424","Acute Care Hospitals","Government - Hospital District or Authority","Yes","450620","28.5200453","-99.86149"
"450630","SPRING BRANCH MEDICAL CENTER","8850 LONG POINT ROAD","","","HOUSTON","TX","77055","HARRIS","7134676555","Acute Care Hospitals","Proprietary","Yes","450630","29.803954","-95.50865"
"450634","DENTON REGIONAL MEDICAL CENTER","3535 SOUTH I35 EAST","","","DENTON","TX","76210","DENTON","9403843535","Acute Care Hospitals","Proprietary","Yes","450634","33.1773878","-97.0913726"
"450638","HOUSTON NORTHWEST MEDICAL CENTER","710 FM 1960 WEST","","","HOUSTON","TX","77090","HARRIS","2814401000","Acute Care Hospitals","Proprietary","Yes","450638","30.0180523","-95.4397241"
"450639","TEXAS HEALTH HARRIS METHODIST HURST-EULESS-BEDFORD","1600 HOSPITAL PARKWAY","","","BEDFORD","TX","76022","TARRANT","8176854000","Acute Care Hospitals","Voluntary non-profit - Church","Yes","450639","32.8347861","-97.1242797"
"45063F","VA WEST TEXAS HEALTHCARE SYSTEM","300 VETERANS BLVD.","","","BIG SPRING ","TX","79720","HOWARD","4322637361","ACUTE CARE - VETERANS ADMINISTRATION","Government Federal","NO","45063F","32.2303245","-101.4711718"
"450641","NOCONA GENERAL HOSPITAL","100 PARK ROAD","","","NOCONA","TX","76255","MONTAGUE","9408253235","Acute Care Hospitals","Government - Hospital District or Authority","Yes","450641","33.7766681","-97.731545"
"450643","DOCTORS HOSPITAL OF LAREDO","10700 MCPHERSON ROAD","","","LAREDO","TX","78041","WEBB","9565232000","Acute Care Hospitals","Proprietary","Yes","450643","27.60617","-99.479391"
"450644","WEST HOUSTON MEDICAL CENTER","12141 RICHMOND AVE","","","HOUSTON","TX","77082","HARRIS","2815888080","Acute Care Hospitals","Proprietary","Yes","450644","29.729133","-95.59429"
"450647","MEDICAL CITY DALLAS HOSPITAL","7777 FOREST LANE","","","DALLAS","TX","75230","DALLAS","9725666222","Acute Care Hospitals","Proprietary","Yes","450647","32.9094001","-96.7713964"
"450651","MEDICAL CENTER OF PLANO","3901 W 15TH ST","","","PLANO","TX","75075","COLLIN","9725966800","Acute Care Hospitals","Proprietary","Yes","450651","33.021794","-96.766505"
"450653","SCENIC MOUNTAIN MEDICAL CENTER","1601 W 11TH PLACE","","","BIG SPRING","TX","79720","HOWARD","4322631211","Acute Care Hospitals","Proprietary","Yes","450653","32.2385894","-101.4980968"
"450654","STARR COUNTY MEMORIAL HOSPITAL","128  N FM RD 3167","","","RIO GRANDE CITY","TX","78582","STARR","9564875561","Acute Care Hospitals","Government - Hospital District or Authority","No","450654","26.3864774","-98.8565972"
"450656","NACOGDOCHES MEDICAL CENTER","4920 NE STALLINGS DRIVE","","","NACOGDOCHES","TX","75961","NACOGDOCHES","9365699481","Acute Care Hospitals","Proprietary","Yes","450656","31.6520516","-94.6548802"
"450658","EAST TEXAS MEDICAL CENTER - FAIRFIELD","125 NEWMAN ST","","","FAIRFIELD","TX","75840","FREESTONE","9033891612","Acute Care Hospitals","Voluntary non-profit - Private","No","450658","31.7246109","-96.169566"
"450659","PARK PLAZA HOSPITAL","1313 HERMANN DR","","","HOUSTON","TX","77004","HARRIS","7135275019","Acute Care Hospitals","Proprietary","Yes","450659","29.72272","-95.3875429"
"450661","ODESSA REGIONAL HOSPITAL","520 E 6TH STREET","","","ODESSA","TX","79761","ECTOR","4325828340","Acute Care Hospitals","Proprietary","Yes","450661","31.850523","-102.364741"
"450662","VALLEY REGIONAL MEDICAL CENTER","100 A ALTON GLOOR","","","BROWNSVILLE","TX","78526","CAMERON","9563507000","Acute Care Hospitals","Proprietary","Yes","450662","25.977804","-97.514421"
"450668","SIERRA MEDICAL CENTER","1625 MEDICAL CENTER DR","","","EL PASO","TX","79902","EL PASO","9157474000","Acute Care Hospitals","Proprietary","Yes","450668","31.777568","-106.480603"
"450669","MEDICAL CENTER OF LEWISVILLE","500 WEST MAIN STREET","","","LEWISVILLE","TX","75057","DENTON","9724201000","Acute Care Hospitals","Proprietary","Yes","450669","33.044365","-97.004504"
"45066F","DALLAS VA MEDICAL CENTER (VA NORTH TEXAS HEALTHCAR","4500 S. LANCASTER ROAD","","","DALLAS     ","TX","75216","DALLAS","2147428387","ACUTE CARE - VETERANS ADMINISTRATION","Government Federal","NO","45066F","32.694882","-96.789985"
"450670","TOMBALL REGIONAL HOSPITAL","605 HOLDERRIETH","","","TOMBALL","TX","77375","HARRIS","2813511623","Acute Care Hospitals","Government - Hospital District or Authority","Yes","450670","30.086822","-95.6240289"
"450672","PLAZA MEDICAL CENTER OF FORT WORTH","900 EIGHTH AVENUE","","","FORT WORTH","TX","76104","TARRANT","8173362100","Acute Care Hospitals","Proprietary","Yes","450672","32.7356184","-97.3448308"
"450674","WOMANS HOSPITAL OF TEXASTHE","7600 FANNIN","","","HOUSTON","TX","77054","HARRIS","7137901234","Acute Care Hospitals","Proprietary","Yes","450674","29.693367","-95.402964"
"450675","MEDICAL CENTER OF ARLINGTON","3301 MATLOCK ROAD","","","ARLINGTON","TX","76015","TARRANT","8174653241","Acute Care Hospitals","Proprietary","Yes","450675","32.6931143","-97.1130553"
"450677","HUGULEY HEALTH SYSTEM","11801 SOUTH FREEWAY","","","FORT WORTH","TX","76115","TARRANT","8172939110","Acute Care Hospitals","Voluntary non-profit - Church","Yes","450677","32.6797877","-97.3207434"
"450678","DOCTORS HOSPITAL","9440 POPPY DR","","","DALLAS","TX","75218","DALLAS","2143246100","Acute Care Hospitals","Proprietary","Yes","450678","32.834496","-96.70475"
"450683","RENAISSANCE HOSPITAL TERRELL","1551 HWY 34 S","","","TERRELL","TX","75160","KAUFMAN","9725637611","Acute Care Hospitals","Proprietary","Yes","450683","32.710607","-96.278739"
"450684","MEMORIAL HERMANN NORTHEAST","18951 MEMORIAL NORTH","","","HUMBLE","TX","77338","HARRIS","2815407700","Acute Care Hospitals","Government - Hospital District or Authority","Yes","450684","29.996769","-95.276391"
"450686","UNIVERSITY MEDICAL CENTER","602 INDIANA AVENUE","","","LUBBOCK","TX","79415","LUBBOCK","8067758200","Acute Care Hospitals","Government - Hospital District or Authority","Yes","450686","33.5906954","-101.8880025"
"450688","DALLAS REGIONAL MEDICAL CENTER","1011 NORTH GALLOWAY AVENUE","","","MESQUITE","TX","75149","DALLAS","2143207000","Acute Care Hospitals","Proprietary","Yes","450688","32.7790419","-96.601129"
"450690","UNIVERSITY OF TEXAS HEALTH SCIENCE CENTER AT TYLER","11937 US HIGHWAY 271","","","TYLER","TX","75708","SMITH","9038777777","Acute Care Hospitals","Government - State","Yes","450690","32.424909","-95.212916"
"450694","EL CAMPO MEMORIAL HOSPITAL","303 SANDY CORNER RD","","","EL CAMPO","TX","77437","WHARTON","9795785251","Acute Care Hospitals","Government - Hospital District or Authority","Yes","450694","29.2176636","-96.2885206"
"450697","SOUTHWEST GENERAL HOSPITAL","7400 BARLITE BLVD","","","SAN ANTONIO","TX","78224","BEXAR","2109212000","Acute Care Hospitals","Proprietary","Yes","450697","29.3543031","-98.5464522"
"450698","LAMB HEALTHCARE CENTER","1500 S SUNSET","","","LITTLEFIELD","TX","79339","LAMB","8063856411","Acute Care Hospitals","Voluntary non-profit - Other","Yes","450698","33.9126005","-102.3454315"
"450702","LONGVIEW REGIONAL MEDICAL CENTER","2901 N FOURTH ST","","","LONGVIEW","TX","75605","GREGG","9037581818","Acute Care Hospitals","Proprietary","Yes","450702","32.533119","-94.730216"
"450709","CHRISTUS ST JOHN HOSPITAL","18300 ST JOHN DRIVE","","","NASSAU BAY","TX","77058","HARRIS","2813335503","Acute Care Hospitals","Voluntary non-profit - Private","Yes","450709","29.54946","-95.086604"
"450711","RIO GRANDE REGIONAL HOSPITAL","101 E RIDGE RD","","","MCALLEN","TX","78503","HIDALGO","9566326000","Acute Care Hospitals","Proprietary","Yes","450711","26.186481","-98.221075"
"450713","ST DAVID'S SOUTH AUSTIN MEDICAL CENTER","901 WEST BEN WHITE BLVD","","","AUSTIN","TX","78704","TRAVIS","5124487107","Acute Care Hospitals","Proprietary","Yes","450713","30.2272535","-97.7742705"
"450716","CYPRESS FAIRBANKS MEDICAL CENTER","10655 STEEPLETOP DRIVE","","","HOUSTON","TX","77065","HARRIS","2818904285","Acute Care Hospitals","Proprietary","Yes","450716","29.927716","-95.590163"
"450718","ROUND ROCK MEDICAL CENTER","2400 ROUND ROCK AVE","","","ROUND ROCK","TX","78681","WILLIAMSON","5123411000","Acute Care Hospitals","Proprietary","Yes","450718","30.510335","-97.714865"
"450723","METHODIST CHARLTON MEDICAL CENTER","3500 W WHEATLAND ROAD","","","DALLAS","TX","75237","DALLAS","2149477777","Acute Care Hospitals","Voluntary non-profit - Private","Yes","450723","32.6474569","-96.8762718"
"450730","BAYLOR MEDICAL CENTER AT CARROLLTON","4343 NORTH JOSEY LANE","","","CARROLLTON","TX","75010","DENTON","9724921010","Acute Care Hospitals","Proprietary","Yes","450730","33.027717","-96.884737"
"450742","LAKE POINTE MEDICAL CENTER","6800 SCENIC DR","","","ROWLETT","TX","75088","DALLAS","9724122273","Acute Care Hospitals","Proprietary","Yes","450742","32.9183847","-96.5092722"
"450743","TEXAS HEALTH PRESBYTERIAN HOSPITAL DENTON","3000 N I-35","","","DENTON","TX","76201","DENTON","9408987000","Acute Care Hospitals","Voluntary non-profit - Private","Yes","450743","33.2176659","-97.1664984"
"450746","KNOX COUNTY HOSPITAL","701 SOUTH 5TH STREET","","","KNOX CITY","TX","79529","KNOX","9406573535","Acute Care Hospitals","Government - Hospital District or Authority","Yes","450746","33.4220914","-99.8119459"
"450747","PALESTINE REGIONAL MEDICAL CENTER","2900 S LOOP 256","","","PALESTINE","TX","75801","ANDERSON","9037311000","Acute Care Hospitals","Proprietary","Yes","450747","31.7318903","-95.6272531"
"450749","EAST TEXAS MEDICAL CENTER TRINITY","317 PROSPECT DR/PO BOX 3169","","","TRINITY","TX","75862","TRINITY","9365943541","Acute Care Hospitals","Voluntary non-profit - Private","Yes","450749","30.957367","-95.3822755"
"45074F","HOUSTON VA MEDICAL CENTER","2002 HOLCOMBE BLVD.","","","HOUSTON    ","TX","77030","HARRIS","7137947100","ACUTE CARE - VETERANS ADMINISTRATION","Government Federal","NO","45074F","29.7059792","-95.3900503"
"450754","HAMILTON GENERAL HOSPITAL","400 N BROWN","","","HAMILTON","TX","76531","HAMILTON","2543863151","Acute Care Hospitals","Government - Hospital District or Authority","Yes","450754","31.7038637","-98.1133947"
"450755","COVENANT HOSPITAL LEVELLAND","1900 COLLEGE AVE","","","LEVELLAND","TX","79336","HOCKLEY","8068944963","Acute Care Hospitals","Voluntary non-profit - Other","Yes","450755","33.5730297","-102.3678236"
"450766","UT SOUTHWESTERN UNIVERSITY HOSPITAL-ZALE LIPSHY","5151 HARRY HINES BLVD","","","DALLAS","TX","75390","DALLAS","2148793758","Acute Care Hospitals","Government - State","No","450766","32.8104712","-96.835623"
"450770","CENTRAL TEXAS HOSPITAL","806 N CROCKETT","","","CAMERON","TX","76520","MILAM","2546976591","Acute Care Hospitals","Proprietary","Yes","450770","30.856777","-96.9769113"
"450771","TEXAS HEALTH PRESBYTERIAN HOSPITAL PLANO","6200 W PARKER RD","","","PLANO","TX","75093","COLLIN","9729818000","Acute Care Hospitals","Voluntary non-profit - Private","Yes","450771","33.0443207","-96.8357706"
"450774","TOPS SURGICAL SPECIALTY HOSPITAL","17080 RED OAK DRIVE","","","HOUSTON","TX","77090","HARRIS","2815392900","Acute Care Hospitals","Proprietary","No","450774","30.0186","-95.443425"
"450775","KINGWOOD MEDICAL CENTER","22999 US HWY 59","","","KINGWOOD","TX","77325","HARRIS","2813597500","Acute Care Hospitals","Proprietary","Yes","450775","30.049639","-95.255242"
"450779","TEXAS HEALTH HARRIS METHODIST HOSPITAL SOUTHWEST F","6100 HARRIS PKWY","","","FORT WORTH","TX","76132","TARRANT","8174335000","Acute Care Hospitals","Voluntary non-profit - Private","Yes","450779","32.6581789","-97.420777"
"450780","METHODIST AMBULATORY SURGERY HOSPITAL NW","9150 HUEBNER RD SUITE 100","","","SAN ANTONIO","TX","78240","BEXAR","2106918000","Acute Care Hospitals","Proprietary","Yes","450780","29.527257","-98.5948389"
"450788","CORPUS CHRISTI MEDICAL CENTERTHE","7101 S PADRE ISLAND DR","","","CORPUS CHRISTI","TX","78412","NUECES","3617611000","Acute Care Hospitals","Proprietary","Yes","450788","27.692878","-97.344756"
"450795","ST ANTHONY'S HOSPITAL","2807 LITTLE YORK RD","","","HOUSTON","TX","77093","HARRIS","7136972961","Acute Care Hospitals","Proprietary","Yes","450795","29.8712559","-95.3424908"
"450796","NORTHWEST TEXAS SURGERY CENTER","3501 SONCY RD SUITE 118","","","AMARILLO","TX","79109","RANDALL","8063597999","Acute Care Hospitals","Proprietary","Yes","450796","35.1752934","-101.9381423"
"450797","HOUSTON HOSPITAL SOR SPECIALIZED SURGERY","5445 LABRANCH STREET","","","HOUSTON","TX","77004","HARRIS","7135286800","Acute Care Hospitals","Proprietary","Yes","450797","29.72423","-95.384133"
"450801","CHRISTUS ST MICHAEL HEALTH SYSTEM","2600 ST MICHAEL DR","","","TEXARKANA","TX","75504","BOWIE","9036141000","Acute Care Hospitals","Voluntary non-profit - Church","Yes","450801","33.4622411","-94.0753692"
"450803","DOCTORS HOSPITAL TIDWELL","510 W TIDWELL","","","HOUSTON","TX","77091","HARRIS","7136911111","Acute Care Hospitals","Voluntary non-profit - Private","Yes","450803","29.8469704","-95.408205"
"450804","TEXAS ORTHOPEDIC HOSPITAL","7401 SOUTH MAIN STREET","","","HOUSTON","TX","77030","HARRIS","7137998600","Acute Care Hospitals","Proprietary","Yes","450804","29.700152","-95.409034"
"450808","NORTHWEST HILLS SURGICAL HOSPITAL","6818 AUSTIN CTR BLVD SUITE 100","","","AUSTIN","TX","78731","TRAVIS","5123461994","Acute Care Hospitals","Proprietary","No","450808","30.3502332","-97.751051"
"450809","NORTH AUSTIN MEDICAL CENTER","12221 MOPAC EXPRESSWAY NORTH","","","AUSTIN","TX","78758","TRAVIS","5129011000","Acute Care Hospitals","Voluntary non-profit - Private","No","450809","30.411556","-97.706421"
"450813","COMMUNITY GENERAL HOSPITAL","230 WEST MILLER","","","DILLEY","TX","78017","FRIO","8309652003","Acute Care Hospitals","Proprietary","Yes","450813","28.669979","-99.1729052"
"450820","METHODIST SUGAR LAND HOSPITAL","16655 SOUTHWEST FREEWAY","","","SUGAR LAND","TX","77479","FORT BEND","2812748000","Acute Care Hospitals","Voluntary non-profit - Church","Yes","450820","29.589665","-95.631217"
"450822","LAS COLINAS MEDICAL CENTER","6800 N MACARTHUR BLVD","","","IRVING","TX","75039","DALLAS","9729692000","Acute Care Hospitals","Voluntary non-profit - Private","Yes","450822","32.901824","-96.957051"
"450824","HEART HOSPITAL OF AUSTIN","3801 NORTH LAMAR BOULEVARD","","","AUSTIN","TX","78756","TRAVIS","5124077581","Acute Care Hospitals","Proprietary","Yes","450824","30.3057067","-97.741338"
"450825","CORNERSTONE REGIONAL HOSPITAL","2302 CORNERSTONE BOULEVARD","","","EDINBURG","TX","78539","HIDALGO","9566184444","Acute Care Hospitals","Proprietary","Yes","450825","26.2630469","-98.2020372"
"450827","KELL WEST REGIONAL HOSPITAL","5402 KELL WEST BOULEVARD","","","WICHITA FALLS","TX","76310","WICHITA","9406925888","Acute Care Hospitals","Proprietary","Yes","450827","33.8723577","-98.5789388"
"450828","CHRISTUS SPOHN HOSPITAL ALICE","2500 E MAIN STREET","","","ALICE","TX","78332","JIM WELLS","3616618000","Acute Care Hospitals","Proprietary","Yes","450828","27.7660458","-98.0428171"
"450831","SURGERY SPECIALTY HOSPITALS OF AMERICA SE HOUSTON","4301 B VISTA","","","PASADENA","TX","77504","HARRIS","7133783000","Acute Care Hospitals","Proprietary","Yes","450831","29.6587455","-95.1784642"
"450832","CHRISTUS ST CATHERINE HOSPITAL","701 SOUTH FRY ROAD","","","KATY","TX","77450","HARRIS","2815995700","Acute Care Hospitals","Voluntary non-profit - Church","Yes","450832","29.774061","-95.7188232"
"450833","ENNIS REGIONAL MEDICAL CENTER","2201 WEST LAMPASAS STREET","","","ENNIS","TX","75119","ELLIS","9728750900","Acute Care Hospitals","Proprietary","Yes","450833","32.3068219","-96.641217"
"450834","PHYSICIANS CENTRETHE","3131 UNIVERSITY DRIVE EAST","","","BRYAN","TX","77802","BRAZOS","9797313100","Acute Care Hospitals","Proprietary","Yes","450834","30.650485","-96.297548"
"450840","TEXAS HEALTH PRESBYTERIAN HOSPITAL ALLEN","1105 CENTRAL EXPRESSWAY NORTH","","","ALLEN","TX","75013","COLLIN","9727476197","Acute Care Hospitals","Government - Federal","Yes","450840","33.1162837","-96.6742533"
"450841","BROWNSVILLE SURGICAL HOSPITAL","4750 NORTH EXPRESSWAY","","","BROWNSVILLE","TX","78526","CAMERON","9565542000","Acute Care Hospitals","Proprietary","Yes","450841","25.9400118","-97.5287699"
"450844","METHODIST WILLOWBROOK HOSPITAL","18220 STATE HIGHWAY 249","","","HOUSTON","TX","77070","HARRIS","2814771000","Acute Care Hospitals","Voluntary non-profit - Church","Yes","450844","29.965904","-95.551289"
"450845","EL PASO SPECIALTY HOSPITAL","1755 CURIE SUITE A","","","EL PASO","TX","79902","EL PASO","9155443636","Acute Care Hospitals","Proprietary","Yes","450845","31.7796651","-106.4768426"
"450847","MEMORIAL HERMANN KATY HOSPITAL","23900 KATY FREEWAY","","","KATY","TX","77494","HARRIS","2813921111","Acute Care Hospitals","Voluntary non-profit - Private","Yes","450847","29.7852819","-95.78721"
"450848","MEMORIAL HERMANN SUGAR LAND HOSPITAL","17500 W GRAND PARKWAY SOUTH","","","SUGAR LAND","TX","77479","FORT BEND","2814994800","Acute Care Hospitals","Voluntary non-profit - Private","Yes","450848","29.564761","-95.690232"
"450851","BAYLOR HEART AND VASCULAR HOSPITAL","621 NORTH HALL STREET","","","DALLAS","TX","75226","DALLAS","2148200670","Acute Care Hospitals","Proprietary","No","450851","32.7878975","-96.7802489"
"450853","BAYLOR MEDICAL CENTER AT FRISCO","5601 WARREN PARKWAY","","","FRISCO","TX","75034","COLLIN","2146182000","Acute Care Hospitals","Proprietary","Yes","450853","33.105051","-96.837988"
"450855","HARLINGEN MEDICAL CENTER","5501 SOUTH EXPRESSWAY 77","","","HARLINGEN","TX","78550","CAMERON","9563651000","Acute Care Hospitals","Proprietary","Yes","450855","26.157433","-97.675272"
"450856","SOUTH TEXAS SPINE AND SURGICAL HOSPITAL","18600 NORTH HARDY OAK","","","SAN ANTONIO","TX","78258","BEXAR","2104040800","Acute Care Hospitals","Voluntary non-profit - Private","Yes","450856","29.613294","-98.477588"
"450860","SUGAR LAND SURGICAL HOSPITAL LLP","1211 HIGHWAY 6 SUITE 70","","","SUGAR LAND","TX","77478","FORT BEND","2812431000","Acute Care Hospitals","Proprietary","No","450860","29.605544","-95.636232"
"450862","ST LUKE'S THE WOODLANDS HOSPITAL","17200 ST LUKE'S WAY","","","THE WOODLANDS","TX","77384","HARRIS","9362664050","Acute Care Hospitals","Voluntary non-profit - Church","Yes","450862","30.2053129","-95.4607411"
"450864","TEXAS SPINE AND JOINT HOSPITAL","1814 ROSELAND BOULEVARD","","","TYLER","TX","75701","SMITH","9035253300","Acute Care Hospitals","Proprietary","Yes","450864","32.3297381","-95.2994559"
"450865","SETON SOUTHWEST HOSPITAL","7900 FM 1826","","","AUSTIN","TX","78737","TRAVIS","5123249000","Acute Care Hospitals","Voluntary non-profit - Church","Yes","450865","30.226514","-97.892365"
"450867","SETON  NORTHWEST HOSPITAL","11113 RESEARCH BOULEVARD","","","AUSTIN","TX","78759","TRAVIS","5123246000","Acute Care Hospitals","Voluntary non-profit - Church","Yes","450867","30.4058285","-97.7448913"
"450869","DOCTORS HOSPITAL AT RENAISSANCE","5501 SOUTH MCCOLL","","","EDINBURG","TX","78539","HIDALGO","9566667100","Acute Care Hospitals","Proprietary","Yes","450869","26.252772","-98.205338"
"45086F","TEMPLE VA MEDICAL CENTER (VA CENTRAL TEXAS HEALTHC","1901 VETERANS MEMORIAL DRIVE","","","TEMPLE     ","TX","76504","BELL","2547784811","ACUTE CARE - VETERANS ADMINISTRATION","Government Federal","NO","45086F","31.0796979","-97.348579"
"450871","AUSTIN SURGICAL HOSPITAL","3003 BEE CAVES ROAD","","","AUSTIN","TX","78746","TRAVIS","5123479888","Acute Care Hospitals","Proprietary","Yes","450871","30.2708357","-97.7954543"
"450872","USMD HOSPITAL AT ARLINGTON L P","801 W INTERSTATE 20","","","ARLINGTON","TX","76017","TARRANT","8174723400","Acute Care Hospitals","Proprietary","Yes","450872","32.679917","-97.1150629"
"450874","IRVING COPPELL SURGICAL HOSPITAL LLP","400 WEST INTERSTATE 635 SUITE 101","","","IRVING","TX","75063","DALLAS","9728684000","Acute Care Hospitals","Proprietary","No","450874","32.9179587","-96.9670539"
"450875","QUAIL CREEK SURGICAL HOSPITAL","6819 PLUM CREEK","","","AMARILLO","TX","79124","POTTER","8063546100","Acute Care Hospitals","Proprietary","Yes","450875","35.210319","-101.912659"
"450876","LUBBOCK HEART HOSPITAL LP","4810 NORTH LOOP 289","","","LUBBOCK","TX","79416","LUBBOCK","8066877777","Acute Care Hospitals","Voluntary non-profit - Private","Yes","450876","33.603099","-101.915866"
"450877","EAST EL PASO PHYSICIANS MEDICAL CENTER LLC","1416 GEORGE DIETER","","","EL PASO","TX","79936","EL PASO","9155984240","Acute Care Hospitals","Proprietary","Yes","450877","31.734483","-106.300335"
"450878","TEXSAN HEART HOSPITAL","6700 IH 10 WEST","","","SAN ANTONIO","TX","78201","BEXAR","2107368013","Acute Care Hospitals","Proprietary","Yes","450878","29.4841","-98.533652"
"450880","BAYLOR SURGICAL HOSPITAL AT FORT WORTH","750 12TH AVENUE","","","FORT WORTH","TX","76104","TARRANT","8173345050","Acute Care Hospitals","Voluntary non-profit - Private","Yes","450880","32.7371498","-97.3473967"
"450883","BAYLOR MEDICAL CENTER AT TROPHY CLUB","2850 SOUTH HIGHWAY 114E","","","TROPHY CLUB","TX","76262","DENTON","8178374600","Acute Care Hospitals","Proprietary","Yes","450883","0","0"
"450884","EAST TEXAS MEDICAL CENTER - GILMER","712 NORTH WOOD","","","GILMER","TX","75644","UPSHUR","9038417100","Acute Care Hospitals","Voluntary non-profit - Other","Yes","450884","32.7345097","-94.9425915"
"450885","CENTENNIAL MEDICAL CENTER","12505 LEBANON ROAD","","","FRISCO","TX","75035","COLLIN","9729633333","Acute Care Hospitals","Proprietary","Yes","450885","0","0"
"450886","SOUTHWEST SURGICAL HOSPITAL","1612 HURST TOWN CENTER DRIVE","","","HURST","TX","76054","TARRANT","8173454100","Acute Care Hospitals","Proprietary","Yes","450886","32.842313","-97.188535"
"450888","TEXAS HEALTH HARRIS METHODIST HOSPITAL SOUTHLAKE","1545 E SOUTHLAKE BLVD","","","SOUTHLAKE","TX","76092","TARRANT","8177488700","Acute Care Hospitals","Government - State","Yes","450888","0","0"
"450889","TEXAS INSTITUTE FOR SURGERY AT PRESBYTERIAN HOSPIT","7115 GREENVILLE AVENUE SUITE 100","","","DALLAS","TX","75231","DALLAS","2146475300","Acute Care Hospitals","Proprietary","Yes","450889","32.876705","-96.762113"
"450890","BAYLOR REGIONAL MEDICAL CENTER AT PLANO","4700 ALLIANCE BOULEVARD","","","PLANO","TX","75093","COLLIN","4698142000","Acute Care Hospitals","Voluntary non-profit - Other","Yes","450890","33.0135829","-96.788231"
"450891","TEXAS HEALTH CENTER FOR DIAGNOSTICS & SURGERY PLAN","6020 W PARKER ROAD","","","PLANO","TX","75093","COLLIN","9724032700","Acute Care Hospitals","Proprietary","Yes","450891","33.0443087","-96.8321476"
"450893","NORTH TEXAS HOSPITAL","2801 SOUTH MAYHILL ROAD","","","DENTON","TX","76208","DENTON","9402200600","Acute Care Hospitals","Voluntary non-profit - Other","Yes","450893","33.176853","-97.087121"
"450894","PINE CREEK MEDICAL CENTER LLP","9032 HARRY HINES BLVD","","","DALLAS","TX","75235","DALLAS","2142312273","Acute Care Hospitals","Government - Federal","Yes","450894","32.8408299","-96.868261"
"45090F","SAN ANTONIO VA MEDICAL CENTER (VA SOUTH TEXAS HEAL","7400 MERTON MINTER BLVD.","","","SAN ANTONIO","TX","78229","BEXAR","2106175300","ACUTE CARE - VETERANS ADMINISTRATION","Government Federal","NO","45090F","29.505999","-98.579561"
"451301","REAGAN MEMORIAL HOSPITAL","805 NORTH MAIN","","","BIG LAKE","TX","76932","REAGAN","3258442561","Critical Access Hospitals","Government - Hospital District or Authority","Yes","451301","31.1975266","-101.4616901"
"451302","GOOD SHEPHARD MEDICAL CENTER-LINDEN","404 NORTH KAUFMAN STREET","","","LINDEN","TX","75563","CASS","9037565561","Critical Access Hospitals","Voluntary non-profit - Private","Yes","451302","33.0136916","-94.3645389"
"451303","LIMESTONE MEDICAL CENTER","701 MCCLINTIC DRIVE","","","GROESBECK","TX","76642","LIMESTONE","2547293281","Critical Access Hospitals","Government - Hospital District or Authority","Yes","451303","31.5319158","-96.5296118"
"451305","BURLESON ST JOSEPH HEALTH CENTER","1101 WOODSON DRIVE","","","CALDWELL","TX","77836","BURLESON","9795673245","Critical Access Hospitals","Voluntary non-profit - Church","Yes","451305","30.5184048","-96.7147556"
"451309","MCCAMEY HOSPITAL","2500 HWY 305 SOUTH","","","MCCAMEY","TX","79752","UPTON","4326528626","Critical Access Hospitals","Government - Hospital District or Authority","Yes","451309","31.1322516","-102.2222058"
"451313","FISHER COUNTY HOSPITAL DISTRICT","774 STATE HIGHWAY 70 N","","","ROTAN","TX","79546","FISHER","3257352256","Critical Access Hospitals","Government - Hospital District or Authority","Yes","451313","32.858908","-100.4679337"
"451315","NORTH RUNNELS HOSPITAL","7821 EAST HIGHWAY 153","","","WINTERS","TX","79567","RUNNELS","3257544553","Critical Access Hospitals","Government - Hospital District or Authority","Yes","451315","31.9498432","-99.9583543"
"451316","MADISON ST JOSEPH HEALTH CENTER","100 WEST CROSS STREET","","","MADISONVILLE","TX","77864","MADISON","9363482631","Critical Access Hospitals","Proprietary","Yes","451316","30.9421183","-95.9099886"
"451319","MOTHER FRANCES HOSPITAL JACKSONVILLE","2026 S JACKSON STREET","","","JACKSONVILLE","TX","75766","CHEROKEE","9035414500","Critical Access Hospitals","Voluntary non-profit - Church","Yes","451319","0","0"
"451320","BAYSIDE COMMUNITY HOSPITAL","200 HOSPITAL DRIVE","","","ANAHUAC","TX","77514","CHAMBERS","4092673143","Critical Access Hospitals","Government - Local","Yes","451320","29.753056","-94.6867382"
"451321","HUNT REGIONAL COMMUNITY HOSPITAL","2900 STERLING HART DRIVE","","","COMMERCE","TX","75428","HUNT","9034081881","Critical Access Hospitals","Government - Hospital District or Authority","Yes","451321","33.230284","-95.896152"
"451322","GRIMES ST JOSEPH HEALTH CENTER","210 JUDSON ST","","","NAVASOTA","TX","77868","GRIMES","9368256585","Critical Access Hospitals","Voluntary non-profit - Church","Yes","451322","30.3922553","-96.0767456"
"451323","ROLLINS BROOK COMMUNITY HOSPITAL","608 NORTH KEY AVENUE","","","LAMPASAS","TX","76550","LAMPASAS","5125563682","Critical Access Hospitals","Voluntary non-profit - Private","Yes","451323","31.0719944","-98.185547"
"451330","MEDINA REGIONAL HOSPITAL","3100 AVENUE E","","","HONDO","TX","78861","MEDINA","8307414677","Critical Access Hospitals","Voluntary non-profit - Other","Yes","451330","29.3357885","-99.1334107"
"451331","COON MEMORIAL HOSPITAL","1411 DENVER AVENUE","","","DALHART","TX","79022","DALLAM","8062444571","Critical Access Hospitals","Government - Hospital District or Authority","Yes","451331","36.0513519","-102.5217223"
"451334","PARKVIEW HOSPITAL","901 S. SWEETWATER","","","WHEELER","TX","79096","WHEELER","8068265581","Critical Access Hospitals","Government - Hospital District or Authority","Yes","451334","35.4398711","-100.2708683"
"451337","W J MANGOLD MEMORIAL HOSPITAL","320 NORTH MAIN","","","LOCKNEY","TX","79241","FLOYD","8066523373","Critical Access Hospitals","Government - Hospital District or Authority","Yes","451337","34.1264272","-101.441394"
"451342","MITCHELL COUNTY HOSPITAL DISTRICT","997 WEST I-20","","","COLORADO CITY","TX","79512","MITCHELL","3257283431","Critical Access Hospitals","Government - Hospital District or Authority","Yes","451342","32.3964497","-100.8994337"
"451343","ELECTRA MEMORIAL HOSPITAL","1207 S BAILEY STREET","","","ELECTRA","TX","76360","WICHITA","9404953981","Critical Access Hospitals","Government - Hospital District or Authority","Yes","451343","34.019084","-98.924395"
"451344","HANSFORD COUNTY HOSPITAL","707 ROLAND ST","","","SPEARMAN","TX","79081","HANSFORD","8066592535","Critical Access Hospitals","Government - Hospital District or Authority","Yes","451344","36.1907462","-101.2000657"
"451346","YOAKUM COMMUNITY HOSPITAL","1200 CARL RAMERT DRIVE","","","YOAKUM","TX","77995","DE WITT","3612932321","Critical Access Hospitals","Government - Hospital District or Authority","Yes","451346","29.301486","-97.124332"
"451347","COLEMAN COUNTY MEDICAL CENTER","310 SOUTH PECOS STREET","","","COLEMAN","TX","76834","COLEMAN","3256252135","Critical Access Hospitals","Government - Hospital District or Authority","Yes","451347","31.8288059","-99.4254174"
"451349","SWISHER MEMORIAL HOSPITAL","539 SOUTHEAST 2ND","","","TULIA","TX","79088","SWISHER","8069953581","Critical Access Hospitals","Government - Hospital District or Authority","Yes","451349","34.536123","-101.755797"
"451350","PLAINS MEMORIAL HOSPITAL","310 WEST HALSELL STREET","","","DIMMITT","TX","79027","CASTRO","8066472191","Critical Access Hospitals","Government - Hospital District or Authority","Yes","451350","34.5555856","-102.3151648"
"451355","COLLINGSWORTH GENERAL HOSPITAL","1013 15TH ST","","","WELLINGTON ","TX","79095","COLLINGSWORTH","8064472521","Critical Access Hospitals","Proprietary","Yes","451355","34.8490851","-100.2128915"
"451356","MEMORIAL MEDICAL CENTER","815 N VIRGINIA STREET","","","PORT LAVACA","TX","77979","CALHOUN","3615526713","Critical Access Hospitals","Government - Local","Yes","451356","28.6210071","-96.6315913"
"451364","OTTO KAISER MEMORIAL HOSPITAL","3349 S HIGHWAY 181","","","KENEDY","TX","78119","KARNES","8305833401","Critical Access Hospitals","Government - Hospital District or Authority","Yes","451364","28.744015","-97.851327"
"451365","SETON HIGHLAND LAKES","HIGHWAY 281 SOUTH","","","BURNET","TX","78611","BURNET","5127153000","Critical Access Hospitals","Voluntary non-profit - Church","Yes","451365","37.4608432","-98.6875022"
"451367","EAST TEXAS MEDICAL CENTER PITTSBURG","2701 US HWY 271 N","","","PITTSBURG","TX","75686","CAMP","9038564520","Critical Access Hospitals","Voluntary non-profit - Private","Yes","451367","33.0159286","-94.9659161"
"451369","GOLDEN PLAINS COMMUNITY HOSPITAL","200 SOUTH MCGEE","","","BORGER","TX","79007","HUTCHINSON","8062731100","Critical Access Hospitals","Proprietary","Yes","451369","35.6642795","-101.394487"
"451370","RED RIVER REGIONAL HOSPITAL","504 LIPSCOMB STREET","","","BONHAM","TX","75418","FANNIN","9036407311","Critical Access Hospitals","Proprietary","Yes","451370","33.5767303","-96.1674758"
"451371","SETON EDGAR B DAVIS HOSPITAL","130 HAYS STREET","","","LULING","TX","78648","CALDWELL","8308757000","Critical Access Hospitals","Voluntary non-profit - Church","Yes","451371","29.672975","-97.654965"
"451373","WARD MEMORIAL HOSPITAL","406 SOUTH GARY ST","","","MONAHANS","TX","79756","WARD","4329432511","Critical Access Hospitals","Government - Local","Yes","451373","31.5940041","-102.8846037"
"451374","JOHNS COMMUNITY HOSPITAL","305 MALLARD","","","TAYLOR","TX","76574","WILLIAMSON","5123527611","Critical Access Hospitals","Voluntary non-profit - Private","Yes","451374","30.591317","-97.414575"
"451376","LAVACA MEDICAL CENTER","1400 NORTH TEXANA STREET","","","HALLETTSVILLE","TX","77964","LAVACA","3617983671","Critical Access Hospitals","Government - Hospital District or Authority","Yes","451376","29.4608087","-96.9398474"
"451377","REEVES COUNTY HOSPITAL DISTRICT","2323 TEXAS STREET","","","PECOS      ","TX","79772","REEVES","4324473551","Critical Access Hospitals","Government - Hospital District or Authority","Yes","451377","31.4024674","-103.5126563"
"451378","BIG BEND REGIONAL MEDICAL CENTER","2600 HIGHWAY 118 NORTH","","","ALPINE","TX","79830","BREWSTER","4328373447","Critical Access Hospitals","Voluntary non-profit - Private","Yes","451378","30.3879797","-103.6746113"
"451379","CORYELL MEMORIAL HEALTHCARE SYSTEM","1507 W MAIN STREET","","","GATESVILLE","TX","76528","CORYELL","2548658251","Critical Access Hospitals","Government - Hospital District or Authority","Yes","451379","31.434971","-97.779125"
"453300","COOK FT WORTH CHILDRENS MEDICAL CENTER","801 SEVENTH AVENUE","","","FORT WORTH","TX","76104","TARRANT","6828854000","Childrens","Voluntary non-profit - Private","Yes","453300","32.7364296","-97.3419585"
"453301","DRISCOLL CHILDRENS HOSPITAL","3533 S ALAMEDA BOX 6530","","","CORPUS CHRISTI","TX","78411","NUECES","5128505000","Childrens","Voluntary non-profit - Other","Yes","453301","27.7218102","-97.3894772"
"460001","UTAH VALLEY REGIONAL MEDICAL CENTER","1034 NORTH 500 WEST","","","PROVO","UT","84604","UTAH","8013737850","Acute Care Hospitals","Voluntary non-profit - Private","Yes","460001","40.2477502","-111.6673777"
"460003","SALT LAKE REGIONAL MEDICAL CENTER","1050 EAST SOUTH TEMPLE","","","SALT LAKE CITY","UT","84102","SALT LAKE","8013504007","Acute Care Hospitals","Proprietary","Yes","460003","40.768263","-111.861018"
"460004","MCKAY-DEE HOSPITAL CENTER","4401 HARRISON BLVD","","","OGDEN","UT","84403","WEBER","8013872800","Acute Care Hospitals","Voluntary non-profit - Other","Yes","460004","41.1836765","-111.9534516"
"460005","OGDEN REGIONAL MEDICAL CENTER","5475 SOUTH 500 EAST","","","OGDEN","UT","84405","WEBER","8014792111","Acute Care Hospitals","Proprietary","Yes","460005","41.164963","-111.970618"
"460006","LDS HOSPITAL","324 8TH AVENUE","","","SALT LAKE CITY","UT","84143","SALT LAKE","8014081100","Acute Care Hospitals","Voluntary non-profit - Private","Yes","460006","40.7784794","-111.8789898"
"460007","VALLEY VIEW MEDICAL CENTER","1303 NORTH MAIN STREET","","","CEDAR CITY","UT","84720","IRON","4355865000","Acute Care Hospitals","Voluntary non-profit - Private","Yes","460007","37.6526757","-113.0812882"
"460009","UNIVERSITY HEALTH CARE/UNIV HOSPITALS AND  CLINICS","50 NORTH MEDICAL DRIVE","","","SALT LAKE CITY","UT","84132","SALT LAKE","8015812121","Acute Care Hospitals","Government - State","Yes","460009","40.7715394","-111.8367863"
"460010","INTERMOUNTAIN MEDICAL CENTER","5121 SOUTH COTTONWOOD STREET","","","MURRAY","UT","84157","SALT LAKE","8015077000","Acute Care Hospitals","Voluntary non-profit - Private","Yes","460010","40.6619967","-111.893253"
"460011","CASTLEVIEW HOSPITAL","300 NORTH HOSPITAL DRIVE","","","PRICE","UT","84501","CARBON","4356374800","Acute Care Hospitals","Government - State","Yes","460011","39.6053364","-110.831859"
"460013","MOUNTAIN VIEW HOSPITAL","1000 EAST 100 NORTH","","","PAYSON","UT","84651","UTAH","8014657100","Acute Care Hospitals","Proprietary","Yes","460013","40.043653","-111.714572"
"460014","MOUNTAIN WEST MEDICAL CENTER","2055 NORTH MAIN STREET","","","TOOELE","UT","84074","TOOELE","4358433600","Acute Care Hospitals","Proprietary","Yes","460014","40.5645407","-112.296099"
"460015","LOGAN REGIONAL HOSPITAL","1400 NORTH 500 EAST","","","LOGAN","UT","84341","CACHE","4357161000","Acute Care Hospitals","Voluntary non-profit - Private","Yes","460015","41.7574375","-111.821138"
"460017","BRIGHAM CITY COMMUNITY HOSPITAL","950 SOUTH MEDICAL DRIVE","","","BRIGHAM CITY","UT","84302","BOX ELDER","4357349471","Acute Care Hospitals","Proprietary","Yes","460017","41.4915048","-112.0241849"
"460019","UINTAH BASIN MEDICAL CENTER","250 WEST 300 NORTH (75-2)","","","ROOSEVELT","UT","84066","DUCHESNE","4357224691","Acute Care Hospitals","Government - Local","No","460019","40.1980449","-110.0675108"
"460021","DIXIE REGIONAL MEDICAL CENTER","1380 EAST MEDICAL CENTER DRIVE","","","ST GEORGE","UT","84790","WASHINGTON","4352511000","Acute Care Hospitals","Voluntary non-profit - Private","Yes","460021","37.0993769","-113.55203"
"460023","AMERICAN FORK HOSPITAL","170 NORTH 1100 EAST","","","AMERICAN FORK","UT","84003","UTAH","8018553300","Acute Care Hospitals","Voluntary non-profit - Other","Yes","460023","40.3803864","-111.7690451"
"460026","SEVIER VALLEY MEDICAL CENTER","1000 NORTH MAIN STREET","","","RICHFIELD","UT","84701","SEVIER","4358934100","Acute Care Hospitals","Voluntary non-profit - Private","Yes","460026","38.7815123","-112.0847203"
"46002F","VA SALT LAKE CITY HEALTHCARE - GEORGE E. WAHLEN VA","500 FOOTHILL BLVD.","","","SALT LAKE CITY                ","UT","84148","SALT LAKE","8015841211","ACUTE CARE - VETERANS ADMINISTRATION","Government Federal","NO","46002F","40.758436","-111.841384"
"460030","ASHLEY REGIONAL MEDICAL CENTER","150 WEST 100 NORTH","","","VERNAL","UT","84078","UINTAH","4357893342","Acute Care Hospitals","Proprietary","Yes","460030","40.4571213","-109.5313492"
"460033","GARFIELD MEMORIAL HOSPITAL","200 NORTH 400 EAST","","","PANGUITCH","UT","84759","GARFIELD","4356768811","Acute Care Hospitals","Government - Local","Yes","460033","37.8243973","-112.4278519"
"460039","BEAR RIVER VALLEY HOSPITAL","905 NORTH 1000 WEST","","","TREMONTON","UT","84337","BOX ELDER","4352074500","Acute Care Hospitals","Voluntary non-profit - Private","Yes","460039","41.718607","-112.18116"
"460041","DAVIS HOSPITAL AND MEDICAL CENTER","1600 WEST ANTELOPE DRIVE","","","LAYTON","UT","84041","DAVIS","8018071000","Acute Care Hospitals","Proprietary","Yes","460041","41.09098","-111.995573"
"460042","LAKEVIEW HOSPITAL","630 EAST MEDICAL DRIVE","","","BOUNTIFUL","UT","84010","DAVIS","8012992200","Acute Care Hospitals","Proprietary","Yes","460042","40.8869531","-111.868939"
"460043","OREM COMMUNITY HOSPITAL","331 NORTH 400 WEST","","","OREM","UT","84057","UTAH","8017143307","Acute Care Hospitals","Voluntary non-profit - Private","Yes","460043","40.3034053","-111.7054313"
"460044","ALTA VIEW HOSPITAL","9660 SOUTH 1300 EAST","","","SANDY","UT","84094","SALT LAKE","8015012600","Acute Care Hospitals","Voluntary non-profit - Private","Yes","460044","40.573565","-111.854365"
"460047","ST MARKS HOSPITAL","1200 EAST 3900 SOUTH","","","SALT LAKE CITY","UT","84124","SALT LAKE","8012687700","Acute Care Hospitals","Proprietary","No","460047","40.6870379","-111.8564517"
"460049","THE ORTHOPEDIC SPECIALTY HOSPITAL","5848 SOUTH 300 EAST","","","MURRAY","UT","84107","SALT LAKE","8013144100","Acute Care Hospitals","Voluntary non-profit - Private","No","460049","40.6438262","-111.8983919"
"460051","JORDAN VALLEY MEDICAL CENTER","3580 WEST 9000 SOUTH","","","WEST JORDAN","UT","84088","SALT LAKE","8015618888","Acute Care Hospitals","Voluntary non-profit - Other","No","460051","40.589745","-111.975038"
"460052","TIMPANOGOS REGIONAL HOSPITAL","750 WEST 800 NORTH","","","OREM","UT","84057","UTAH","8017146000","Acute Care Hospitals","Proprietary","Yes","460052","40.3120738","-111.713831"
"460054","CACHE VALLEY SPECIALITY HOSPITAL","2380 NORTH 400 EAST","","","NORTH LOGAN","UT","84341","CACHE","4357139700","Acute Care Hospitals","Voluntary non-profit - Private","No","460054","41.775568","-111.821702"
"460056","BLUE MOUNTAIN HOSPITAL","802 SOUTH 200 WEST","","","BLANDING","UT","84511","SAN JUAN","4356783993","Acute Care Hospitals","Voluntary non-profit-Private","No","460056","37.6134925","-109.4815886"
"460057","PARK CITY MEDICAL CENTER","900 ROUND VALLEY DRIVE","","","PARK CITY","UT","84060","SUMMIT","4356587000","Acute Care Hospitals","Voluntary non-profit - Private","Yes","460057","40.6876291","-111.4691409"
"460058","RIVERTON HOSPITAL","3741 WEST 12600 SOUTH","","","RIVERTON","UT","84065","SALT LAKE","8012854000","Acute Care Hospitals","Voluntary non-profit - Private","No","460058","40.5221999","-111.9798688"
"461300","DELTA COMMUNITY MEDICAL CENTER - CAH","126 SOUTH WHITE SAGE AVENUE","","","DELTA","UT","84624","MILLARD","4358645591","Critical Access Hospitals","Voluntary non-profit - Private","Yes","461300","39.3503672","-112.5599948"
"461301","FILLMORE COMMUNITY MEDICAL CENTER - CAH","674 SOUTH HIGHWAY 99","","","FILLMORE","UT","84631","MILLARD","4357435591","Critical Access Hospitals","Voluntary non-profit - Private","Yes","461301","38.953133","-112.3407549"
"461303","SANPETE VALLEY HOSPITAL - CAH","1100 SOUTH MEDICAL DRIVE","","","MOUNT PLEASANT","UT","84647","SANPETE","4354622441","Critical Access Hospitals","Voluntary non-profit - Private","Yes","461303","39.5322213","-111.4611963"
"461304","CENTRAL VALLEY MEDICAL CENTER - CAH","48 WEST 1500 NORTH","","","NEPHI","UT","84648","JUAB","4356233000","Critical Access Hospitals","Voluntary non-profit - Private","Yes","461304","39.7305912","-111.8399766"
"461306","GUNNISON VALLEY HOSPITAL","64 EAST 100 NORTH","","","GUNNISON","UT","84634","SANPETE","4355287246","Critical Access Hospitals","Proprietary","Yes","461306","39.1536123","-111.8164394"
"461307","HEBER VALLEY MEDICAL CENTER","1485 SOUTH HIGHWAY 40","","","HEBER","UT","84032","WASATCH","4356542500","Critical Access Hospitals","Voluntary non-profit - Private","Yes","461307","40.490843","-111.4110211"
"461308","SAN JUAN HOSPITAL","380 WEST 100 NORTH","","","MONTICELLO ","UT","84535","SAN JUAN","4355872116","Critical Access Hospitals","Government - Local","Yes","461308","37.8739762","-109.3360058"
"461309","KANE COUNTY HOSPITAL","355 NORTH MAIN STREET","","","KANAB","UT","84741","KANE","4356445811","Critical Access Hospitals","Government - Hospital District or Authority","Yes","461309","37.0533153","-112.5286081"
"461310","BLUE MOUNTAIN HOSPITAL","802 SOUTH 200 WEST","","","BLANDING","UT","84511","SAN JUAN","4356783993","Critical Access Hospitals","Voluntary non-profit - Private","Yes","461310","37.6134925","-109.4815886"
"463301","PRIMARY CHILDRENS MEDICAL CENTER","100 NORTH MARIO CAPECCHI DRIVE","","","SALT LAKE CITY","UT","84113","SALT LAKE","8016626200","Childrens","Voluntary non-profit - Private","Yes","463301","40.7707048","-111.8383455"
"470001","CENTRAL VERMONT MEDICAL CENTER","BOX 547","","","BARRE","VT","5641","WASHINGTON","8023714100","Acute Care Hospitals","Voluntary non-profit - Private","No","470001","0","0"
"470003","FLETCHER ALLEN HOSPITAL OF VERMONT","111 COLCHESTER AVE","","","BURLINGTON","VT","5401","CHITTENDEN","8028470000","Acute Care Hospitals","Voluntary non-profit - Other","Yes","470003","44.4796586","-73.1941184"
"470005","RUTLAND REGIONAL MEDICAL CENTER","160 ALLEN ST","","","RUTLAND","VT","5701","RUTLAND","8027757111","Acute Care Hospitals","Voluntary non-profit - Private","Yes","470005","43.598277","-72.955117"
"470011","BRATTLEBORO MEMORIAL HOSPITAL","17 BELMONT AVE","","","BRATTLEBORO","VT","5301","WINDHAM","8022570341","Acute Care Hospitals","Voluntary non-profit - Other","Yes","470011","42.8434","-72.56527"
"470012","SOUTHWESTERN VERMONT MEDICAL CENTER","100 HOSPITAL DRIVE","","","BENNINGTON","VT","5201","BENNINGTON","8024426361","Acute Care Hospitals","Voluntary non-profit - Private","Yes","470012","42.87397","-73.207393"
"47001F","WHITE RIVER JCT VA MEDICAL CENTER","215 N. MAIN ST.","","","WHITE RIVER JUNCTION          ","VT","5009","WINDSOR","8022959363","ACUTE CARE - VETERANS ADMINISTRATION","Government Federal","NO","47001F","43.6501844","-72.3223482"
"470024","NORTHWESTERN MEDICAL CENTER INC","133 FAIRFIELD STREET","","","SAINT ALBANS","VT","5478","FRANKLIN","8025241231","Acute Care Hospitals","Voluntary non-profit - Other","Yes","470024","44.807652","-73.072328"
"471300","GRACE COTTAGE HOSPITAL","PO BOX 216","","","TOWNSHEND","VT","5353","WINDHAM","8023657920","Critical Access Hospitals","Proprietary","Yes","471300","43.1203168","-72.6431598"
"471301","GIFFORD MEDICAL CENTER","44 SOUTH MAIN STREET","","","RANDOLPH","VT","5060","ORANGE","8027284441","Critical Access Hospitals","Voluntary non-profit - Other","Yes","471301","43.916904","-72.665306"
"471302","MT ASCUTNEY HOSPITAL","289 COUNTY ROAD","","","WINDSOR","VT","5089","WINDSOR","8026746711","Critical Access Hospitals","Voluntary non-profit - Private","Yes","471302","43.487438","-72.4028699"
"471303","NORTHEASTERN VERMONT REGIONAL HOSPITAL","1315 HOSPITAL DRIVE","","","SAINT JOHNSBURY","VT","5819","CALEDONIA","8027487400","Critical Access Hospitals","Voluntary non-profit - Private","Yes","471303","44.445572","-72.009422"
"471304","NORTH COUNTRY HOSPITAL AND HEALTH CENTER","189 PROUTY DRIVE","","","NEWPORT","VT","5855","ORLEANS","8023347331","Critical Access Hospitals","Voluntary non-profit - Private","Yes","471304","44.955601","-72.20076"
"471305","COPLEY HOSPITAL","528 WASHINGTON HIGHWAY","","","MORRISVILLE","VT","5661","LAMOILLE","8028884231","Critical Access Hospitals","Government - Federal","Yes","471305","44.553619","-72.591415"
"471306","SPRINGFIELD HOSPITAL","PO BOX 2003","","","SPRINGFIELD","VT","5156","WINDSOR","8028852151","Critical Access Hospitals","Voluntary non-profit - Private","Yes","471306","43.2882286","-72.4723629"
"471307","PORTER HOSPITAL INC","115 PORTER DRIVE","","","MIDDLEBURY","VT","5753","ADDISON","8023884701","Critical Access Hospitals","Voluntary non-profit - Private","Yes","471307","43.999714","-73.168526"
"480001","ROY LESTER SCHNEIDER HOSPITALTHE","9048 SUGAR ESTATE","","","ST THOMAS","VI","801","SAINT THOMAS","8097768311","Acute Care Hospitals","Government - Local","Yes","480001","18.340328","-64.9146707"
"480002","GOV JUAN F LUIS HOSPITAL & MEDICAL CTR","#4007 EST DIAMOND RUBY","","","ST CROIX","VI","820","SAINT CROIX","8097786311","Acute Care Hospitals","Government - Local","Yes","480002","ST CROIX","VI 820"
"490001","NORTON COMMUNITY HOSPITAL","100  15TH ST NW","","","NORTON","VA","24273","NORTON CITY","7036799600","Acute Care Hospitals","Voluntary non-profit - Other","Yes","490001","36.9320187","-82.6438066"
"490002","RUSSELL COUNTY MEDICAL CENTER","58 CARROLL STREET","","","LEBANON","VA","24266","RUSSELL","2768838000","Acute Care Hospitals","Proprietary","Yes","490002","36.898974","-82.0785061"
"490004","ROCKINGHAM MEMORIAL HOSPITAL","2010 HEALTH CAMPUS DRIVE","","","HARRISONBURG","VA","22801","HARRISONBURG CITY","5404334100","Acute Care Hospitals","Voluntary non-profit - Private","No","490004","38.4055151","-78.8573019"
"490005","WINCHESTER MEDICAL CENTER INC","220 CAMPUS BLVD SUITE 210","","","WINCHESTER","VA","22601","WINCHESTER CITY","5405367654","Acute Care Hospitals","Voluntary non-profit - Private","Yes","490005","39.1930027","-78.1958446"
"490007","SENTARA NORFOLK GENERAL HOSPITAL","600 GRESHAM DR","","","NORFOLK","VA","23507","NORFOLK CITY","7573883000","Acute Care Hospitals","Voluntary non-profit - Other","Yes","490007","36.862682","-76.30355"
"490009","UNIVERSITY OF VIRGINIA MEDICAL CENTER","JEFFERSON PARK AVE","","","CHARLOTTESVILLE","VA","22908","CHARLOTTESVILLE CITY","8002513627","Acute Care Hospitals","Government - State","Yes","490009","38.0319405","-78.4985855"
"490011","BON SECOURS - DEPAUL MEDICAL CENTER","150 KINGSLEY LANE","","","NORFOLK","VA","23505","NORFOLK CITY","7578895000","Acute Care Hospitals","Voluntary non-profit - Church","Yes","490011","36.89855","-76.281552"
"490012","LEE REGIONAL MEDICAL CENTER","1800 COMBS ROAD","","","PENNINGTON GAP","VA","24277","LEE","2765461440","Acute Care Hospitals","Voluntary non-profit - Other","Yes","490012","36.7490164","-83.0478715"
"490013","HALIFAX REGIONAL HOSPITAL","2204 WILBORN AVENUE","","","HALIFAX","VA","24558","HALIFAX","4345173100","Acute Care Hospitals","Voluntary non-profit - Other","Yes","490013","36.713687","-78.913405"
"490017","BON SECOURS - MARYVIEW MEDICAL CENTER","3636 HIGH STREET","","","PORTSMOUTH","VA","23707","PORTSMOUTH CITY","7573982200","Acute Care Hospitals","Voluntary non-profit - Church","Yes","490017","36.837162","-76.347857"
"490018","AUGUSTA HEALTH","78 MEDICAL CENTER DRIVE","","","FISHERSVILLE","VA","22939","AUGUSTA","5409324000","Acute Care Hospitals","Voluntary non-profit - Other","Yes","490018","38.0927445","-78.9870634"
"490019","CULPEPER REGIONAL HOSPITAL","501 SUNSET LANE","","","CULPEPER","VA","22701","CULPEPER","5408294100","Acute Care Hospitals","Voluntary non-profit - Other","Yes","490019","38.455683","-78.013588"
"490020","JOHN RANDOLPH MEDICAL CENTER","411 WEST RANDOLPH ROAD","","","HOPEWELL","VA","23860","HOPEWELL CITY","8045411600","Acute Care Hospitals","Proprietary","Yes","490020","37.3070753","-77.2914949"
"490021","CENTRA HEALTH","1920 ATHERHOLT ROAD","","","LYNCHBURG","VA","24501","LYNCHBURG CITY","4349474705","Acute Care Hospitals","Voluntary non-profit - Private","Yes","490021","37.413655","-79.168779"
"490022","MARY WASHINGTON HOSPITAL INC","1001 SAM PERRY BOULEVARD","","","FREDERICKSBURG","VA","22401","FREDERICKSBURG CITY","5407411100","Acute Care Hospitals","Voluntary non-profit - Private","Yes","490022","38.3110525","-77.4813365"
"490023","THE FAUQUIER HOSPITAL INC","500 HOSPITAL DRIVE","","","WARRENTON","VA","20186","FAUQUIER","5403165000","Acute Care Hospitals","Voluntary non-profit - Private","Yes","490023","38.713223","-77.808952"
"490024","CARILION MEDICAL CENTER","1906 BELLEVIEW AVENUE","","","ROANOKE","VA","24033","ROANOKE CITY","5409817000","Acute Care Hospitals","Voluntary non-profit - Private","Yes","490024","37.255478","-79.9386404"
"490027","MOUNTAIN VIEW REGIONAL MEDICAL CENTER","310 THIRD STREET NE","","","NORTON","VA","24273","NORTON CITY","2766799174","Acute Care Hospitals","Voluntary non-profit - Private","Yes","490027","36.9431529","-82.6209229"
"490032","VIRGINIA COMMONWEALTH UNIVERSITY HEALTH SYSTEM","1250 EAST MARSHALL STREET","","","RICHMOND","VA","23298","RICHMOND CITY","8048280938","Acute Care Hospitals","Government - Hospital District or Authority","No","490032","37.5404012","-77.4305699"
"490033","WARREN MEMORIAL HOSPITAL","1000 NORTH SHENANDOAH AVE","","","FRONT ROYAL","VA","22630","WARREN","7036360300","Acute Care Hospitals","Voluntary non-profit - Other","Yes","490033","38.9309656","-78.1989456"
"490037","RIVERSIDE SHORE MEMORIAL HOSPITAL","9507 HOSPITAL AVENUE","","","NASSAWADOX","VA","23413","NORTHAMPTON","7574148000","Acute Care Hospitals","Voluntary non-profit - Private","Yes","490037","37.4751211","-75.862641"
"490038","SMYTH COUNTY COMMUNITY HOSPITAL","565 RADIO HILL ROAD","","","MARION","VA","24354","SMYTH","2767821234","Acute Care Hospitals","Voluntary non-profit - Other","Yes","490038","36.8534767","-81.5089787"
"490040","INOVA ALEXANDRIA HOSPITAL","4320 SEMINARY RD","","","ALEXANDRIA","VA","22304","ALEXANDRIA CITY","7035043000","Acute Care Hospitals","Voluntary non-profit - Private","Yes","490040","38.8221772","-77.1053284"
"490041","MARY IMMACULATE HOSPITAL","2 BERNARDINE DRIVE","","","NEWPORT NEWS","VA","23602","NEWPORT NEWS CITY","7578866768","Acute Care Hospitals","Voluntary non-profit - Church","Yes","490041","37.144438","-76.51118"
"490042","CARILION NEW RIVER VALLEY MEDICAL CENTER","2900 LAMB CIRCLE","","","CHRISTIANSBURG","VA","24073","MONTGOMERY","5407312000","Acute Care Hospitals","Voluntary non-profit - Other","Yes","490042","37.0902","-80.5037"
"490043","INOVA LOUDOUN HOSPITAL","44045 RIVERSIDE PARKWAY","","","LEESBURG","VA","20176","LOUDOUN","7038586600","Acute Care Hospitals","Proprietary","Yes","490043","39.074045","-77.477535"
"490044","SENTARA OBICI HOSPITAL","2800 GODWIN BOULEVARD","","","SUFFOLK","VA","23439","SUFFOLK CITY","7579344000","Acute Care Hospitals","Voluntary non-profit - Other","Yes","490044","36.773775","-76.5785609"
"490045","PRINCE WILLIAM HOSPITAL","8700 SUDLEY RD","","","MANASSAS","VA","20110","MANASSAS CITY","7033698000","Acute Care Hospitals","Voluntary non-profit - Other","Yes","490045","38.7673057","-77.4876532"
"490046","SENTARA LEIGH HOSPITAL","830 KEMPSVILLE ROAD","","","NORFOLK","VA","23502","NORFOLK CITY","7572616601","Acute Care Hospitals","Voluntary non-profit - Other","Yes","490046","36.850574","-76.188362"
"490048","LEWIS-GALE MEDICAL CENTER LLC","1900 ELECTRIC ROAD","","","SALEM","VA","24153","SALEM","5407764100","Acute Care Hospitals","Proprietary","Yes","490048","37.263689","-80.031392"
"490050","VIRGINIA HOSPITAL CENTER - ARLINGTON","1701 NORTH GEORGE MASON DRIVE","","","ARLINGTON","VA","22205","ARLINGTON","7035585000","Acute Care Hospitals","Voluntary non-profit - Private","Yes","490050","38.889643","-77.126661"
"490052","RIVERSIDE REGIONAL MEDICAL CENTER","500 J CLYDE MORRIS BLVD","","","NEWPORT NEWS","VA","23601","NEWPORT NEWS CITY","7575942000","Acute Care Hospitals","Voluntary non-profit - Private","No","490052","37.063115","-76.483778"
"490053","JOHNSTON MEMORIAL HOSPITAL","351 COURT STREET","","","ABINGDON","VA","24210","WASHINGTON","2766767000","Acute Care Hospitals","Voluntary non-profit - Private","Yes","490053","36.7161841","-81.971472"
"490057","SENTARA VIRGINIA BEACH GENERAL HOSPITAL","1060 FIRST COLONIAL ROAD","","","VIRGINIA BEACH","VA","23454","VIRGINIA BEACH CITY","7573958000","Acute Care Hospitals","Voluntary non-profit - Other","Yes","490057","36.865172","-76.025902"
"490059","BON SECOURS - ST MARYS HOSPITAL OF RICHMOND","5801 BREMO RD","","","RICHMOND","VA","23226","HENRICO","8042852011","Acute Care Hospitals","Voluntary non-profit - Church","Yes","490059","37.5844058","-77.5124795"
"490060","CLINCH VALLEY MEDICAL CENTER","6801 GOV G C PEERY HWY","","","RICHLANDS","VA","24641","TAZEWELL","2765966000","Acute Care Hospitals","Proprietary","Yes","490060","37.0935353","-81.8320278"
"490063","INOVA FAIRFAX HOSPITAL","3300 GALLOWS RD","","","FALLS CHURCH","VA","22042","FAIRFAX","7037763332","Acute Care Hospitals","Voluntary non-profit - Other","Yes","490063","38.857826","-77.229552"
"490066","SENTARA WILLIAMSBURG REGIONAL MEDICAL CENTER","100 SENTARA CIRCLE","","","WILLIAMSBURG","VA","23188","JAMES CITY","7579846000","Acute Care Hospitals","Voluntary non-profit - Private","Yes","490066","0","0"
"490067","SOUTHSIDE REGIONAL MEDICAL CENTER","200 MEDICAL PARK BOULEVARD","","","PETERSBURG","VA","23805","PETERSBURG CITY","8047655000","Acute Care Hospitals","Proprietary","Yes","490067","37.1825285","-77.3595721"
"490069","BON SECOURS - MEMORIAL REGIONAL MEDICAL","8260 ATLEE ROAD","","","MECHANICSVILLE","VA","23116","HANOVER","8047646000","Acute Care Hospitals","Voluntary non-profit - Church","No","490069","37.6288984","-77.3881744"
"49006F","HAMPTON VA MEDICAL CENTER","100 EMANCIPATION DRIVE","","","HAMPTON    ","VA","23667","HAMPTON CITY","7577229961","ACUTE CARE - VETERANS ADMINISTRATION","Government Federal","NO","49006F","37.016399","-76.333418"
"490075","DANVILLE REGIONAL MEDICAL CENTER","142 SOUTH MAIN STREET","","","DANVILLE","VA","24541","DANVILLE CITY","4347992100","Acute Care Hospitals","Proprietary","Yes","490075","36.5783132","-79.4041842"
"490077","MARTHA JEFFERSON HOSPITAL","459 LOCUST AVE","","","CHARLOTTESVILLE","VA","22902","ALBEMARLE","4346547326","Acute Care Hospitals","Voluntary non-profit - Private","Yes","490077","38.032483","-78.472056"
"490079","MEMORIAL HOSPITAL OF MARTINSVILLE & HENRY COUNTY","320 HOSPITAL DRIVE","","","MARTINSVILLE","VA","24115","MARTINSVILLE CITY","2766667200","Acute Care Hospitals","Proprietary","No","490079","36.6955497","-79.8637449"
"490084","RIVERSIDE TAPPAHANNOCK HOSPITAL","618 HOSPITAL ROAD","","","TAPPAHANNOCK","VA","22560","ESSEX","8044433311","Acute Care Hospitals","Voluntary non-profit - Private","Yes","490084","37.9006568","-76.8774773"
"490088","BEDFORD MEMORIAL HOSPITAL","1613 OAKWOOD STREET","","","BEDFORD","VA","24523","Bedford City","5405862441","Acute Care Hospitals","Voluntary non-profit - Private","Yes","490088","37.3519399","-79.5163638"
"490089","CARILION FRANKLIN MEMORIAL HOSPITAL","180 FLOYD AVENUE","","","ROCKY MOUNT","VA","24151","FRANKLIN","5404835277","Acute Care Hospitals","Voluntary non-profit - Other","Yes","490089","36.9944373","-79.8896998"
"490090","SOUTHSIDE COMMUNITY HOSPITAL INC","800 OAK STREET","","","FARMVILLE","VA","23901","PRINCE EDWARD","4343928811","Acute Care Hospitals","Voluntary non-profit - Private","Yes","490090","37.3028769","-78.4019579"
"490092","SOUTHAMPTON MEMORIAL HOSPITAL","100 FAIRVIEW DRIVE","","","FRANKLIN","VA","23851","FRANKLIN CITY","7575696100","Acute Care Hospitals","Proprietary","Yes","490092","36.6909471","-76.9362601"
"490093","SENTARA CAREPLEX HOSPITAL","3000 COLISEUM DRIVE","","","HAMPTON","VA","23666","HAMPTON CITY","7577361000","Acute Care Hospitals","Voluntary non-profit - Private","No","490093","37.056538","-76.390446"
"490094","BON SECOURS - RICHMOND COMMUNITY HOSPITAL","1500 N. 28TH STREET","","","RICHMOND","VA","23223","RICHMOND CITY","8042251700","Acute Care Hospitals","Voluntary non-profit - Private","Yes","490094","37.540407","-77.406688"
"490097","SOUTHERN VIRGINIA REGIONAL MEDICAL CENTER","727 NORTH MAIN STREET","","","EMPORIA","VA","23847","Emporia City","4343484400","Acute Care Hospitals","Proprietary","Yes","490097","36.7024609","-77.5356096"
"490098","COMMUNITY MEMORIAL HEALTHCENTER INC","125 BUENA VISTA CIRCLE","","","SOUTH HILL","VA","23970","MECKLENBURG","4344473151","Acute Care Hospitals","Voluntary non-profit - Private","Yes","490098","36.7342392","-78.1332083"
"490101","INOVA FAIR OAKS HOSPITAL","3600 JOSEPH SIEWICK DRIVE","","","FAIRFAX","VA","22033","FAIRFAX","7033913600","Acute Care Hospitals","Voluntary non-profit - Other","Yes","490101","38.8848327","-77.3799476"
"490105","SOUTHWESTERN VIRGINIA MENTAL HEALTH INSTITUTE","340 BAGLEY CIRCLE","","","MARION","VA","24354","SMYTH","2767831217","Acute Care Hospitals","Government - State","Yes","490105","36.8337629","-81.5123044"
"490106","WESTERN STATE HOSPITAL","1301 RICHMOND AVENUE","","","STAUNTON","VA","24402","STAUNTON CITY","7033328000","Acute Care Hospitals","Government - State","Yes","490106","38.1343632","-79.0427461"
"490107","RESTON HOSPITAL CENTER","1850 TOWN CENTER PARKWAY","","","RESTON","VA","20190","FAIRFAX","7036899018","Acute Care Hospitals","Proprietary","Yes","490107","38.962062","-77.364886"
"490109","EASTERN STATE HOSPITAL","4601 IRONBOUND ROAD","","","WILLIAMSBURG","VA","23188","JAMES CITY","7572535161","Acute Care Hospitals","Government - State","No","490109","37.291582","-76.743165"
"49010F","RICHMOND VA MEDICAL CENTER","1201 BROAD ROCK BOULEVARD","","","RICHMOND   ","VA","23249","RICHMOND CITY","8046755000","ACUTE CARE - VETERANS ADMINISTRATION","Government Federal","NO","49010F","37.49646","-77.465839"
"490110","MONTGOMERY REGIONAL HOSPITAL","3700 SOUTH MAIN STREET","","","BLACKSBURG","VA","24060","MONTGOMERY","5409511111","Acute Care Hospitals","Proprietary","No","490110","37.1878","-80.4111"
"490111","WYTHE COUNTY COMMUNITY HOSPITAL","600 WEST RIDGE ROAD","","","WYTHEVILLE","VA","24382","WYTHE","2762280200","Acute Care Hospitals","Voluntary non-profit - Private","Yes","490111","36.9547734","-81.0968748"
"490112","CJW MEDICAL CENTER","1401 JOHNSTON WILLIS DRIVE","","","RICHMOND","VA","23235","CHESTERFIELD","8043302001","Acute Care Hospitals","Proprietary","No","490112","37.510935","-77.595502"
"490113","POTOMAC HOSPITAL","2300 OPITZ BOULEVARD","","","WOODBRIDGE","VA","22191","PRINCE WILLIAM","7036701313","Acute Care Hospitals","Voluntary non-profit - Other","Yes","490113","38.6347333","-77.2840121"
"490114","WELLMONT LONESOME PINE HOSPITAL","1990 HOLTON AVENUE EAST","","","BIG STONE GAP","VA","24219","WISE","7035233111","Acute Care Hospitals","Voluntary non-profit - Other","Yes","490114","36.8771425","-82.7559002"
"490115","TWIN COUNTY REGIONAL HOSPITAL","200 HOSPITAL DRIVE","","","GALAX","VA","24333","GALAX CITY","2762368181","Acute Care Hospitals","Voluntary non-profit - Private","No","490115","36.6731088","-80.9183934"
"490116","PULASKI COMMUNITY HOSPITAL","2400 LEE HIGHWAY","","","PULASKI","VA","24301","PULASKI","5409948100","Acute Care Hospitals","Proprietary","No","490116","37.069046","-80.7583274"
"490117","CARILION TAZEWELL COMMUNITY HOSPITAL","141 BEN BOLT AVENUE","","","TAZEWELL","VA","24651","TAZEWELL","2769888700","Acute Care Hospitals","Voluntary non-profit - Other","Yes","490117","37.1239719","-81.4890427"
"490118","HENRICO DOCTORS' HOSPITAL","1602 SKIPWITH ROAD","","","RICHMOND","VA","23229","HENRICO","8042894500","Acute Care Hospitals","Proprietary","Yes","490118","37.605367","-77.539101"
"490119","SENTARA BAYSIDE HOSPITAL","800 INDEPENDENCE BLVD","","","VIRGINIA BEACH","VA","23455","VIRGINIA BEACH CITY","7573636196","Acute Care Hospitals","Voluntary non-profit - Other","Yes","490119","36.868008","-76.131842"
"49011F","SALEM VA MEDICAL CENTER","1970 BOULEVARD","","","SALEM      ","VA","24153","SALEM","5409822463","ACUTE CARE - VETERANS ADMINISTRATION","Government Federal","NO","49011F","37.2833949","-80.0919329"
"490120","CHESAPEAKE GENERAL HOSPITAL","736 BATTLEFIELD BLVD NORTH","","","CHESAPEAKE","VA","23320","CHESAPEAKE CITY","7573128121","Acute Care Hospitals","Government - Hospital District or Authority","Yes","490120","36.747307","-76.246801"
"490122","INOVA MOUNT VERNON HOSPITAL","2501 PARKERS LANE","","","ALEXANDRIA","VA","22306","FAIRFAX","7036647000","Acute Care Hospitals","Voluntary non-profit - Other","Yes","490122","38.7414147","-77.0756733"
"490123","RAPPAHANNOCK GENERAL HOSPITAL","101 HARRIS ROAD","","","KILMARNOCK","VA","22482","LANCASTER","8044358000","Acute Care Hospitals","Voluntary non-profit - Private","Yes","490123","37.7047888","-76.3934435"
"490126","ALLEGHANY REGIONAL HOSPITAL","ONE ARH LANE","","","LOW MOOR","VA","24457","ALLEGHANY","5408626011","Acute Care Hospitals","Proprietary","Yes","490126","37.7911347","-79.8826878"
"490127","BUCHANAN GENERAL HOSPITAL","1535 SLATE CREEK ROAD","","","GRUNDY","VA","24614","BUCHANAN","2769351000","Acute Care Hospitals","Voluntary non-profit - Other","Yes","490127","37.2778886","-82.0990223"
"490130","RIVERSIDE WALTER REED HOSPITAL","7519 HOSPITAL ROAD","","","GLOUCESTER","VA","23061","GLOUCESTER","8046938800","Acute Care Hospitals","Voluntary non-profit - Private","Yes","490130","37.4197626","-76.5431987"
"490134","PIEDMONT GERIATRIC HOSPITAL","HIGHWAY 360 AND 460","","","BURKEVILLE","VA","23922","NOTTOWAY","8047674401","Acute Care Hospitals","Government - State","No","490134","37.1919375","-78.21286"
"490136","BON SECOURS - ST FRANCIS MEDICAL CENTER","13700 STFRANCIS BLVD SUITE 100","","","MIDLOTHIAN","VA","23114","CHESTERFIELD","8045947400","Acute Care Hospitals","Voluntary non-profit - Church","Yes","490136","37.466778","-77.659265"
"490140","STAFFORD HOSPITAL CENTER","101 HOSPITAL CENTER BOULEVARD SUITE 307","","","STAFFORD","VA","22554","STAFFORD","5407419033","Acute Care Hospitals","Voluntary non-profit - Private","Yes","490140","38.4144863","-77.4088674"
"490141","SPOTSYLVANIA REGIONAL MEDICAL CENTER","4600 SPOTSYLVANIA PARKWAY","","","FREDERICKSBURG","VA","22408","SPOTSYLVANIA","5408341500","Acute Care Hospitals","Proprietary","No","490141","38.2168371","-77.496195"
"491300","BATH COUNTY COMMUNITY HOSPITAL","106 PARK DRIVE- PO DRAWER Z","","","HOT SPRINGS","VA","24445","BATH","5408397000","Critical Access Hospitals","Voluntary non-profit - Other","Yes","491300","37.999444","-79.831944"
"491302","CARILION GILES MEMORIAL HOSPITAL","159 HARTLEY WAY","","","PEARISBURG","VA","24134","GILES","5409216035","Critical Access Hospitals","Voluntary non-profit - Private","Yes","491302","37.3324816","-80.7129997"
"491303","DICKENSON COMMUNITY HOSPITAL","312 HOSPITAL DRIVE","","","CLINTWOOD","VA","24228","DICKENSON","2769260300","Critical Access Hospitals","Voluntary non-profit - Private","Yes","491303","37.161738","-82.4510141"
"491304","CARILION STONEWALL JACKSON HOSPITAL","1 HEALTH CIRCLE","","","LEXINGTON","VA","24450","LEXINGTON CITY","5404583503","Critical Access Hospitals","Voluntary non-profit - Private","Yes","491304","37.7788449","-79.440822"
"491305","SHENANDOAH MEMORIAL HOSPITAL","759 SOUTH MAIN STREET","","","WOODSTOCK","VA","22664","SHENANDOAH","5404591100","Critical Access Hospitals","Voluntary non-profit - Private","Yes","491305","38.8717259","-78.5137692"
"491306","PIONEER HEALTH SERVICES OF PATRICK COUNTYINC","18688 JEB STUART HIGHWAY","","","STUART","VA","24171","PATRICK","2766948678","Critical Access Hospitals","Proprietary","Yes","491306","36.6471368","-80.253792"
"491307","PAGE MEMORIAL HOSPITAL INC","200 MEMORIAL DRIVE","","","LURAY","VA","22835","PAGE","5407434561","Critical Access Hospitals","Voluntary non-profit - Private","Yes","491307","38.6643087","-78.4690364"
"500001","NORTHWEST HOSPITAL","1550 NORTH 115TH STREET","","","SEATTLE","WA","98133","KING","2063640500","Acute Care Hospitals","Voluntary non-profit - Other","Yes","500001","47.7138295","-122.3370606"
"500002","PROVIDENCE ST MARY MEDICAL CENTER","401 W POPLAR ST","","","WALLA WALLA","WA","99362","WALLA WALLA","5095225900","Acute Care Hospitals","Voluntary non-profit - Church","Yes","500002","46.063483","-118.340816"
"500003","SKAGIT VALLEY HOSPITAL","1415 KINCAID STREET","","","MOUNT VERNON","WA","98274","SKAGIT","3604244111","Acute Care Hospitals","Government - Hospital District or Authority","Yes","500003","48.417892","-122.323702"
"500005","VIRGINIA MASON MEDICAL CENTER","1100 NINTH AVENUE (PO BOX 900)","","","SEATTLE","WA","98111","KING","2062236600","Acute Care Hospitals","Voluntary non-profit - Private","No","500005","47.6094754","-122.3281092"
"500007","ISLAND HOSPITAL","1211  24TH STREET","","","ANACORTES","WA","98221","SKAGIT","3602991300","Acute Care Hospitals","Government - Hospital District or Authority","Yes","500007","48.500659","-122.615839"
"500008","UNIVERSITY OF WASHINGTON MEDICAL CTR","1959 NE PACIFIC ST","","","SEATTLE","WA","98195","KING","2065983300","Acute Care Hospitals","Government - State","Yes","500008","47.649525","-122.306521"
"500011","HIGHLINE MEDICAL CENTER","16251 SYLVESTER ROAD SW","","","BURIEN","WA","98166","KING","2062449970","Acute Care Hospitals","Voluntary non-profit - Other","Yes","500011","47.457074","-122.3413369"
"500012","YAKIMA REGIONAL MEDICAL AND CARDIAC CENTER","110 SOUTH NINTH AVE","","","YAKIMA","WA","98902","YAKIMA","5095755102","Acute Care Hospitals","Proprietary","Yes","500012","46.596435","-120.520054"
"500014","PROVIDENCE REGIONAL MEDICAL CENTER EVERETT","1321 COLBY AVENUE","","","EVERETT","WA","98201","SNOHOMISH","4252612000","Acute Care Hospitals","Voluntary non-profit - Church","Yes","500014","48.0011219","-122.2056484"
"500015","AUBURN REGIONAL MEDICAL CENTER","202 N DIVISION STREET PLAZA ONE","","","AUBURN","WA","98001","KING","2538337711","Acute Care Hospitals","Voluntary non-profit - Private","Yes","500015","47.3394747","-122.2667661"
"500016","CENTRAL WASHINGTON HOSPITAL","1201 SOUTH MILLER STREET","","","WENATCHEE","WA","98807","CHELAN","5096621511","Acute Care Hospitals","Voluntary non-profit - Other","Yes","500016","47.407706","-120.324288"
"500019","PROVIDENCE CENTRALIA HOSPITAL","914 S SCHEUBER ROAD","","","CENTRALIA","WA","98531","LEWIS","3607362803","Acute Care Hospitals","Voluntary non-profit - Other","Yes","500019","46.712654","-122.985042"
"500021","SAINT CLARE HOSPITAL","11315 BRIDGEPORT WAY S W","","","LAKEWOOD","WA","98499","PIERCE","2535881711","Acute Care Hospitals","Voluntary non-profit - Church","Yes","500021","47.155021","-122.502177"
"500024","PROVIDENCE ST PETER HOSPITAL","413 LILLY ROAD NE","","","OLYMPIA","WA","98506","THURSTON","3604919480","Acute Care Hospitals","Voluntary non-profit - Church","Yes","500024","47.052857","-122.84707"
"500025","SWEDISH MEDICAL CENTER/CHERRY HILL","500 17TH AVENUE","","","SEATTLE","WA","98122","KING","2063202000","Acute Care Hospitals","Voluntary non-profit - Church","Yes","500025","47.6061826","-122.3102302"
