"Provider Number","Hospital Name","Address1","Address2","Address3","City","State","ZIP Code","County Name","Phone Number","Hospital Type","Hospital Ownership","Emergency Service","GeoProviderId","Lat","Lon"
"150022","ST CLARE MEDICAL CENTER","1710 LAFAYETTE ROAD","","","CRAWFORDSVILLE","IN","47933","MONTGOMERY","7653622800","Acute Care Hospitals","Voluntary non-profit - Church","Yes","150022","40.0646302","-86.9081211"
"150023","UNION HOSPITAL INC","1606 N SEVENTH ST","","","TERRE HAUTE","IN","47804","VIGO","8122387601","Acute Care Hospitals","Voluntary non-profit - Other","Yes","150023","39.4851826","-87.4089324"
"150024","WILLIAM N WISHARD MEMORIAL HOSPITAL","1001 W 10TH ST","","","INDIANAPOLIS","IN","46202","MARION","3176307592","Acute Care Hospitals","Government - Local","Yes","150024","39.7808471","-86.1759911"
"150026","IU HEALTH GOSHEN HOSPITAL","200 HIGH PARK AVE","","","GOSHEN","IN","46526","ELKHART","5745332141","Acute Care Hospitals","Voluntary non-profit - Other","Yes","150026","41.56341","-85.830526"
"150030","HENRY COUNTY MEMORIAL HOSPITAL","1000 N 16TH ST","","","NEW CASTLE","IN","47362","HENRY","7655210890","Acute Care Hospitals","Government - Local","Yes","150030","39.9410294","-85.3650176"
"150033","ST FRANCIS HOSPITAL AND HEALTH CENTERS","1600 ALBANY STREET","","","BEECH GROVE","IN","46107","MARION","3177838133","Acute Care Hospitals","Voluntary non-profit - Church","Yes","150033","39.724316","-86.100551"
"150034","ST MARY MEDICAL CENTER INC","1500 S LAKE PARK AVENUE","","","HOBART","IN","46342","LAKE","2199420551","Acute Care Hospitals","Voluntary non-profit - Private","Yes","150034","41.512996","-87.258922"
"150035","PORTER VALPARAISO HOSPITAL","814 LAPORTE AVENUE","","","VALPARAISO","IN","46383","PORTER","2192634600","Acute Care Hospitals","Voluntary non-profit - Private","Yes","150035","41.4672562","-87.0513048"
"150037","HANCOCK REGIONAL HOSPITAL","801 N STATE STREET","","","GREENFIELD","IN","46140","HANCOCK","3174684412","Acute Care Hospitals","Government - Local","Yes","150037","39.7937398","-85.7695536"
"150038","MORGAN HOSPITAL AND MEDICAL CENTER","2209 JOHN R WOODEN DRIVE","","","MARTINSVILLE","IN","46151","MORGAN","7653496500","Acute Care Hospitals","Government - Local","Yes","150038","39.4271589","-86.405999"
"15003F","INDIANAPOLIS VA MEDICAL CENTER","1481 W. TENTH STREET","","","INDIANAPOLIS                  ","IN","46202","MARION","3175540000","ACUTE CARE - VETERANS ADMINISTRATION","Government Federal","NO","15003F","39.777862","-86.186982"
"150042","GOOD SAMARITAN HOSPITAL","520 S 7TH STREET","","","VINCENNES","IN","47591","KNOX","8128825220","Acute Care Hospitals","Government - Local","Yes","150042","38.672928","-87.5326879"
"150044","FLOYD MEMORIAL HOSPITAL AND HEALTH SERVICES","1850 STATE STREET","","","NEW ALBANY","IN","47150","FLOYD","8129495500","Acute Care Hospitals","Government - Local","Yes","150044","38.3006531","-85.8352137"
"150045","DEKALB MEMORIAL HOSPITAL INC","1316 E SEVENTH STREET","","","AUBURN","IN","46706","DE KALB","2609254600","Acute Care Hospitals","Voluntary non-profit - Private","Yes","150045","41.36769","-85.0350377"
"150046","TERRE HAUTE REGIONAL HOSPITAL","3901 S SEVENTH ST","","","TERRE HAUTE","IN","47802","VIGO","8122320021","Acute Care Hospitals","Proprietary","Yes","150046","39.4196353","-87.4068669"
"150047","ST JOSEPH HOSPITAL","700 BROADWAY","","","FORT WAYNE","IN","46802","ALLEN","2604253000","Acute Care Hospitals","Proprietary","Yes","150047","41.0784516","-85.1489484"
"150048","REID HOSPITAL & HEALTH CARE SERVICES","1100 REID PARKWAY","","","RICHMOND","IN","47374","WAYNE","7659833000","Acute Care Hospitals","Voluntary non-profit - Other","Yes","150048","39.8640506","-84.8841271"
"15004F","VA N. INDIANA HEALTHCARE SYSTEM - MARION","1700 E. 38TH STREET","","","MARION                        ","IN","46953","GRANT","7656743321","ACUTE CARE - VETERANS ADMINISTRATION","Government Federal","NO","15004F","40.520026","-85.637496"
"150051","BLOOMINGTON HOSPITAL","601 W SECOND STREET","","","BLOOMINGTON","IN","47403","MONROE","8123539555","Acute Care Hospitals","Voluntary non-profit - Private","Yes","150051","39.1613682","-86.5392772"
"150056","INDIANA UNIVERSITY HEALTH","1701 N SENATE BLVD","","","INDIANAPOLIS","IN","46206","MARION","3179625900","Acute Care Hospitals","Voluntary non-profit - Private","Yes","150056","39.7887325","-86.1627388"
"150057","ST FRANCIS HOSPITAL MOORESVILLE","1201 HADLEY ROAD","","","MOORESVILLE","IN","46158","MORGAN","3178311160","Acute Care Hospitals","Voluntary non-profit - Church","No","150057","39.607831","-86.35573"
"150058","MEMORIAL HOSPITAL OF SOUTH BEND","615 N MICHIGAN STREET","","","SOUTH BEND","IN","46601","ST JOSEPH","5746473632","Acute Care Hospitals","Voluntary non-profit - Other","Yes","150058","41.684238","-86.2506176"
"150059","RIVERVIEW HOSPITAL","395 WESTFIELD RD","","","NOBLESVILLE","IN","46060","HAMILTON","3177767108","Acute Care Hospitals","Government - Local","Yes","150059","40.0470121","-86.0229797"
"150061","DAVIESS COMMUNITY HOSPITAL","1314 E WALNUT ST","","","WASHINGTON","IN","47501","DAVIESS","8122542760","Acute Care Hospitals","Government - Local","Yes","150061","38.6586958","-87.1603192"
"150064","FAYETTE REGIONAL HEALTH SYSTEM","1941 VIRGINIA AVE","","","CONNERSVILLE","IN","47331","FAYETTE","7658255131","Acute Care Hospitals","Voluntary non-profit - Private","Yes","150064","39.6562569","-85.132653"
"150065","SCHNECK MEDICAL CENTER","411 W TIPTON STREET","","","SEYMOUR","IN","47274","JACKSON","8125222349","Acute Care Hospitals","Government - Local","Yes","150065","38.955423","-85.892232"
"150069","KING'S DAUGHTERS' HOSPITAL AND HEALTH SERVICESTHE","ONE KINGS DAUGHTERS DRIVE","","","MADISON","IN","47250","JEFFERSON","8122655211","Acute Care Hospitals","Voluntary non-profit - Private","Yes","150069","38.738579","-85.381364"
"150072","MEMORIAL HOSPITAL","1101 MICHIGAN AVE","","","LOGANSPORT","IN","46947","CASS","5747537541","Acute Care Hospitals","Government - Federal","Yes","150072","40.763244","-86.361619"
"150074","COMMUNITY HOSPITAL EAST","1500 N RITTER AVE","","","INDIANAPOLIS","IN","46219","MARION","3173555411","Acute Care Hospitals","Voluntary non-profit - Private","Yes","150074","39.787044","-86.076738"
"150075","BLUFFTON REGIONAL MEDICAL CENTER","303 S MAIN ST","","","BLUFFTON","IN","46714","WELLS","2608243210","Acute Care Hospitals","Proprietary","Yes","150075","40.7375395","-85.1714069"
"150076","SAINT JOSEPH'S REGIONAL MEDICAL CENTER - PLYMOUTH","1915 LAKE AVENUE","","","PLYMOUTH","IN","46563","MARSHALL","5749363181","Acute Care Hospitals","Voluntary non-profit - Church","No","150076","41.332982","-86.333356"
"150082","DEACONESS HOSPITAL INC","600 MARY ST","","","EVANSVILLE","IN","47747","VANDERBURGH","8124502252","Acute Care Hospitals","Voluntary non-profit - Private","Yes","150082","37.98293","-87.5707153"
"150084","ST VINCENT HOSPITAL & HEALTH SERVICES","2001 W 86TH STREET","","","INDIANAPOLIS","IN","46260","MARION","3173387000","Acute Care Hospitals","Voluntary non-profit - Church","Yes","150084","39.908727","-86.1970319"
"150086","DEARBORN COUNTY HOSPITAL","600 WILSON CREEK RD","","","LAWRENCEBURG","IN","47025","DEARBORN","8125371010","Acute Care Hospitals","Government - Local","Yes","150086","39.1106173","-84.8851697"
"150088","SAINT JOHN'S HEALTH SYSTEM","2015 JACKSON ST","","","ANDERSON","IN","46016","MADISON","7656492511","Acute Care Hospitals","Voluntary non-profit - Private","Yes","150088","40.0962249","-85.6804817"
"150089","BALL MEMORIAL HOSPITAL INC","2401 UNIVERSITY AVENUE","","","MUNCIE","IN","47303","DELAWARE","7657473111","Acute Care Hospitals","Voluntary non-profit - Private","Yes","150089","40.196656","-85.414108"
"150090","FRANCISCAN ST MARGARET HEALTH - DYER","24 JOLIET STREET","","","DYER","IN","46311","LAKE","2198652141","Acute Care Hospitals","Voluntary non-profit - Church","Yes","150090","41.492224","-87.524288"
"150091","PARKVIEW HUNTINGTON HOSPITAL","2001 STULTS RD","","","HUNTINGTON","IN","46750","HUNTINGTON","2603553000","Acute Care Hospitals","Voluntary non-profit - Private","Yes","150091","40.904909","-85.488213"
"150097","MAJOR HOSPITAL","150 W WASHINGTON ST","","","SHELBYVILLE","IN","46176","SHELBY","3173923211","Acute Care Hospitals","Government - Local","Yes","150097","39.52494","-85.781127"
"150100","ST MARY'S MEDICAL CENTER OF EVANSVILLE INC","3700 WASHINGTON AVENUE","","","EVANSVILLE","IN","47750","VANDERBURGH","8124854000","Acute Care Hospitals","Voluntary non-profit - Private","Yes","150100","37.962775","-87.504902"
"150101","PARKVIEW WHITLEY HOSPITAL","353 N OAK ST","","","COLUMBIA CITY","IN","46725","WHITLEY","2602489301","Acute Care Hospitals","Voluntary non-profit - Private","Yes","150101","41.1625556","-85.4956711"
"150102","STARKE MEMORIAL HOSPITAL","102 E CULVER ROAD","","","KNOX","IN","46534","STARKE","5747721100","Acute Care Hospitals","Proprietary","Yes","150102","41.2880764","-86.6218812"
"150104","WITHAM HEALTH SERVICES","2605 N LEBANON STT","","","LEBANON","IN","46052","BOONE","7654858000","Acute Care Hospitals","Government - Local","Yes","150104","40.0738801","-86.4744797"
"150109","ST ELIZABETH EAST","1701 S CREASY LN","","","LAFAYETTE","IN","47905","TIPPECANOE","7655024000","Acute Care Hospitals","Voluntary non-profit - Church","Yes","150109","40.3942403","-86.8351565"
"150112","COLUMBUS REGIONAL HOSPITAL","2400 E 17TH STREET","","","COLUMBUS","IN","47201","BARTHOLOMEW","8123794441","Acute Care Hospitals","Government - Local","Yes","150112","39.2158411","-85.8968283"
"150113","COMMUNITY HOSPITAL OF ANDERSON AND MADISON COUNTY","1515 N MADISON AVE","","","ANDERSON","IN","46011","MADISON","7652984242","Acute Care Hospitals","Voluntary non-profit - Other","Yes","150113","40.1299778","-85.6917109"
"150115","MEMORIAL HOSPITAL AND HEALTH CARE CENTER","800 W 9TH STREET","","","JASPER","IN","47546","DUBOIS","8124822345","Acute Care Hospitals","Voluntary non-profit - Church","Yes","150115","38.394992","-86.940895"
"150125","COMMUNITY HOSPITAL","901 MAC ARTHUR BOULEVARD","","","MUNSTER","IN","46321","LAKE","2198361600","Acute Care Hospitals","Voluntary non-profit - Private","Yes","150125","41.550651","-87.506187"
"150126","FRANCISCAN ST ANTHONY HEALTH - CROWN POINT","1201 S MAIN ST","","","CROWN POINT","IN","46307","LAKE","2197576100","Acute Care Hospitals","Voluntary non-profit - Church","Yes","150126","41.395765","-87.366888"
"150128","COMMUNITY HOSPITAL SOUTH","1402 E COUNTY LINE RD S","","","INDIANAPOLIS","IN","46227","MARION","3178877112","Acute Care Hospitals","Voluntary non-profit - Private","Yes","150128","39.6365539","-86.132546"
"150129","WESTVIEW HOSPITAL","3630 GUION RD","","","INDIANAPOLIS","IN","46222","MARION","3179207288","Acute Care Hospitals","Voluntary non-profit - Private","Yes","150129","39.820996","-86.222506"
"150133","KOSCIUSKO COMMUNITY HOSPITAL","2101 E DUBOIS DR","","","WARSAW","IN","46580","KOSCIUSKO","5743727611","Acute Care Hospitals","Proprietary","Yes","150133","41.247864","-85.829274"
"150146","PARKVIEW NOBLE HOSPITAL","401 SAWYER ROAD","","","KENDALLVILLE","IN","46755","NOBLE","2603478700","Acute Care Hospitals","Government - Local","Yes","150146","41.4509017","-85.2934429"
"150149","WOMEN'S HOSPITAL THE","4199 GATEWAY BLVD","","","NEWBURGH","IN","47630","WARRICK","8128424200","Acute Care Hospitals","Proprietary","No","150149","37.975496","-87.446022"
"150150","DUPONT HOSPITAL LLC","2520 E DUPONT RD","","","FORT WAYNE","IN","46825","ALLEN","2604163023","Acute Care Hospitals","Proprietary","Yes","150150","41.174876","-85.10943"
"150153","ST VINCENT HEART CENTER OF INDIANA LLC","10580 N MERIDIAN ST","","","INDIANAPOLIS","IN","46290","HAMILTON","3175835000","Acute Care Hospitals","Proprietary","Yes","150153","39.940039","-86.159297"
"150154","INDIANA HEART HOSPITAL THE","8075 N SHADELAND AVE","","","INDIANAPOLIS","IN","46250","MARION","3176218063","Acute Care Hospitals","Proprietary","Yes","150154","39.9019895","-86.0460768"
"150157","ST VINCENT CARMEL HOSPITAL INC","13500 N MERIDIAN ST","","","CARMEL","IN","46032","HAMILTON","3175827000","Acute Care Hospitals","Voluntary non-profit - Church","Yes","150157","39.982751","-86.143426"
"150158","INDIANA UNIVERSITY HEALTH WEST HOSPITAL","1111 N RONALD REAGAN PARKWAY","","","AVON","IN","46123","HENDRICKS","3172173000","Acute Care Hospitals","Voluntary non-profit - Private","Yes","150158","39.780334","-86.339701"
"150160","INDIANA ORTHOPAEDIC HOSPITAL LLC","8400 NORTHWEST BLVD","","","INDIANAPOLIS","IN","46278","MARION","3179561000","Acute Care Hospitals","Proprietary","No","150160","39.9078198","-86.266396"
"150161","INDIANA UNIVERSITY HEALTH NORTH HOSPITAL","11700 N MERIDIAN ST","","","CARMEL","IN","46032","HAMILTON","3176882000","Acute Care Hospitals","Proprietary","Yes","150161","39.959294","-86.162338"
"150162","ST FRANCIS HOSPITAL AND HEALTH CENTERS-INDIANAPOLI","8111 S EMERSON AVENUE","","","INDIANAPOLIS","IN","46237","MARION","3178655001","Acute Care Hospitals","Voluntary non-profit - Church","Yes","150162","39.6483541","-86.0823324"
"150163","SAINT CATHERINE REGIONAL HOSPITAL","2200  MARKET STREET","","","CHARLESTOWN","IN","47111","CLARK","8122563301","Acute Care Hospitals","Proprietary","No","150163","38.473918","-85.669971"
"150164","MONROE HOSPITAL","4011 S MONROE MEDICAL PARK BLVD","","","BLOOMINGTON","IN","47403","MONROE","8128251111","Acute Care Hospitals","Voluntary non-profit - Private","Yes","150164","39.1206938","-86.5719066"
"150165","FRANCISCAN PHYSICIANS HOSPITAL LLC","701 SUPERIOR AVENUE","","","MUNSTER","IN","46321","LAKE","2199224200","Acute Care Hospitals","Voluntary non-profit - Private","No","150165","41.538216","-87.512311"
"150166","PINNACLE HOSPITAL","9301 CONNECTICUT DRIVE","","","CROWN POINT","IN","46307","LAKE","2197562100","Acute Care Hospitals","Proprietary","No","150166","41.448139","-87.32808"
"150167","ORTHOPAEDIC HOSPITAL AT PARKVIEW NORTH LLC","11130 PARKVIEW CIRCLE DR","","","FORT WAYNE","IN","46845","ALLEN","2606724050","Acute Care Hospitals","Voluntary non-profit - Private","Yes","150167","41.1896871","-85.0998244"
"150168","THE ORTHOPAEDIC HOSPITAL OF LUTHERAN HEALTH NETWOR","7952 W JEFFERSON BLVD","","","FT WAYNE","IN","46804","ALLEN","2604352999","Acute Care Hospitals","Government - State","No","150168","41.0366891","-85.2468779"
"150169","COMMUNITY HOSPITAL NORTH","7150 CLEARVISTA DRIVE","","","INDIANAPOLIS","IN","46256","MARION","3176215335","Acute Care Hospitals","Voluntary non-profit - Private","Yes","150169","39.901019","-86.0409449"
"150170","SURGICAL HOSPITAL OF MUNSTER","7847 CALUMET AVE","","","MUNSTER","IN","46321","LAKE","2198365102","Acute Care Hospitals","Proprietary","No","150170","41.5704635","-87.5089747"
"150172","PHYSICIANS' MEDICAL CENTER LLC","4023 REAS LANE","","","NEW ALBANY","IN","47150","FLOYD","8122067660","Acute Care Hospitals","Proprietary","No","150172","38.3387286","-85.8271001"
"150173","INDIANA UNIVERSITY HEALTH ARNETT HOSPITAL","5165 MCCARTY LANE","","","LAFAYETTE","IN","47905","TIPPECANOE","7654488000","Acute Care Hospitals","Voluntary non-profit - Private","Yes","150173","40.3994173","-86.8088411"
"150175","THE HEART HOSPITAL AT DEACONESS GATEWAY LLC","4007 GATEWAY BLVD","","","NEWBURGH","IN","47630","WARRICK","8128424784","Acute Care Hospitals","Proprietary","No","150175","37.974807","-87.44457"
"150176","KENTUCKIANA MEDICAL CENTER LLC","4601 MEDICAL PLAZA WAY","","","CLARKSVILLE","IN","47129","CLARK","8122803300","Acute Care Hospitals","Proprietary","No","150176","38.3195845","-85.7717907"
"150177","UNITY MEDICAL AND SURGICAL HOSPITAL","4455 EDISON LAKES PKWY","","","MISHAWAKA","IN","46545","ST JOSEPH","5742316800","Acute Care Hospitals","Proprietary","No","150177","41.7008203","-86.1768363"
"151300","COMMUNITY HOSPITAL OF BREMEN INC","1020 HIGH ROAD","","","BREMEN","IN","46506","MARSHALL","5745462211","Critical Access Hospitals","Voluntary non-profit - Private","Yes","151300","41.4558089","-86.1536796"
"151301","ST VINCENT RANDOLPH HOSPITAL INC","473 E GREENVILLE AVENUE","","","WINCHESTER","IN","47394","RANDOLPH","7655840004","Critical Access Hospitals","Voluntary non-profit - Private","Yes","151301","40.168613","-84.969159"
"151302","BLACKFORD COMMUNITY HOSPITAL","410 PILGRIM BOULEVARD","","","HARTFORD CITY                 ","IN","47348","BLACKFORD","7653480300","Critical Access Hospitals","Voluntary non-profit - Private","Yes","151302","40.4689548","-85.3720072"
"151303","ST VINCENT JENNINGS HOSPITAL INC","301 HENRY ST","","","NORTH VERNON","IN","47265","JENNINGS","8123524200","Critical Access Hospitals","Voluntary non-profit - Church","Yes","151303","39.009424","-85.6415619"
"151304","RUSH MEMORIAL HOSPITAL","1300 N MAIN ST","","","RUSHVILLE                     ","IN","46173","RUSH","7659327513","Critical Access Hospitals","Government - Local","Yes","151304","39.6218297","-85.4442"
"151307","ST VINCENT WILLIAMSPORT HOSPITAL INC","412 N MONROE STREET","","","WILLIAMSPORT","IN","47993","WARREN","7657624000","Critical Access Hospitals","Voluntary non-profit - Church","Yes","151307","40.2902299","-87.2955541"
"151308","ST VINCENT MERCY HOSPITAL","1331 SOUTH A ST","","","ELWOOD","IN","46036","MADISON","7655524594","Critical Access Hospitals","Voluntary non-profit - Church","Yes","151308","40.2755","-85.843727"
"151309","ST VINCENT CLAY HOSPITAL INC","1206 E NATIONAL AVE","","","BRAZIL","IN","47834","CLAY","8124422500","Critical Access Hospitals","Voluntary non-profit - Private","Yes","151309","39.528443","-87.111832"
"151310","WABASH COUNTY HOSPITAL","710 N EAST STREET","","","WABASH","IN","46992","WABASH","2605633131","Critical Access Hospitals","Government - Local","Yes","151310","40.806901","-85.815747"
"151311","TIPTON HOSPITAL","1000 S MAIN ST","","","TIPTON","IN","46072","TIPTON","7656758500","Critical Access Hospitals","Government - Local","Yes","151311","40.271833","-86.0423239"
"151312","WHITE COUNTY MEMORIAL HOSPITAL","720 S SIXTH STREET","","","MONTICELLO","IN","47960","WHITE","5745837111","Critical Access Hospitals","Government - Local","Yes","151312","40.7349136","-86.7776822"
"151314","ST VINCENT SALEM HOSPITAL INC","911 N SHELBY ST","","","SALEM                         ","IN","47167","WASHINGTON","8128835881","Critical Access Hospitals","Voluntary non-profit - Other","Yes","151314","38.6103989","-86.1077118"
"151315","CAMERON MEMORIAL COMMUNITY HOSPITAL INC","416 E MAUMEE STREET","","","ANGOLA","IN","46703","STEUBEN","2606652141","Critical Access Hospitals","Voluntary non-profit - Private","Yes","151315","41.6348859","-84.9955915"
"151316","ST VINCENT FRANKFORT HOSPITAL INC","1300 S JACKSON ST","","","FRANKFORT","IN","46041","CLINTON","7656563000","Critical Access Hospitals","Voluntary non-profit - Church","Yes","151316","40.269311","-86.510913"
"151317","GREENE COUNTY GENERAL HOSPITAL","LONE TREE RD RR 1 BOX 1000","","","LINTON","IN","47441","GREENE","8128475212","Critical Access Hospitals","Government - Local","Yes","151317","39.0347666","-87.1658458"
"151318","DUKES MEMORIAL HOSPITAL","275 W 12TH STREET","","","PERU","IN","46970","MIAMI","7654728000","Critical Access Hospitals","Voluntary non-profit - Private","Yes","151318","40.7561734","-86.0844108"
"151319","GIBSON GENERAL HOSPITAL","1808 SHERMAN DRIVE","","","PRINCETON","IN","47670","GIBSON","8123853401","Critical Access Hospitals","Voluntary non-profit - Private","Yes","151319","38.360282","-87.5888718"
"151320","JAY COUNTY HOSPITAL","500 W VOTAW ST","","","PORTLAND","IN","47371","JAY","2607267131","Critical Access Hospitals","Government - Local","Yes","151320","40.4393932","-84.9838336"
"151322","PERRY COUNTY MEMORIAL HOSPITAL","ONE HOSPITAL ROAD","","","TELL CITY","IN","47586","PERRY","8125477011","Critical Access Hospitals","Government - Local","Yes","151322","37.928198","-86.7580488"
"151323","PARKVIEW LAGRANGE HOSPITAL","207 N TOWNLINE ROAD","","","LAGRANGE","IN","46761","LAGRANGE","2604639000","Critical Access Hospitals","Government - Federal","Yes","151323","41.6446486","-85.4249002"
"151324","JASPER COUNTY HOSPITAL","1104 E GRACE STREET","","","RENSSELAER","IN","47978","JASPER","2198665141","Critical Access Hospitals","Voluntary non-profit - Other","Yes","151324","40.933585","-87.136874"
"151325","ST MARY'S WARRICK HOSPITAL INC","1116 MILLIS AVE","","","BOONVILLE","IN","47601","WARRICK","8128974800","Critical Access Hospitals","Voluntary non-profit - Private","Yes","151325","38.0414013","-87.2622236"
"151326","UNION HOSPITAL CLINTON","801 S MAIN ST","","","CLINTON","IN","47842","VERMILLION","7658321234","Critical Access Hospitals","Voluntary non-profit - Private","Yes","151326","39.652868","-87.399056"
"151327","SULLIVAN COUNTY COMMUNITY HOSPITAL","2200 N SECTION STREET","","","SULLIVAN","IN","47882","SULLIVAN","8122684311","Critical Access Hospitals","Government - Local","Yes","151327","39.1211715","-87.4091779"
"151328","BEDFORD REGIONAL MEDICAL CENTER","2900 W 16TH ST","","","BEDFORD","IN","47421","LAWRENCE","8122751200","Critical Access Hospitals","Voluntary non-profit - Private","Yes","151328","38.8609651","-86.5121398"
"151329","MARGARET MARY COMMUNITY HOSPITAL INC","321 MITCHELL AVENUE","","","BATESVILLE","IN","47006","RIPLEY","8129346624","Critical Access Hospitals","Voluntary non-profit - Private","Yes","151329","39.3040727","-85.2264523"
"151330","ADAMS  MEMORIAL HOSPITAL","1100 MERCER AVENUE","","","DECATUR","IN","46733","ADAMS","2607242145","Critical Access Hospitals","Government - Local","Yes","151330","40.81647","-84.9135809"
"151331","HARRISON COUNTY HOSPITAL","1141 HOSPITAL DRIVE NW","","","CORYDON","IN","47112","HARRISON","8127384251","Critical Access Hospitals","Government - Local","Yes","151331","38.2377621","-86.1476144"
"151332","DECATUR COUNTY MEMORIAL HOSPITAL","720 N LINCOLN STREET","","","GREENSBURG","IN","47240","DECATUR","8126634331","Critical Access Hospitals","Government - Local","Yes","151332","39.3432923","-85.4793734"
"151333","PUTNAM COUNTY HOSPITAL","1542 S BLOOMINGTON ST","","","GREENCASTLE","IN","46135","PUTNAM","7656552620","Critical Access Hospitals","Government - Local","Yes","151333","39.6218401","-86.8458916"
"151334","SCOTT COUNTY  MEMORIAL HOSPITAL AKA SCOTT MEMORIAL","1451 N GARDNER ST","","","SCOTTSBURG","IN","47170","SCOTT","8127523456","Critical Access Hospitals","Government - Local","Yes","151334","38.704988","-85.786882"
"151335","ST VINCENT DUNN HOSPITAL INC","1600 23RD STREET","","","BEDFORD","IN","47421","LAWRENCE","8122753331","Critical Access Hospitals","Voluntary non-profit - Other","Yes","151335","38.853322","-86.494527"
"160001","MARSHALLTOWN MEDICAL & SURGICAL CENTER","3 SOUTH 4TH AVENUE","","","MARSHALLTOWN","IA","50158","MARSHALL","6417545151","Acute Care Hospitals","Voluntary non-profit - Private","Yes","160001","42.0485524","-92.9062546"
"160005","ST ANTHONY REGIONAL HOSPITAL","311 SOUTH CLARK STREET","","","CARROLL","IA","51401","CARROLL","7127923581","Acute Care Hospitals","Voluntary non-profit - Church","Yes","160005","42.0559704","-94.867714"
"160008","KEOKUK AREA HOSPITAL","1600 MORGAN STREET","","","KEOKUK","IA","52632","LEE","3195247150","Acute Care Hospitals","Voluntary non-profit - Private","Yes","160008","40.4069479","-91.3881973"
"160013","TRINITY MUSCATINE","1518 MULBERRY AVENUE","","","MUSCATINE","IA","52761","MUSCATINE","5632649100","Acute Care Hospitals","Voluntary non-profit - Private","Yes","160013","41.433128","-91.054128"
"160016","TRINITY REGIONAL MEDICAL CENTER","802 KENYON RD","","","FORT DODGE","IA","50501","WEBSTER","5155738710","Acute Care Hospitals","Voluntary non-profit - Private","Yes","160016","42.4939779","-94.1891112"
"160024","IOWA LUTHERAN HOSPITAL","700 EAST UNIVERSITY AVENUE","","","DES MOINES","IA","50316","POLK","5152635612","Acute Care Hospitals","Voluntary non-profit - Private","No","160024","41.6004354","-93.6108569"
"160028","ALEGENT HEALTH MERCY HOSPITAL","800 MERCY DRIVE","","","COUNCIL BLUFFS","IA","51503","POTTAWATTAMIE","7123285000","Acute Care Hospitals","Voluntary non-profit - Church","Yes","160028","41.268856","-95.839233"
"160029","MERCY HOSPITAL","500 E MARKET STREET","","","IOWA CITY","IA","52245","JOHNSON","3193390300","Acute Care Hospitals","Voluntary non-profit - Church","Yes","160029","41.664111","-91.528407"
"160030","MARY GREELEY MEDICAL CENTER","1111 DUFF AVENUE","","","AMES","IA","50010","STORY","5152392011","Acute Care Hospitals","Government - Local","Yes","160030","42.0324643","-93.6121845"
"160032","SKIFF MEDICAL CENTER","204 NORTH 4TH AVENUE EAST","","","NEWTON","IA","50208","JASPER","6417921273","Acute Care Hospitals","Government - Local","Yes","160032","41.702633","-93.055161"
"160033","GENESIS MEDICAL CENTER-DAVENPORT","1227 EAST RUSHOLME STREET","","","DAVENPORT","IA","52803","SCOTT","5634211000","Acute Care Hospitals","Voluntary non-profit - Other","Yes","160033","41.541899","-90.556911"
"16003F","VA CENTRAL IOWA HEALTHCARE SYSTEM","3600 30TH STREET","","","DES MOINES                    ","IA","50310","POLK","5156995999","ACUTE CARE - VETERANS ADMINISTRATION","Government Federal","NO","16003F","41.627818","-93.664428"
"160040","SARTORI MEMORIAL HOSPITAL","515 COLLEGE STREET","","","CEDAR FALLS","IA","50613","BLACK HAWK","3192683000","Acute Care Hospitals","Voluntary non-profit - Church","Yes","160040","42.533955","-92.458382"
"160045","ST LUKES HOSPITAL","1026 A AVE NE","","","CEDAR RAPIDS","IA","52402","LINN","3193697211","Acute Care Hospitals","Voluntary non-profit - Private","Yes","160045","41.985703","-91.660933"
"160047","JENNIE EDMUNDSON HOSPITAL","933 EAST PIERCE STREET","","","COUNCIL BLUFFS","IA","51503","POTTAWATTAMIE","7123966000","Acute Care Hospitals","Voluntary non-profit - Private","Yes","160047","41.2693181","-95.8351484"
"16004F","IOWA CITY VA MEDICAL CENTER","601 HIGHWAY 6 WEST","","","IOWA CITY                     ","IA","52246","JOHNSON","3193380581","ACUTE CARE - VETERANS ADMINISTRATION","Government Federal","NO","16004F","41.6667289","-91.559129"
"160057","GREAT RIVER MEDICAL CENTER","1221 SOUTH GEAR AVENUE","","","WEST BURLINGTON","IA","52655","DES MOINES","3197681000","Acute Care Hospitals","Voluntary non-profit - Private","Yes","160057","40.8104793","-91.1702547"
"160058","UNIVERSITY OF IOWA HOSPITAL & CLINICS","200 HAWKINS DRIVE","","","IOWA CITY","IA","52242","JOHNSON","3193561616","Acute Care Hospitals","Government - State","Yes","160058","41.6573652","-91.5498892"
"160064","MERCY MEDICAL CENTER-NORTH IOWA","1000 FOURTH STREET SW","","","MASON CITY","IA","50401","CERRO GORDO","6414227000","Acute Care Hospitals","Voluntary non-profit - Church","Yes","160064","43.150633","-93.217178"
"160067","COVENANT MEDICAL CENTER","3421 WEST NINTH STREET","","","WATERLOO","IA","50702","BLACK HAWK","3192728000","Acute Care Hospitals","Voluntary non-profit - Church","Yes","160067","42.4641224","-92.3453925"
"160069","MERCY MEDICAL CENTER-DUBUQUE","250 MERCY DRIVE","","","DUBUQUE","IA","52001","DUBUQUE","5635898000","Acute Care Hospitals","Voluntary non-profit - Church","Yes","160069","42.4929591","-90.674064"
"160079","MERCY MEDICAL CENTER - CEDAR RAPIDS","701 10TH STREET SE","","","CEDAR RAPIDS","IA","52403","LINN","3193986011","Acute Care Hospitals","Voluntary non-profit - Church","Yes","160079","41.979346","-91.655548"
"160080","MERCY MEDICAL CENTER-CLINTON","1410 NORTH 4TH STREET","","","CLINTON","IA","52732","CLINTON","5632445555","Acute Care Hospitals","Voluntary non-profit - Church","Yes","160080","41.8614111","-90.1892084"
"160082","IOWA METHODIST MEDICAL CENTER","1200 PLEASANT STREET","","","DES MOINES","IA","50309","POLK","5152416212","Acute Care Hospitals","Voluntary non-profit - Private","Yes","160082","41.589545","-93.632483"
"160083","MERCY MEDICAL CENTER-DES MOINES","1111 6TH AVE","","","DES MOINES","IA","50314","POLK","5152473121","Acute Care Hospitals","Voluntary non-profit - Church","Yes","160083","41.599398","-93.623192"
"160089","OTTUMWA REGIONAL HEALTH CENTER","1001 E PENNSYLVANIA","","","OTTUMWA","IA","52501","WAPELLO","6416842300","Acute Care Hospitals","Voluntary non-profit - Private","Yes","160089","41.0275108","-92.389942"
"160101","BROADLAWNS MEDICAL CENTER","1801 HICKMAN ROAD","","","DES MOINES","IA","50314","POLK","5152822200","Acute Care Hospitals","Voluntary non-profit - Other","Yes","160101","41.616013","-93.642719"
"160104","TRINITY BETTENDORF","4500 UTICA RIDGE ROAD","","","BETTENDORF","IA","52722","SCOTT","5637425000","Acute Care Hospitals","Voluntary non-profit - Private","Yes","160104","41.565713","-90.519682"
"160110","ALLEN MEMORIAL HOSPITAL","1825 LOGAN AVENUE","","","WATERLOO","IA","50703","BLACK HAWK","3192353941","Acute Care Hospitals","Voluntary non-profit - Private","Yes","160110","42.526653","-92.339567"
"160112","SPENCER MUNICIPAL HOSPITAL","1200 1ST AVENUE EAST","","","SPENCER","IA","51301","CLAY","7122648300","Acute Care Hospitals","Government - Local","Yes","160112","43.149941","-95.143174"
"160117","THE FINLEY HOSPITAL","350 NORTH GRANDVIEW AVENUE","","","DUBUQUE","IA","52001","DUBUQUE","5635821881","Acute Care Hospitals","Government - Local","Yes","160117","42.4955235","-90.6875565"
"160122","FORT MADISON COMMUNITY HOSPITAL","5445 AVE O","","","FORT MADISON","IA","52627","LEE","3193726530","Acute Care Hospitals","Voluntary non-profit - Private","No","160122","40.6241945","-91.3823209"
"160124","LAKES REGIONAL HEALTHCARE","2301 HIGHWAY 71","","","SPIRIT LAKE","IA","51360","DICKINSON","7123361230","Acute Care Hospitals","Government - Local","Yes","160124","43.4184425","-95.126272"
"160146","ST LUKES REGIONAL MEDICAL CENTER","2720 STONE PARK BOULEVARD","","","SIOUX CITY","IA","51104","WOODBURY","7122793500","Acute Care Hospitals","Voluntary non-profit - Private","Yes","160146","42.5180594","-96.4053921"
"160147","GRINNELL REGIONAL MEDICAL CENTER","210 FOURTH AVENUE","","","GRINNELL","IA","50112","POWESHIEK","6412367511","Acute Care Hospitals","Voluntary non-profit - Private","Yes","160147","41.7432453","-92.7344996"
"160153","MERCY MEDICAL CENTER-SIOUX CITY","801 5TH ST BOX #316B","","","SIOUX CITY","IA","51101","WOODBURY","7122792010","Acute Care Hospitals","Voluntary non-profit - Private","Yes","160153","0","0"
"161300","BAUM HARMON MERCY HOSPITAL","255 N WELCH AVENUE","","","PRIMGHAR","IA","51245","OBRIEN","7129572300","Critical Access Hospitals","Voluntary non-profit - Church","Yes","161300","43.0886343","-95.6228305"
"161301","BELMOND MEDICAL CENTER","403 FIRST STREET SE","","","BELMOND","IA","50421","WRIGHT","6414443223","Critical Access Hospitals","Government - Local","Yes","161301","42.8450251","-93.6128781"
"161302","WRIGHT MEDICAL CENTER","1316 SOUTH MAIN STREET","","","CLARION","IA","50525","WRIGHT","5155322811","Critical Access Hospitals","Government - Local","Yes","161302","42.7206811","-93.7327993"
"161303","GRUNDY COUNTY MEMORIAL HOSPITAL","201 EAST J AVENUE","","","GRUNDY CENTER","IA","50638","GRUNDY","3198245421","Critical Access Hospitals","Voluntary non-profit - Other","Yes","161303","42.3587547","-92.7621134"
"161304","ALEGENT HEALTH MERCY HOSPITAL","603 ROSARY DRIVE","","","CORNING","IA","50841","ADAMS","6413223121","Critical Access Hospitals","Voluntary non-profit - Other","Yes","161304","40.98852","-94.7479738"
"161306","JONES REGIONAL MEDICAL CENTER","1795 HIGHWAY 64 EAST","","","ANAMOSA","IA","52205","JONES","3194626131","Critical Access Hospitals","Voluntary non-profit - Private","Yes","161306","42.1041392","-91.2684033"
"161307","HANCOCK COUNTY MEMORIAL HOSPITAL","532 1ST ST NW","","","BRITT","IA","50423","HANCOCK","6418435000","Critical Access Hospitals","Voluntary non-profit - Other","Yes","161307","43.0978073","-93.8082643"
"161308","FRANKLIN GENERAL HOSPITAL","1720 CENTRAL AVENUE EAST","","","HAMPTON","IA","50441","FRANKLIN","6414565000","Critical Access Hospitals","Government - Local","Yes","161308","42.743645","-93.185346"
"161309","ALEGENT HEALTH COMMUNITY MEMORIAL HOSPITAL","631 N 8TH ST","","","MISSOURI VALLEY","IA","51555","HARRISON","7126422784","Critical Access Hospitals","Voluntary non-profit - Private","Yes","161309","41.5621651","-95.8851518"
"161310","ADAIR COUNTY MEMORIAL HOSPITAL","609 SE KENT","","","GREENFIELD","IA","50849","ADAIR","6417432123","Critical Access Hospitals","Voluntary non-profit - Other","Yes","161310","41.3032223","-94.4531254"
"161311","HAWARDEN COMMUNITY HOSPITAL","1111 11TH STREET","","","HAWARDEN","IA","51023","SIOUX","7125513100","Critical Access Hospitals","Voluntary non-profit - Other","Yes","161311","42.9980255","-96.4799839"
"161312","GUTTENBERG MUNICIPAL HOSPITAL","200 MAIN STREET","","","GUTTENBERG","IA","52052","CLAYTON","5632521121","Critical Access Hospitals","Government - Local","Yes","161312","42.7855119","-91.0999295"
"161313","GENESIS MEDICAL CENTER-DEWITT","1118 11TH STREET","","","DEWITT","IA","52742","CLINTON","5636594200","Critical Access Hospitals","Voluntary non-profit - Private","Yes","161313","41.8259724","-90.5466341"
"161314","GUTHRIE COUNTY HOSPITAL","710 NORTH 12TH STREET","","","GUTHRIE CENTER                ","IA","50115","GUTHRIE","6413322201","Critical Access Hospitals","Voluntary non-profit - Other","Yes","161314","41.6832589","-94.4943705"
"161316","PALMER LUTHERAN HEALTH CENTER","112 JEFFERSON STREET","","","WEST UNION","IA","52175","FAYETTE","5634223811","Critical Access Hospitals","Voluntary non-profit - Private","Yes","161316","42.9677112","-91.8145757"
"161317","MARENGO MEMORIAL HOSPITAL","300 W MAY ST","","","MARENGO","IA","52301","IOWA","3196425543","Critical Access Hospitals","Government - Local","Yes","161317","41.801739","-92.0720474"
"161318","VETERANS MEMORIAL HOSPITAL","40 1ST STREET SE","","","WAUKON","IA","52172","ALLAMAKEE","5635683411","Critical Access Hospitals","Government - Local","Yes","161318","43.2688222","-91.4744142"
"161319","CENTRAL COMMUNITY HOSPITAL","901 DAVIDSON STREET NW","","","ELKADER","IA","52043","CLAYTON","5632457000","Critical Access Hospitals","Voluntary non-profit - Private","Yes","161319","42.8593592","-91.4146319"
"161321","SANFORD HOSPITAL ROCK RAPIDS","801 SOUTH GREENE STREET","","","ROCK RAPIDS","IA","51246","LYON","7124722591","Critical Access Hospitals","Voluntary non-profit - Private","Yes","161321","43.4240843","-96.1711212"
"161322","DALLAS COUNTY HOSPITAL","610 TENTH STREET","","","PERRY","IA","50220","DALLAS","5154653547","Critical Access Hospitals","Voluntary non-profit - Other","Yes","161322","41.833836","-94.0938"
"161325","GREENE COUNTY MEDICAL CENTER","1000 WEST LINCOLNWAY","","","JEFFERSON","IA","50129","GREENE","5153862114","Critical Access Hospitals","Government - Local","Yes","161325","42.0152595","-94.3872133"
"161326","MADISON COUNTY MEMORIAL HOSPITAL","300 WEST HUTCHINGS STREET","","","WINTERSET","IA","50273","MADISON","5154622373","Critical Access Hospitals","Voluntary non-profit - Other","Yes","161326","41.3287905","-94.0169772"
"161327","DAVIS COUNTY HOSPITAL","509 NORTH MADISON STREET","","","BLOOMFIELD","IA","52537","DAVIS","6416642145","Critical Access Hospitals","Government - Hospital District or Authority","Yes","161327","40.7591565","-92.4155892"
"161328","REGIONAL HEALTH SERVICES OF HOWARD COUNTY","235 8TH AVENUE WEST","","","CRESCO","IA","52136","HOWARD","5635472101","Critical Access Hospitals","Government - Local","Yes","161328","43.3816359","-92.1160357"
"161329","JACKSON COUNTY REGIONAL HEALTH CENTER","700 W GROVE ST","","","MAQUOKETA","IA","52060","JACKSON","5636522474","Critical Access Hospitals","Proprietary","Yes","161329","42.0737238","-90.6734961"
"161330","AUDUBON COUNTY MEMORIAL HOSPITAL","515 PACIFIC STREET","","","AUDUBON","IA","50025","AUDUBON","7125632611","Critical Access Hospitals","Voluntary non-profit - Other","Yes","161330","41.7158774","-94.9370867"
"161331","MERCY MEDICAL CENTER-NEW HAMPTON","308 NORTH MAPLE AVENUE","","","NEW HAMPTON","IA","50659","CHICKASAW","6413944121","Critical Access Hospitals","Voluntary non-profit - Church","Yes","161331","43.062802","-92.3207066"
"161332","MANNING REGIONAL HEALTHCARE CENTER","410 MAIN STREET","","","MANNING","IA","51455","CARROLL","7126552072","Critical Access Hospitals","Voluntary non-profit - Private","Yes","161332","41.907388","-95.064515"
"161333","STORY COUNTY HOSPITAL","640 SOUTH 19TH STREET","","","NEVADA","IA","50201","STORY","5153822111","Critical Access Hospitals","Government - Local","Yes","161333","42.0052715","-93.4349251"
"161335","BUCHANAN COUNTY HEALTH CENTER","1600 FIRST ST EAST","","","INDEPENDENCE","IA","50644","BUCHANAN","3193320999","Critical Access Hospitals","Voluntary non-profit - Other","Yes","161335","42.4688681","-91.8745345"
"161336","HEGG MEMORIAL HEALTH CENTER","1202 21ST AVENUE","","","ROCK VALLEY","IA","51247","SIOUX","7124768000","Critical Access Hospitals","Voluntary non-profit - Private","Yes","161336","43.2021418","-96.2850204"
"161337","VAN BUREN COUNTY HOSPITAL","304 FRANKLIN STREET","","","KEOSAUQUA","IA","52565","VAN BUREN","3192933171","Critical Access Hospitals","Government - Local","Yes","161337","40.7362523","-91.9596493"
"161338","MERCY HOSPITAL OF FRANCISCAN SISTERS-OELWEIN","201 EIGHTH AVENUE SE","","","OELWEIN","IA","50662","FAYETTE","3192836000","Critical Access Hospitals","Voluntary non-profit - Other","Yes","161338","42.6754155","-91.902615"
"161339","WAVERLY HEALTH CENTER","312  9TH STREET SW","","","WAVERLY","IA","50677","BREMER","3193524120","Critical Access Hospitals","Government - Local","Yes","161339","42.722915","-92.48249"
"161340","DECATUR COUNTY HOSPITAL","1405 NW CHURCH STREET","","","LEON","IA","50144","DECATUR","6414464871","Critical Access Hospitals","Voluntary non-profit - Other","Yes","161340","40.7504195","-93.7477888"
"161341","LUCAS COUNTY HEALTH CENTER","1200 NORTH 7TH STREET","","","CHARITON","IA","50049","LUCAS","6417743000","Critical Access Hospitals","Voluntary non-profit - Other","Yes","161341","41.02799","-93.301861"
"161342","MONROE COUNTY HOSPITAL","6580 165TH STREET","","","ALBIA","IA","52531","MONROE","6419322134","Critical Access Hospitals","Voluntary non-profit - Other","Yes","161342","41.0441205","-92.8009702"
"161343","REGIONAL MEDICAL CENTER","709 W MAIN","","","MANCHESTER","IA","52057","DELAWARE","5639273232","Critical Access Hospitals","Government - Local","Yes","161343","42.4839066","-91.4659935"
"161344","WASHINGTON COUNTY HOSPITAL","400 EAST POLK STREET","","","WASHINGTON","IA","52353","WASHINGTON","3196535481","Critical Access Hospitals","Voluntary non-profit - Other","Yes","161344","41.2885177","-91.6885725"
"161345","OSCEOLA COMMUNITY HOSPITAL","600 9TH AVENUE NORTH","","","SIBLEY","IA","51249","OSCEOLA","7127542574","Critical Access Hospitals","Voluntary non-profit - Private","Yes","161345","43.4024331","-95.7417133"
"161346","SIOUX CENTER COMMUNITY HOSPITAL & HEALTH CENTER","605 SOUTH MAIN AVENUE","","","SIOUX CENTER","IA","51250","SIOUX","7127221271","Critical Access Hospitals","Voluntary non-profit - Private","Yes","161346","43.0723587","-96.1757172"
"161348","CLARKE COUNTY HOSPITAL","800 S FILLMORE ST","","","OSCEOLA","IA","50213","CLARKE","6413422184","Critical Access Hospitals","Government - Local","Yes","161348","41.025958","-93.768483"
"161350","STEWART MEMORIAL COMMUNITY HOSPITAL","1301 WEST MAIN STREET","","","LAKE CITY","IA","51449","CALHOUN","7124643171","Critical Access Hospitals","Voluntary non-profit - Private","Yes","161350","42.265727","-94.749343"
"161351","AVERA HOLY FAMILY HEALTH","826 NORTH 8TH STREET","","","ESTHERVILLE","IA","51334","EMMET","7123622631","Critical Access Hospitals","Voluntary non-profit - Church","Yes","161351","43.4093013","-94.8342284"
"161352","CLARINDA REGIONAL HEALTH CENTER","823 SOUTH 17TH","","","CLARINDA","IA","51632","PAGE","7125422176","Critical Access Hospitals","Government - Local","Yes","161352","40.7307438","-95.0391782"
"161353","KOSSUTH REGIONAL HEALTH CENTER","1515 SOUTH PHILLIPS STREET","","","ALGONA","IA","50511","KOSSUTH","5152952451","Critical Access Hospitals","Government - Local","Yes","161353","43.0551983","-94.2271032"
"161354","HORN MEMORIAL HOSPITAL","701 EAST 2ND STREET","","","IDA GROVE","IA","51445","IDA","7123643311","Critical Access Hospitals","Voluntary non-profit - Private","Yes","161354","42.3386574","-95.4594755"
"161355","KNOXVILLE HOSPITAL & CLINICS","1002 SOUTH LINCOLN STREET","","","KNOXVILLE","IA","50138","MARION","6418422151","Critical Access Hospitals","Voluntary non-profit - Private","Yes","161355","41.3108192","-93.1095366"
"161356","HENRY COUNTY HEALTH CENTER","407 S WHITE ST","","","MOUNT PLEASANT","IA","52641","HENRY","3193853141","Critical Access Hospitals","Government - Local","Yes","161356","40.9637623","-91.5578899"
"161357","PALO ALTO COUNTY HOSPITAL","3201 1ST STREET","","","EMMETSBURG","IA","50536","PALO ALTO","7128525500","Critical Access Hospitals","Voluntary non-profit - Other","Yes","161357","43.1191922","-94.6913978"
"161358","WAYNE COUNTY HOSPITAL","417 SOUTH EAST STREET","","","CORYDON","IA","50060","WAYNE","6418722260","Critical Access Hospitals","Voluntary non-profit - Other","Yes","161358","40.7542377","-93.3111992"
"161359","BURGESS HEALTH CENTER","1600 DIAMOND STREET","","","ONAWA","IA","51040","MONONA","7124232311","Critical Access Hospitals","Voluntary non-profit - Private","Yes","161359","42.0254394","-96.1038109"
"161360","ORANGE CITY AREA HEALTH SYSTEM","1000 LINCOLN CIRCLE SE","","","ORANGE CITY","IA","51041","SIOUX","7127374984","Critical Access Hospitals","Government - Local","Yes","161360","42.9975016","-96.0463708"
"161361","VAN DIEST MEDICAL CENTER","2350 HOSPITAL DRIVE","","","WEBSTER CITY","IA","50595","HAMILTON","5158329400","Critical Access Hospitals","Government - Local","Yes","161361","42.4663889","-93.8205556"
"161362","CHEROKEE REGIONAL MEDICAL CENTER","300 SIOUX VALLEY DRIVE","","","CHEROKEE","IA","51012","CHEROKEE","7122255101","Critical Access Hospitals","Voluntary non-profit - Private","Yes","161362","42.759696","-95.54777"
"161363","MONTGOMERY COUNTY MEMORIAL HOSPITAL","2301 EASTERN AVENUE","","","RED OAK","IA","51566","MONTGOMERY","7126237000","Critical Access Hospitals","Government - Local","Yes","161363","41.0274338","-95.215888"
"161364","JEFFERSON COUNTY HEALTH CENTER","2000 S MAIN","","","FAIRFIELD","IA","52556","JEFFERSON","6414724111","Critical Access Hospitals","Government - Local","Yes","161364","40.9868194","-91.9631258"
"161365","GREATER REGIONAL MEDICAL CENTER","1700 WEST TOWNLINE ROAD","","","CRESTON","IA","50801","UNION","6417827091","Critical Access Hospitals","Voluntary non-profit - Other","Yes","161365","41.0711465","-94.3838543"
"161366","SHENANDOAH MEDICAL CENTER","300 PERSHING AVENUE","","","SHENANDOAH","IA","51601","PAGE","7122461230","Critical Access Hospitals","Voluntary non-profit - Private","Yes","161366","40.7535602","-95.3685524"
"161367","PELLA REGIONAL HEALTH CENTER","404 JEFFERSON STREET","","","PELLA","IA","50219","MARION","6416283150","Critical Access Hospitals","Voluntary non-profit - Other","Yes","161367","41.4123263","-92.9113363"
"161368","FLOYD VALLEY HOSPITAL","714 LINCOLN ST NE","","","LE MARS","IA","51031","PLYMOUTH","7125467871","Critical Access Hospitals","Voluntary non-profit - Other","Yes","161368","42.7973546","-96.1557752"
"161369","CRAWFORD COUNTY MEMORIAL HOSPITAL","2020 FIRST AVENUE SOUTH","","","DENISON","IA","51442","CRAWFORD","7122635021","Critical Access Hospitals","Voluntary non-profit - Other","Yes","161369","42.0154116","-95.3432829"
"161371","WINNESHIEK MEDICAL CENTER","901 MONTGOMERY STREET","","","DECORAH","IA","52101","WINNESHIEK","5633822911","Critical Access Hospitals","Voluntary non-profit - Other","Yes","161371","43.2945668","-91.771183"
"161372","BOONE COUNTY HOSPITAL","1015 UNION STREET","","","BOONE","IA","50036","BOONE","5154323140","Critical Access Hospitals","Voluntary non-profit - Other","Yes","161372","42.056164","-93.8773954"
"161373","RINGGOLD COUNTY HOSPITAL","504 NORTH CLEVELAND","","","MOUNT AYR","IA","50854","RINGGOLD","6414643226","Critical Access Hospitals","Government - Local","Yes","161373","40.718837","-94.2226827"
"161374","MYRTUE MEDICAL CENTER","1213 GARFIELD AVENUE","","","HARLAN","IA","51537","SHELBY","7127555161","Critical Access Hospitals","Voluntary non-profit - Other","Yes","161374","41.6469402","-95.3271026"
"161375","BUENA VISTA REGIONAL MEDICAL CENTER","1525 WEST 5TH STREET","","","STORM LAKE","IA","50588","BUENA VISTA","7127324030","Critical Access Hospitals","Government - Local","Yes","161375","42.6443589","-95.2212459"
"161376","CASS COUNTY MEMORIAL HOSPITAL","1501 EAST TENTH STREET","","","ATLANTIC","IA","50022","CASS","7122433250","Critical Access Hospitals","Government - Local","Yes","161376","41.4014408","-94.9928485"
"161377","MERCY MEDICAL CENTER-CENTERVILLE","ONE ST JOSEPH'S DRIVE","","","CENTERVILLE","IA","52544","APPANOOSE","6414374111","Critical Access Hospitals","Voluntary non-profit - Church","Yes","161377","40.7290565","-92.8738196"
"161378","MERCY MEDICAL CENTER-DYERSVILLE","1111 3RD STREET SW","","","DYERSVILLE","IA","52040","DUBUQUE","5638757101","Critical Access Hospitals","Voluntary non-profit - Other","Yes","161378","42.4754876","-91.1297481"
"161379","MAHASKA  HEALTH PARTNERSHIP","1229 C AVENUE EAST","","","OSKALOOSA","IA","52577","MAHASKA","6416723100","Critical Access Hospitals","Voluntary non-profit - Other","Yes","161379","41.2985574","-92.6306409"
"161380","ELLSWORTH MUNICIPAL HOSPITAL","110 ROCKSYLVANIA AVENUE","","","IOWA FALLS","IA","50126","HARDIN","6416484631","Critical Access Hospitals","Government - Local","Yes","161380","42.5215142","-93.2586936"
"161381","SANFORD SHELDON MEDICAL CENTER","118 NORTH 7TH AVENUE","","","SHELDON","IA","51201","OBRIEN","7123245041","Critical Access Hospitals","Voluntary non-profit - Private","Yes","161381","43.1868324","-95.8472174"
"170001","NEWMAN REGIONAL HEALTH","1201 WEST 12TH AVENUE","","","EMPORIA","KS","66801","LYON","6203436800","Acute Care Hospitals","Government - Local","Yes","170001","38.411487","-96.195239"
"170006","VIA CHRISTI HOSPITAL PITTSBURG INC","1 MT CARMEL WAY","","","PITTSBURG","KS","66762","CRAWFORD","6202320109","Acute Care Hospitals","Voluntary non-profit - Private","No","170006","37.379905","-94.6873873"
"170009","SAINT JOHN HOSPITAL","3500 SOUTH 4TH STREET","","","LEAVENWORTH","KS","66048","LEAVENWORTH","9135965031","Acute Care Hospitals","Voluntary non-profit - Other","Yes","170009","39.2821811","-94.9036789"
"170010","MERCY HOSPITAL OF KANSAS INDEPENDENCE","800 W MYRTLE STREET","","","INDEPENDENCE","KS","67301","MONTGOMERY","6203312200","Acute Care Hospitals","Voluntary non-profit - Church","No","170010","37.2244605","-95.7162148"
"170012","SALINA REGIONAL HEALTH CENTER","400 SOUTH SANTA FE AVENUE","","","SALINA","KS","67401","SALINE","7854527000","Acute Care Hospitals","Voluntary non-profit - Private","Yes","170012","38.8332369","-97.610279"
"170013","HAYS MEDICAL CENTER","2220 CANTERBURY DRIVE","","","HAYS","KS","67601","ELLIS","7856235000","Acute Care Hospitals","Voluntary non-profit - Private","Yes","170013","38.8784994","-99.29913"
"170014","RANSOM MEMORIAL HOSPITAL","1301 S MAIN STREET","","","OTTAWA","KS","66067","FRANKLIN","7852298308","Acute Care Hospitals","Government - Local","Yes","170014","38.5972092","-95.2687248"
"170016","ST FRANCIS HEALTH CENTER","1700 SW 7TH STREET","","","TOPEKA","KS","66606","SHAWNEE","7852958000","Acute Care Hospitals","Voluntary non-profit - Church","Yes","170016","39.056589","-95.695151"
"170017","SUSAN B ALLEN MEMORIAL HOSPITAL","720 W CENTRAL ST","","","EL DORADO","KS","67042","BUTLER","3163224557","Acute Care Hospitals","Voluntary non-profit - Private","Yes","170017","37.818256","-96.8583419"
"170020","PROMISE REGIONAL MEDICAL CENTER HUTCHINSON INC","1701 E 23RD AVENUE","","","HUTCHINSON","KS","67502","RENO","6206652001","Acute Care Hospitals","Proprietary","Yes","170020","38.0773","-97.8903"
"170023","ST CATHERINE HOSPITAL","401 EAST SPRUCE","","","GARDEN CITY","KS","67846","FINNEY","6202722561","Acute Care Hospitals","Voluntary non-profit - Church","No","170023","37.9689866","-100.8691165"
"170027","PRATT REGIONAL MEDICAL CENTER","200 COMMODORE ST","","","PRATT","KS","67124","PRATT","6204501160","Acute Care Hospitals","Voluntary non-profit - Private","Yes","170027","37.6438098","-98.7293621"
"170033","CENTRAL KANSAS MEDICAL CENTER","3515 BROADWAY ST","","","GREAT BEND","KS","67530","BARTON","6207866101","Acute Care Hospitals","Voluntary non-profit - Church","Yes","170033","38.3663868","-98.7864342"
"170039","SUMNER REGIONAL MEDICAL CENTER","1323 NORTH A ST","","","WELLINGTON","KS","67152","SUMNER","6203991299","Acute Care Hospitals","Government - Local","Yes","170039","37.2782621","-97.3941901"
"170040","UNIVERSITY OF KANSAS HOSPITAL","3901 RAINBOW BLVD","","","KANSAS CITY","KS","66160","WYANDOTTE","9135887332","Acute Care Hospitals","Government - Hospital District or Authority","Yes","170040","39.056184","-94.611683"
"170049","OLATHE MEDICAL CENTER","20375 W 151ST ST #303","","","OLATHE","KS","66061","JOHNSON","9137914200","Acute Care Hospitals","Voluntary non-profit - Other","Yes","170049","0","0"
"170058","MERCY HEALTH CENTER","401 WOODLAND HILLS BLVD","","","FORT SCOTT","KS","66701","BOURBON","6202237057","Acute Care Hospitals","Voluntary non-profit - Church","Yes","170058","37.8061577","-94.7105877"
"170068","SOUTHWEST MEDICAL CENTER","315 WEST 15TH STREET","","","LIBERAL","KS","67901","SEWARD","6206296291","Acute Care Hospitals","Government - Local","Yes","170068","37.0542197","-100.9257837"
"17006F","VA EASTERN KANSAS HEALTHCARE SYSTEM","4101 S. 4TH STREET","","","LEAVENWORTH","KS","66048","LEAVENWORTH","9136822000","ACUTE CARE - VETERANS ADMINISTRATION","Government Federal","NO","17006F","39.2670992","-94.8998773"
"170074","GEARY COMMUNITY HOSPITAL","1102 ST MARY'S ROAD","","","JUNCTION CITY","KS","66441","GEARY","9132384131","Acute Care Hospitals","Government - Local","Yes","170074","39.0141693","-96.8496674"
"170075","MERCY HOSPITAL","218 E PACK ST","","","MOUNDRIDGE","KS","67107","MCPHERSON","6203456391","Acute Care Hospitals","Voluntary non-profit - Church","No","170075","38.204976","-97.5170782"
"170086","STORMONT-VAIL HEALTHCARE","1500 SW 10TH ST","","","TOPEKA","KS","66604","SHAWNEE","7853546121","Acute Care Hospitals","Voluntary non-profit - Private","Yes","170086","39.053735","-95.694523"
"17008F","WICHITA VA MEDICAL CENTER","5500 E. KELLOG","","","WICHITA","KS","67218","SEDGWICK","3166852221","ACUTE CARE - VETERANS ADMINISTRATION","Government Federal","NO","17008F","37.6795821","-97.2725599"
"170094","COFFEY COUNTY HOSPITAL","801 N 4TH ST","","","BURLINGTON","KS","66839","COFFEY","6203642121","Acute Care Hospitals","Government - Local","Yes","170094","38.2015794","-95.7385542"
"170103","NEWTON MEDICAL CENTER","800 MEDICAL CENTER DR","","","NEWTON","KS","67114","HARVEY","3168046001","Acute Care Hospitals","Voluntary non-profit - Private","Yes","170103","38.0241225","-97.3311498"
"170104","SHAWNEE MISSION MEDICAL CENTER","9100 W 74TH STREET","","","SHAWNEE MISSION","KS","66204","JOHNSON","9136762151","Acute Care Hospitals","Voluntary non-profit - Church","Yes","170104","38.995486","-94.690614"
"170105","MEMORIAL HOSPITAL","1000 HOSPITAL DRIVE","","","MCPHERSON","KS","67460","MCPHERSON","6202412250","Acute Care Hospitals","Voluntary non-profit - Private","Yes","170105","38.378569","-97.6710669"
"170109","MIAMI COUNTY MEDICAL CENTER","2100 BAPTISTE DRIVE","","","PAOLA","KS","66071","MIAMI","9135574385","Acute Care Hospitals","Government - Hospital District or Authority","Yes","170109","38.5694599","-94.8494059"
"170110","BOB WILSON MEMORIAL GRANT COUNTY HOSPITAL","415 N MAIN STREET","","","ULYSSES","KS","67880","GRANT","6203561266","Acute Care Hospitals","Government - Local","Yes","170110","37.5838415","-101.3580232"
"170120","LABETTE HEALTH","1902 SOUTH US HWY 59","","","PARSONS","KS","67357","LABETTE","6208205371","Acute Care Hospitals","Government - Local","Yes","170120","37.3939669","-95.2701936"
"170122","VIA CHRISTI HOSPITALS WICHITA INC","929 N ST FRANCIS ST","","","WICHITA","KS","67214","SEDGWICK","3162685000","Acute Care Hospitals","Voluntary non-profit - Church","Yes","170122","37.700335","-97.331756"
"170123","WESLEY MEDICAL CENTER","550 N HILLSIDE ST","","","WICHITA","KS","67214","SEDGWICK","3169622000","Acute Care Hospitals","Proprietary","Yes","170123","37.695559","-97.2990235"
"170133","CUSHING MEMORIAL HOSPITAL","711 MARSHALL STREET","","","LEAVENWORTH","KS","66048","LEAVENWORTH","9136841102","Acute Care Hospitals","Voluntary non-profit - Private","Yes","170133","39.307297","-94.918431"
"170137","LAWRENCE MEMORIAL HOSPITAL","325 MAINE ST","","","LAWRENCE","KS","66044","DOUGLAS","9137496100","Acute Care Hospitals","Government - Local","Yes","170137","38.9781682","-95.2476164"
"170142","MERCY REGIONAL HEALTH CENTER","1823 COLLEGE AVE","","","MANHATTAN","KS","66502","RILEY","9137762831","Acute Care Hospitals","Voluntary non-profit - Church","Yes","170142","39.201098","-96.599883"
"170145","COFFEYVILLE REGIONAL MEDICAL CENTER","1400 W 4TH ST","","","COFFEYVILLE","KS","67337","MONTGOMERY","6202521200","Acute Care Hospitals","Government - Local","Yes","170145","37.0404327","-95.6383227"
"170146","PROVIDENCE MEDICAL CENTER","8929 PARALLEL PARKWAY","","","KANSAS CITY","KS","66112","WYANDOTTE","9135963930","Acute Care Hospitals","Voluntary non-profit - Church","Yes","170146","39.126766","-94.7864309"
"170150","SOUTH CENTRAL KS REGIONAL MED CENTER","216 WEST BIRCH AVENUE","","","ARKANSAS CITY","KS","67005","COWLEY","6204422500","Acute Care Hospitals","Voluntary non-profit - Other","Yes","170150","37.071348","-97.0407649"
"170166","MORTON COUNTY HOSPITAL","445 N HILLTOP","","","ELKHART","KS","67950","MORTON","6206972141","Acute Care Hospitals","Voluntary non-profit - Other","Yes","170166","37.0025399","-101.9047503"
"170175","WESTERN PLAINS MEDICAL COMPLEX","3001 AVENUE A","","","DODGE CITY","KS","67801","FORD","6202258400","Acute Care Hospitals","Proprietary","No","170175","37.785367","-100.0149213"
"170176","OVERLAND PARK REG MED CTR","10500 QUIVIRA ROAD","","","OVERLAND PARK","KS","66215","JOHNSON","9135415301","Acute Care Hospitals","Proprietary","Yes","170176","38.937634","-94.726307"
"170182","MENORAH MEDICAL CENTER","5721 WEST 119TH STREET","","","OVERLAND PARK","KS","66209","JOHNSON","9134986773","Acute Care Hospitals","Voluntary non-profit - Other","Yes","170182","38.9104675","-94.65205"
"170183","KANSAS SURGERY & RECOVERY CENTER","2770 N WEBB ROAD","","","WICHITA","KS","67226","SEDGWICK","3166340090","Acute Care Hospitals","Proprietary","No","170183","37.733098","-97.225178"
"170185","SAINT LUKE'S SOUTH HOSPITAL","12300 METCALF AVENUE","","","OVERLAND PARK","KS","66213","JOHNSON","9133177904","Acute Care Hospitals","Voluntary non-profit - Other","Yes","170185","38.905353","-94.6680642"
"170186","KANSAS HEART HOSPITAL","3601 NORTH WEBB ROAD","","","WICHITA","KS","67226","SEDGWICK","3166305000","Acute Care Hospitals","Proprietary","No","170186","37.750089","-97.226989"
"170187","SALINA SURGICAL HOSPITAL","401 SOUTH SANTA FE AVENUE","","","SALINA","KS","67401","SALINE","7854930685","Acute Care Hospitals","Voluntary non-profit - Private","No","170187","38.833833","-97.608536"
"170188","KANSAS CITY ORTHOPAEDIC INSTITUTE","3651 COLLEGE BLVD","","","LEAWOOD","KS","66211","JOHNSON","9133197633","Acute Care Hospitals","Voluntary non-profit - Private","No","170188","38.926791","-94.627968"
"170190","MANHATTAN SURGICAL HOSPITAL LLC","1829 COLLEGE AVENUE","","","MANHATTAN","KS","66502","RILEY","7857765100","Acute Care Hospitals","Proprietary","Yes","170190","39.2028838","-96.5982866"
"170191","GREAT BEND REGIONAL HOSPITAL","514 CLEVELAND STREET","","","GREAT BEND","KS","67530","BARTON","6207928833","Acute Care Hospitals","Voluntary non-profit - Other","Yes","170191","38.3558454","-98.7915279"
"170192","GALICHIA HEART HOSPITAL LLC","2610 N WOODLAWN","","","WICHITA","KS","67220","SEDGWICK","3168582610","Acute Care Hospitals","Proprietary","Yes","170192","37.7551251","-97.2642847"
"170194","DOCTORS HOSPITAL LLC","4901 COLLEGE BLVD","","","LEAWOOD","KS","66211","JOHNSON","9135291801","Acute Care Hospitals","Proprietary","Yes","170194","38.9272979","-94.6437281"
"170195","HEARTLAND SURGICAL SPEC HOSPITAL","10720 NALL AVENUE","","","OVERLAND PARK","KS","66211","JOHNSON","9137544505","Acute Care Hospitals","Proprietary","No","170195","38.93265","-94.6510009"
"170196","KANSAS SPINE HOSPITAL LLC","3333 NORTH WEBB ROAD","","","WICHITA","KS","67226","SEDGWICK","3164625326","Acute Care Hospitals","Voluntary non-profit - Private","No","170196","37.743694","-97.227616"
"170197","KANSAS MEDICAL CENTER LLC","1124 WEST 21ST STREET","","","ANDOVER","KS","67002","BUTLER","3163004000","Acute Care Hospitals","Proprietary","No","170197","37.7232465","-97.1460617"
"170198","SUMMIT SURGICAL LLC","1818 EAST 23RD AVENUE","","","HUTCHINSON","KS","67502","RENO","6206634800","Acute Care Hospitals","Voluntary non-profit - Private","No","170198","38.0802","-97.8887"
"170200","VIA CHRISTI HOSPITAL WICHITA ST TERESA INC","14800 WEST ST TERESA","","","WICHITA","KS","67235","SEDGWICK","3167967000","Acute Care Hospitals","Voluntary non-profit - Church","No","170200","37.7256354","-97.5140278"
"171300","GRISELL MEMORIAL HOSPITAL DISTRICT #1","210 SOUTH VERMONT AVENUE","","","RANSOM","KS","67572","NESS","7857312231","Critical Access Hospitals","Government - Hospital District or Authority","Yes","171300","38.6349055","-99.9315395"
"171302","OSWEGO COMMUNITY HOSPITAL","800 BARKER DRIVE","","","OSWEGO","KS","67356","LABETTE","6207952921","Critical Access Hospitals","Voluntary non-profit - Private","Yes","171302","37.1606524","-95.1088292"
"171304","ASHLAND HEALTH CENTER","709 OAK STREET","","","ASHLAND","KS","67831","CLARK","6206352241","Critical Access Hospitals","Government - Hospital District or Authority","Yes","171304","37.1874037","-99.7718631"
"171306","WICHITA COUNTY HEALTH CENTER","211 E EARL STREET","","","LEOTI","KS","67861","WICHITA","6203752233","Critical Access Hospitals","Government - Local","Yes","171306","38.4761193","-101.3555294"
"171309","JEWELL COUNTY HOSPITAL","100 CRESTVUE AVE","","","MANKATO","KS","66956","JEWELL","7853783137","Critical Access Hospitals","Government - Local","Yes","171309","39.7863789","-98.2012771"
"171310","CHEYENNE COUNTY HOSPITAL","210 WEST 1ST STREET","","","ST FRANCIS","KS","67756","CHEYENNE","7853322104","Critical Access Hospitals","Government - Local","Yes","171310","39.7710731","-101.7999617"
"171312","COMANCHE COUNTY HOSPITAL","2ND & FRISCO STREET","","","COLDWATER","KS","67029","COMANCHE","6205822144","Critical Access Hospitals","Government - Local","Yes","171312","13.6481856","-89.8856304"
"171313","KEARNY COUNTY HOSPITAL","500 THORPE STREET","","","LAKIN","KS","67860","KEARNY","6203557111","Critical Access Hospitals","Government - Local","Yes","171313","37.9459986","-101.2526941"
"171314","JEFFERSON COUNTY MEMORIAL HOSPITAL","408 DELAWARE ST","","","WINCHESTER","KS","66097","JEFFERSON","9137744340","Critical Access Hospitals","Voluntary non-profit - Private","Yes","171314","39.326032","-95.270062"
"171315","NEMAHA VALLEY COMMUNITY HOSPITAL","1600 COMMUNITY DR","","","SENECA","KS","66538","NEMAHA","7853366181","Critical Access Hospitals","Voluntary non-profit - Private","Yes","171315","39.8343445","-96.0747788"
"171316","ANDERSON COUNTY HOSPITAL","421 S MAPLE","","","GARNETT","KS","66032","ANDERSON","7852044000","Critical Access Hospitals","Voluntary non-profit - Private","Yes","171316","38.2798311","-95.2494938"
"171317","EDWARDS COUNTY HOSPITAL","620 WEST EIGHTH STREET","","","KINSLEY","KS","67547","EDWARDS","6206593621","Critical Access Hospitals","Government - Local","Yes","171317","37.92071","-99.4194142"
"171318","SEDAN CITY HOSPITAL","300 NORTH STREET","","","SEDAN","KS","67361","CHAUTAUQUA","6207253115","Critical Access Hospitals","Government - Local","Yes","171318","37.1329994","-96.1902363"
"171319","HOLTON COMMUNITY HOSPITAL","1110 COLUMBINE DR","","","HOLTON","KS","66436","JACKSON","7853642116","Critical Access Hospitals","Voluntary non-profit - Other","Yes","171319","39.4789358","-95.7524463"
"171321","MEADE DISTRICT HOSPITAL","510 E CARTHAGE","","","MEADE","KS","67864","MEADE","6208735500","Critical Access Hospitals","Government - Hospital District or Authority","Yes","171321","37.2855148","-100.3440721"
"171322","HAMILTON COUNTY HOSPITAL","700 NORTH HUSER","","","SYRACUSE","KS","67878","HAMILTON","6203847461","Critical Access Hospitals","Government - Local","Yes","171322","37.9847709","-101.7415667"
"171325","GRAHAM COUNTY HOSPITAL","304 WEST PROUT STREET","","","HILL CITY","KS","67642","GRAHAM","7854212121","Critical Access Hospitals","Government - Local","Yes","171325","39.3718009","-99.844595"
"171327","ELLSWORTH COUNTY MEDICAL CENTER","1604 AYLWARD AVENUE","","","ELLSWORTH","KS","67439","ELLSWORTH","7854725028","Critical Access Hospitals","Government - Local","Yes","171327","38.743401","-98.218841"
"171328","OTTAWA COUNTY HEALTH CENTER","215 E 8TH STREET","","","MINNEAPOLIS","KS","67467","OTTAWA","7853922122","Critical Access Hospitals","Government - Local","Yes","171328","39.1288124","-97.7046489"
"171331","KIOWA DISTRICT HOSPITAL","810 DRUMM STREET","","","KIOWA","KS","67070","BARBER","6208254131","Critical Access Hospitals","Government - Hospital District or Authority","Yes","171331","37.0148544","-98.4838422"
"171333","CLARA BARTON HOSPITAL","250 W 9TH STREET","","","HOISINGTON","KS","67544","BARTON","6206532114","Critical Access Hospitals","Voluntary non-profit - Private","Yes","171333","38.5215804","-98.7798039"
"171336","NESS COUNTY HOSPITAL DISTRICT #2","312 CUSTER STREET","","","NESS CITY","KS","67560","NESS","7857982291","Critical Access Hospitals","Government - Hospital District or Authority","Yes","171336","38.4527935","-99.9065136"
"171337","WAMEGO CITY HOSPITAL","711 GENN DRIVE","","","WAMEGO","KS","66547","POTTAWATOMIE","7854587201","Critical Access Hospitals","Voluntary non-profit - Other","Yes","171337","39.204927","-96.31914"
"171338","SABETHA COMMUNITY HOSPITAL","14TH & OREGON","","","SABETHA","KS","66534","NEMAHA","7852842121","Critical Access Hospitals","Government - Local","Yes","171338","32.7870447","-91.7864939"
"171339","GREENWOOD COUNTY HOSPITAL","100 W 16TH STREET","","","EUREKA","KS","67045","GREENWOOD","6205837451","Critical Access Hospitals","Government - Local","Yes","171339","37.8353165","-96.2941687"
"171340","HERINGTON MUNICIPAL HOSPITAL","100 E HELEN STREET","","","HERINGTON","KS","67449","DICKINSON","7852582207","Critical Access Hospitals","Voluntary non-profit - Other","Yes","171340","38.678293","-96.9309163"
"171341","HIAWATHA COMMUNITY HOSPITAL","300 UTAH STREET","","","HIAWATHA","KS","66434","BROWN","7857422131","Critical Access Hospitals","Voluntary non-profit - Private","Yes","171341","39.8518073","-95.5304425"
"171344","WILSON MEDICAL CENTER","REECE CAMPUS 2600 OTTAWA ROAD","","","NEODESHA","KS","66757","WILSON","6203258369","Critical Access Hospitals","Voluntary non-profit - Other","Yes","171344","37.4183929","-95.6802581"
"171347","SHERIDAN COUNTY HOSPITAL","826  18TH STREET","","","HOXIE","KS","67740","SHERIDAN","7856753281","Critical Access Hospitals","Government - Local","Yes","171347","39.3533137","-100.4334215"
"171348","NORTON COUNTY HOSPITAL","102 E HOLME STREET","","","NORTON","KS","67654","NORTON","7858773351","Critical Access Hospitals","Government - Local","Yes","171348","39.8385317","-99.8887107"
"171349","CLOUD COUNTY HEALTH CENTER","1100 HIGHLAND DRIVE","","","CONCORDIA","KS","66901","CLOUD","7852431234","Critical Access Hospitals","Voluntary non-profit - Private","Yes","171349","39.5664091","-97.6724825"
"171350","RUSSELL REGIONAL HOSPITAL","200 S MAIN STREET","","","RUSSELL","KS","67665","RUSSELL","7854833131","Critical Access Hospitals","Government - Hospital District or Authority","Yes","171350","38.882732","-98.8593266"
"171351","WASHINGTON COUNTY HOSPITAL","304 E 3RD STREET","","","WASHINGTON","KS","66968","WASHINGTON","7853252211","Critical Access Hospitals","Government - Local","Yes","171351","39.8174788","-97.0454379"
"171353","PHILLIPS COUNTY HOSPITAL","1150 STATE STREET","","","PHILLIPSBURG","KS","67661","PHILLIPS","7855435226","Critical Access Hospitals","Government - Local","Yes","171353","39.7558382","-99.3135954"
"171354","COMMUNITY HOSPITAL ONAGA AND ST MARYS CAMPUS","120 WEST 8TH STREET","","","ONAGA","KS","66521","POTTAWATOMIE","7858894272","Critical Access Hospitals","Voluntary non-profit - Private","Yes","171354","39.495432","-96.171674"
"171355","TREGO COUNTY LEMKE MEMORIAL HOSPITAL","320 THIRTEENTH ST","","","WA KEENEY","KS","67672","TREGO","7857432182","Critical Access Hospitals","Government - Local","Yes","171355","39.0270356","-99.8716043"
"171356","ST LUKE HOSPITAL & LIVING CENTER","535 SOUTH FREEBRON","","","MARION","KS","66861","MARION","6203822177","Critical Access Hospitals","Government - Hospital District or Authority","Yes","171356","38.3427","-97.010299"
"171357","HILLSBORO COMMUNITY HOSPITAL","701 S MAIN STREET","","","HILLSBORO","KS","67063","MARION","6209473114","Critical Access Hospitals","Proprietary","Yes","171357","38.3463475","-97.2046483"
"171358","LINDSBORG COMMUNITY HOSPITAL","605 W LINCOLN STREET","","","LINDSBORG","KS","67456","MCPHERSON","7852273308","Critical Access Hospitals","Voluntary non-profit - Private","Yes","171358","38.572746","-97.68358"
"171359","GREELEY COUNTY HEALTH SERVICES","506 3RD STREET","","","TRIBUNE","KS","67879","GREELEY","6203764221","Critical Access Hospitals","Government - Local","Yes","171359","38.4692289","-101.7497338"
"171361","REPUBLIC COUNTY HOSPITAL","2420 G STREET","","","BELLEVILLE","KS","66935","REPUBLIC","7855272254","Critical Access Hospitals","Voluntary non-profit - Other","Yes","171361","39.8189173","-97.6369632"
"171364","OSBORNE COUNTY MEMORIAL HOSPITAL","424 W NEW HAMPSHIRE","","","OSBORNE","KS","67473","OSBORNE","7853462121","Critical Access Hospitals","Voluntary non-profit - Other","Yes","171364","39.4366982","-98.7008955"
"171366","HARPER HOSPITAL DISTRICT NO 5","700 WEST 13TH","","","HARPER","KS","67058","HARPER","6208967324","Critical Access Hospitals","Government - Hospital District or Authority","Yes","171366","37.2836614","-98.032928"
"171367","GOVE COUNTY MEDICAL CENTER","520 WEST 5TH STREET","","","QUINTER","KS","67752","GOVE","7857543341","Critical Access Hospitals","Voluntary non-profit - Other","Yes","171367","39.067132","-100.2408182"
"171369","HODGEMAN COUNTY HEALTH CENTER","809 BRAMLEY","","","JETMORE","KS","67854","HODGEMAN","6203578361","Critical Access Hospitals","Government - Local","Yes","171369","38.0836325","-99.9033806"
"171370","GOODLAND REGIONAL MEDICAL CENTER","220 WEST SECOND STREET","","","GOODLAND","KS","67735","SHERMAN","7858903625","Critical Access Hospitals","Government - Local","Yes","171370","39.3575828","-101.7134011"
"171371","CLAY COUNTY MEDICAL CENTER","617 LIBERTY","","","CLAY CENTER","KS","67432","CLAY","7856322144","Critical Access Hospitals","Voluntary non-profit - Other","Yes","171371","39.3917038","-97.1241851"
"171372","SCOTT COUNTY HOSPITAL","310 E 3RD STREET","","","SCOTT CITY","KS","67871","SCOTT","6208725811","Critical Access Hospitals","Government - Local","Yes","171372","38.484647","-100.9037356"
"171373","ALLEN COUNTY HOSPITAL","101 SOUTH 1ST STREET","","","IOLA","KS","66749","ALLEN","6203651021","Critical Access Hospitals","Proprietary","Yes","171373","37.9221498","-95.3953185"
"171374","FREDONIA REGIONAL HOSPITAL","1527 MADISON","","","FREDONIA","KS","66736","WILSON","6203782121","Critical Access Hospitals","Voluntary non-profit - Other","Yes","171374","37.5336342","-95.8147849"
"171375","MITCHELL COUNTY HOSPITAL HEALTH SYSTEMS","400 W 8TH STREET P O BOX 399","","","BELOIT","KS","67420","MITCHELL","7857382266","Critical Access Hospitals","Government - Local","Yes","171375","39.4665276","-98.1143022"
"171376","GIRARD MEDICAL CENTER","302 NORTH HOSPITAL DRIVE","","","GIRARD","KS","66743","CRAWFORD","6207248291","Critical Access Hospitals","Government - Hospital District or Authority","Yes","171376","37.5138353","-94.8584138"
"171377","SMITH COUNTY MEMORIAL HOSPITAL","614 S MAIN STREET","","","SMITH CENTER","KS","66967","SMITH","7852826845","Critical Access Hospitals","Voluntary non-profit - Other","Yes","171377","39.7838528","-98.7857301"
"171378","KINGMAN COMMUNITY HOSPITAL","750 W AVE D","","","KINGMAN","KS","67068","KINGMAN","6205323147","Critical Access Hospitals","Voluntary non-profit - Private","Yes","171378","37.6466786","-98.1217"
"171379","MORRIS COUNTY HOSPITAL","600 N WASHINGTON ST","","","COUNCIL GROVE","KS","66846","MORRIS","6207676811","Critical Access Hospitals","Government - Local","Yes","171379","38.6651026","-96.5000852"
"171380","NEOSHO MEMORIAL REGIONAL MEDICAL CENTER","629 SOUTH PLUMMER","","","CHANUTE","KS","66720","NEOSHO","6204314000","Critical Access Hospitals","Government - Local","Yes","171380","37.6756612","-95.4709085"
"171381","MEMORIAL HOSPITAL","511 NE 10TH ST","","","ABILENE","KS","67410","DICKINSON","6202636610","Critical Access Hospitals","Government - Hospital District or Authority","Yes","171381","38.925445","-97.20553"
"171382","ATCHISON HOSPITAL","800 RAVIN HILL DRIVE","","","ATCHISON","KS","66002","ATCHISON","9133672131","Critical Access Hospitals","Voluntary non-profit - Private","Yes","171382","39.5384916","-95.1271547"
"171383","WILLIAM NEWTON HOSPITAL","1300 EAST FIFTH AVENUE","","","WINFIELD","KS","67156","COWLEY","6202212300","Critical Access Hospitals","Government - Local","Yes","171383","37.245618","-96.982121"
"180001","ST ELIZABETH FT THOMAS","85 NORTH GRAND AVENUE","","","FORT THOMAS","KY","41075","CAMPBELL","8595723100","Acute Care Hospitals","Voluntary non-profit - Private","Yes","180001","39.0778968","-84.4643063"
"180002","WHITESBURG ARH HOSPITAL","240 HOSPITAL ROAD","","","WHITESBURG","KY","41858","LETCHER","6066333500","Acute Care Hospitals","Voluntary non-profit - Other","Yes","180002","37.1148054","-82.8106386"
"180004","MUHLENBERG COMMUNITY HOSPITAL","440 HOPKINSVILLE STREET","","","GREENVILLE","KY","42345","MUHLENBERG","2703388000","Acute Care Hospitals","Voluntary non-profit - Other","Yes","180004","37.1970092","-87.1888993"
"180005","HIGHLANDS REGIONAL MEDICAL CENTER","5000 KENTUCKY RTE 321","","","PRESTONSBURG","KY","41653","FLOYD","6068868511","Acute Care Hospitals","Voluntary non-profit - Other","Yes","180005","37.7294325","-82.7671575"
"180009","KING'S DAUGHTERS' MEDICAL CENTER","2201 LEXINGTON AVENUE","","","ASHLAND","KY","41101","BOYD","6063274000","Acute Care Hospitals","Proprietary","Yes","180009","38.4703569","-82.6349008"
"180010","SAINT JOSEPH HOSPITAL","ONE SAINT JOSEPH DRIVE","","","LEXINGTON","KY","40504","FAYETTE","8593131714","Acute Care Hospitals","Voluntary non-profit - Church","Yes","180010","38.031356","-84.5219034"
"180011","SAINT JOSEPH HOSPITAL LONDON","1001 SAINT JOSEPH LANE","","","LONDON","KY","40741","LAUREL","6063306000","Acute Care Hospitals","Voluntary non-profit - Private","Yes","180011","37.1178379","-84.1091044"
"180012","HARDIN MEMORIAL HOSPITAL","913 NORTH DIXIE AVENUE","","","ELIZABETHTOWN","KY","42701","HARDIN","2707371212","Acute Care Hospitals","Government - Local","Yes","180012","37.7131814","-85.8767837"
"180013","THE MEDICAL CENTER AT BOWLING GREEN","250 PARK STREET","","","BOWLING GREEN","KY","42101","WARREN","2707451000","Acute Care Hospitals","Voluntary non-profit - Private","Yes","180013","36.9964093","-86.4300574"
"180016","JEWISH HOSPITAL - SHELBYVILLE","727 HOSPITAL DRIVE","","","SHELBYVILLE","KY","40065","SHELBY","5026474300","Acute Care Hospitals","Voluntary non-profit - Private","Yes","180016","38.209599","-85.235978"
"180017","T J SAMSON COMMUNITY HOSPITAL","1301 NORTH RACE STREET","","","GLASGOW","KY","42141","BARREN","2706514159","Acute Care Hospitals","Voluntary non-profit - Other","Yes","180017","37.0118177","-85.9041183"
"180018","ST CLAIRE REGIONAL MEDICAL CENTER","222 MEDICAL CIRCLE","","","MOREHEAD","KY","40351","ROWAN","6067836500","Acute Care Hospitals","Voluntary non-profit - Church","Yes","180018","38.1803194","-83.4431468"
"180019","MEADOWVIEW REGIONAL MEDICAL CENTER","989 MEDICAL PARK DRIVE","","","MAYSVILLE","KY","41056","MASON","6067595311","Acute Care Hospitals","Proprietary","Yes","180019","38.63961","-83.8081973"
"180020","MIDDLESBORO APPALACHIAN REGIONAL HEALTHCARE HOSPIT","3600 WEST CUMBERLAND AVENUE","","","MIDDLESBORO","KY","40965","BELL","6062421101","Acute Care Hospitals","Voluntary non-profit - Private","Yes","180020","36.6061506","-83.7402416"
"180021","PINEVILLE COMMUNITY HOSPITAL","850 RIVERVIEW AVENUE","","","PINEVILLE","KY","40977","BELL","6063373051","Acute Care Hospitals","Voluntary non-profit - Other","Yes","180021","36.7632122","-83.7080077"
"180024","SPRING VIEW HOSPITAL","320 LORETTO ROAD","","","LEBANON","KY","40033","MARION","2706925145","Acute Care Hospitals","Proprietary","No","180024","37.5706003","-85.2607087"
"180025","FLAGET MEMORIAL HOSPITAL (MEMBER OF SAINT JOSEPH H","4305 NEW SHEPHERDSVILLE ROAD","","","BARDSTOWN","KY","40004","NELSON","5023505000","Acute Care Hospitals","Voluntary non-profit - Private","Yes","180025","37.861878","-85.523221"
"180027","MURRAY-CALLOWAY COUNTY HOSPITAL","803 POPLAR STREET","","","MURRAY","KY","42071","CALLOWAY","2707621100","Acute Care Hospitals","Voluntary non-profit - Other","No","180027","36.6086339","-88.308597"
"180029","HAZARD ARH REGIONAL MEDICAL CENTER","100 MEDICAL CENTER DRIVE","","","HAZARD","KY","41701","PERRY","6064396600","Acute Care Hospitals","Voluntary non-profit - Other","Yes","180029","37.2779303","-83.2269554"
"180035","ST ELIZABETH MEDICAL CENTER NORTH","401 EAST 20TH STREET","","","COVINGTON","KY","41014","KENTON","8592922000","Acute Care Hospitals","Voluntary non-profit - Church","Yes","180035","39.067368","-84.499934"
"180036","OUR LADY OF BELLEFONTE HOSPITAL","1000 SAINT CHRISTOPHER DRIVE","","","ASHLAND","KY","41101","GREENUP","6068333600","Acute Care Hospitals","Voluntary non-profit - Church","Yes","180036","38.5078363","-82.6951406"
"180038","OWENSBORO MEDICAL HEALTH SYSTEM","811 EAST PARRISH AVENUE","","","OWENSBORO","KY","42303","DAVIESS","5026882000","Acute Care Hospitals","Voluntary non-profit - Private","Yes","180038","37.76648","-87.100913"
"180040","JEWISH HOSPITAL & ST MARY'S HEALTHCARE","200 ABRAHAM FLEXNER WAY","","","LOUISVILLE","KY","40202","JEFFERSON","5025874011","Acute Care Hospitals","Voluntary non-profit - Private","Yes","180040","38.2492969","-85.7507369"
"180043","MEMORIAL HOSPITAL","210 MARIE LANGDON DRIVE","","","MANCHESTER","KY","40962","CLAY","6065985104","Acute Care Hospitals","Voluntary non-profit - Church","Yes","180043","37.1621517","-83.7613862"
"180044","PIKEVILLE MEDICAL CENTER","911 BYPASS ROAD","","","PIKEVILLE","KY","41501","PIKE","6064373500","Acute Care Hospitals","Voluntary non-profit - Private","Yes","180044","37.4722896","-82.5261629"
"180045","ST ELIZABETH FLORENCE","4900 HOUSTON ROAD","","","FLORENCE","KY","41042","BOONE","8599625200","Acute Care Hospitals","Voluntary non-profit - Private","Yes","180045","39.0145125","-84.6378131"
"180046","BOURBON COMMUNITY HOSPITAL","9 LINVILLE DRIVE","","","PARIS","KY","40361","BOURBON","8599873600","Acute Care Hospitals","Proprietary","No","180046","38.2227284","-84.2382348"
"180048","EPHRAIM MCDOWELL REGIONAL MEDICAL CENTER","217 SOUTH THIRD STREET","","","DANVILLE","KY","40422","BOYLE","8592392409","Acute Care Hospitals","Voluntary non-profit - Other","Yes","180048","37.6437765","-84.772622"
"180049","PATTIE A CLAY REGIONAL MEDICAL CENTER","801 EASTERN BYPASS","","","RICHMOND","KY","40475","MADISON","8596233131","Acute Care Hospitals","Voluntary non-profit - Private","Yes","180049","37.7311405","-84.2866337"
"180050","HARLAN APPALACHIAN REGIONAL HEALTHCARE HOSPITAL","81 BALL PARK ROAD","","","HARLAN","KY","40831","HARLAN","6065738100","Acute Care Hospitals","Voluntary non-profit - Other","Yes","180050","36.8100081","-83.3148586"
"180051","JENNIE STUART MEDICAL CENTER","320 WEST 18TH STREET","","","HOPKINSVILLE","KY","42240","CHRISTIAN","2708870100","Acute Care Hospitals","Voluntary non-profit - Private","No","180051","36.8604744","-87.4955997"
"180053","FLEMING COUNTY HOSPITAL","55 FOUNDATION DRIVE","","","FLEMINGSBURG","KY","41041","FLEMING","6068492351","Acute Care Hospitals","Voluntary non-profit - Other","Yes","180053","38.4222995","-83.7338076"
"180056","METHODIST HOSPITAL","1305 N ELM ST","","","HENDERSON","KY","42420","HENDERSON","2708277700","Acute Care Hospitals","Voluntary non-profit - Church","Yes","180056","37.8538251","-87.5812995"
"180064","SAINT JOSEPH MOUNT STERLING","50 STERLING AVENUE","","","MOUNT STERLING","KY","40353","MONTGOMERY","8594981220","Acute Care Hospitals","Voluntary non-profit - Church","Yes","180064","38.0622849","-83.9462917"
"180066","LOGAN MEMORIAL HOSPITAL","1625 NASHVILLE STREET","","","RUSSELLVILLE","KY","42276","LOGAN","2707264011","Acute Care Hospitals","Proprietary","Yes","180066","36.814656","-86.8821574"
"180067","UNIVERSITY OF KENTUCKY HOSPITAL","HOSPITAL ADMINISTRATION","","","LEXINGTON","KY","40536","FAYETTE","8593235470","Acute Care Hospitals","Government - State","Yes","180067","38.0296892","-84.5067553"
"180069","WILLIAMSON ARH HOSPITAL","260 HOSPITAL DRIVE","","","SOUTH WILLIAMSON","KY","41503","PIKE","6062371700","Acute Care Hospitals","Proprietary","Yes","180069","37.676037","-82.2972072"
"18006F","LOUISVILLE VA MEDICAL CENTER","800 ZORN AVENUE","","","LOUISVILLE                    ","KY","40206","JEFFERSON","5022874000","ACUTE CARE - VETERANS ADMINISTRATION","Government Federal","NO","18006F","38.270768","-85.69823"
"180070","TWIN LAKES REGIONAL MEDICAL CENTER","910 WALLACE AVENUE","","","LEITCHFIELD","KY","42754","GRAYSON","2702599400","Acute Care Hospitals","Voluntary non-profit - Other","Yes","180070","37.4730986","-86.2868168"
"180078","PAUL B HALL REGIONAL MEDICAL CENTER","625 JAMES S TRIMBLE BOULEVARD P O BOX 1848","","","PAINTSVILLE","KY","41240","JOHNSON","6067893511","Acute Care Hospitals","Proprietary","Yes","180078","37.8145536","-82.8110206"
"180079","HARRISON MEMORIAL HOSPITAL","1210 KY HWY 36 E","","","CYNTHIANA","KY","41031","HARRISON","8592342300","Acute Care Hospitals","Voluntary non-profit - Other","Yes","180079","38.4139565","-84.3270383"
"18007F","LEXINGTON-LEESTOWN VA MEDICAL CENTER","2250 LEESTOWN RD","","","LEXINGTON                     ","KY","40511","FAYETTE","8592334511","ACUTE CARE - VETERANS ADMINISTRATION","Government Federal","NO","18007F","38.072351","-84.540088"
"180080","BAPTIST REGIONAL MEDICAL CENTER","ONE TRILLIUM WAY","","","CORBIN","KY","40701","KNOX","6065281212","Acute Care Hospitals","Voluntary non-profit - Private","Yes","180080","36.9220154","-84.1140332"
"180087","TAYLOR REGIONAL HOSPITAL","1700 OLD LEBANON ROAD","","","CAMPBELLSVILLE","KY","42718","TAYLOR","2704653561","Acute Care Hospitals","Government - Hospital District or Authority","Yes","180087","37.3658295","-85.3391663"
"180088","NORTON HOSPITALS INC","200 EAST CHESTNUT STREET","","","LOUISVILLE","KY","40202","JEFFERSON","5026296560","Acute Care Hospitals","Voluntary non-profit - Private","Yes","180088","38.248269","-85.7517696"
"180092","CLARK REGIONAL MEDICAL CENTER","1107 WEST LEXINGTON AVENUE","","","WINCHESTER","KY","40391","CLARK","8597453500","Acute Care Hospitals","Voluntary non-profit - Private","Yes","180092","38.0000342","-84.1966733"
"180093","REGIONAL MEDICAL CENTER OF HOPKINS COUNTY","900 HOSPITAL DRIVE","","","MADISONVILLE","KY","42431","HOPKINS","2708255100","Acute Care Hospitals","Voluntary non-profit - Private","Yes","180093","37.3395915","-87.4898771"
"180095","CRITTENDEN HEALTH SYSTEM","520 WEST GUM STREET","","","MARION","KY","42064","CRITTENDEN","2709655281","Acute Care Hospitals","Proprietary","Yes","180095","37.3293273","-88.0892193"
"180101","GEORGETOWN COMMUNITY HOSPITAL","1140 LEXINGTON ROAD","","","GEORGETOWN","KY","40324","SCOTT","5028681100","Acute Care Hospitals","Proprietary","Yes","180101","38.1866158","-84.5625059"
"180102","LOURDES HOSPITAL","1530 LONE OAK ROAD","","","PADUCAH","KY","42001","MCCRACKEN","2704442444","Acute Care Hospitals","Voluntary non-profit - Church","Yes","180102","37.0581037","-88.6407446"
"180103","CENTRAL BAPTIST HOSPITAL","1740 NICHOLASVILLE ROAD","","","LEXINGTON","KY","40503","FAYETTE","8592606100","Acute Care Hospitals","Government - Hospital District or Authority","Yes","180103","38.018488","-84.512364"
"180104","WESTERN BAPTIST HOSPITAL","2501 KENTUCKY AVENUE","","","PADUCAH","KY","42003","MCCRACKEN","2705752300","Acute Care Hospitals","Voluntary non-profit - Church","Yes","180104","37.0742838","-88.625317"
"180105","MONROE COUNTY MEDICAL CENTER","529 CAPP HARLAN ROAD","","","TOMPKINSVILLE","KY","42167","MONROE","2704879231","Acute Care Hospitals","Voluntary non-profit - Private","Yes","180105","36.7000566","-85.6786226"
"180106","CLINTON COUNTY HOSPITAL INC","723 BURKESVILLE ROAD","","","ALBANY","KY","42602","CLINTON","6063876421","Acute Care Hospitals","Proprietary","No","180106","36.6979383","-85.1446511"
"180115","ROCKCASTLE REG HOSPITAL & RESPIRATORY CARE CTR","145 NEWCOMB AVENUE P O BOX 1310","","","MOUNT VERNON","KY","40456","ROCKCASTLE","6062562195","Acute Care Hospitals","Voluntary non-profit - Private","No","180115","37.357599","-84.335964"
"180116","JACKSON PURCHASE MEDICAL CENTER","1099 MEDICAL CENTER CIRCLE","","","MAYFIELD","KY","42066","GRAVES","2702514500","Acute Care Hospitals","Government - Hospital District or Authority","Yes","180116","36.7575082","-88.6512887"
"180117","PARKWAY REGIONAL HOSPITAL","2000 HOLIDAY LANE","","","FULTON","KY","42041","FULTON","2704722522","Acute Care Hospitals","Proprietary","Yes","180117","36.5187399","-88.8915227"
"180124","GREENVIEW REGIONAL HOSPITAL","1801 ASHLEY CIRCLE","","","BOWLING GREEN","KY","42104","WARREN","2707931000","Acute Care Hospitals","Proprietary","Yes","180124","36.9669527","-86.4368286"
"180127","FRANKFORT REGIONAL MEDICAL CENTER","299 KINGS DAUGHTERS DRIVE","","","FRANKFORT","KY","40601","FRANKLIN","5028755240","Acute Care Hospitals","Proprietary","Yes","180127","38.163236","-84.903274"
"180128","THREE RIVERS MEDICAL CENTER","HIGHWAY 644 PO BOX 769","","","LOUISA","KY","41230","LAWRENCE","6066389451","Acute Care Hospitals","Proprietary","Yes","180128","38.0854062","-82.5986363"
"180130","BAPTIST HOSPITAL EAST","4000 KRESGE WAY","","","LOUISVILLE","KY","40207","JEFFERSON","5028978100","Acute Care Hospitals","Voluntary non-profit - Private","Yes","180130","38.2385414","-85.6405683"
"180132","LAKE CUMBERLAND REGIONAL HOSPITAL","305 LANGDON STREET","","","SOMERSET","KY","42503","PULASKI","6066797441","Acute Care Hospitals","Proprietary","Yes","180132","37.0872419","-84.6182857"
"180138","BAPTIST HOSPITAL NORTHEAST","1025 NEW MOODY LANE","","","LA GRANGE","KY","40031","OLDHAM","5022225388","Acute Care Hospitals","Voluntary non-profit - Private","Yes","180138","38.3963514","-85.373238"
"180139","KENTUCKY RIVER MEDICAL CENTER","540 JETT DRIVE","","","JACKSON","KY","41339","BREATHITT","6066666000","Acute Care Hospitals","Proprietary","Yes","180139","37.5616582","-83.3720187"
"180141","UNIVERSITY OF LOUISVILLE HOSPITAL","530 SOUTH JACKSON STREET","","","LOUISVILLE","KY","40202","JEFFERSON","5025623000","Acute Care Hospitals","Voluntary non-profit - Private","No","180141","38.2486516","-85.7449923"
"180143","SAINT JOSEPH EAST","150 NORTH EAGLE CREEK DRIVE","","","LEXINGTON","KY","40509","FAYETTE","8599675000","Acute Care Hospitals","Voluntary non-profit - Church","Yes","180143","37.999443","-84.439407"
"180149","WESTLAKE REGIONAL HOSPITAL","901 WESTLAKE DRIVE PO BOX 1269","","","COLUMBIA","KY","42728","ADAIR","2703844753","Acute Care Hospitals","Government - Hospital District or Authority","Yes","180149","37.094121","-85.2935864"
"181301","MARCUM AND WALLACE MEMORIAL HOSPITAL","60 MERCY COURT","","","IRVINE","KY","40336","ESTILL","6067232115","Critical Access Hospitals","Voluntary non-profit - Church","Yes","181301","37.7057519","-83.9777828"
"181302","THE JAMES B HAGGIN MEMORIAL HOSPITAL","464 LINDEN AVENUE","","","HARRODSBURG","KY","40330","MERCER","8597345441","Critical Access Hospitals","Voluntary non-profit - Other","Yes","181302","37.7569964","-84.8480583"
"181303","NICHOLAS COUNTY HOSPITAL","2323 CONCRETE ROAD","","","CARLISLE","KY","40311","NICHOLAS","8592897181","Critical Access Hospitals","Voluntary non-profit - Other","Yes","181303","38.3115608","-84.0450557"
"181304","TRIGG COUNTY HOSPITAL","254 MAIN STREET","","","CADIZ","KY","42211","TRIGG","2705223215","Critical Access Hospitals","Government - Local","Yes","181304","36.8671027","-87.8221297"
"181305","SAINT JOSEPH MARTIN","11203 MAIN STREET","","","MARTIN","KY","41649","FLOYD","6062855181","Critical Access Hospitals","Voluntary non-profit - Private","Yes","181305","37.5745112","-82.7520116"
"181306","METHODIST HOSPITAL UNION COUNTY","4604 US HIGHWAY 60 WEST","","","MORGANFIELD","KY","42437","UNION","2703893030","Critical Access Hospitals","Voluntary non-profit - Church","Yes","181306","37.6267787","-87.9436116"
"181307","MORGAN COUNTY ARH HOSPITAL","476 LIBERTY ROAD P O BOX 579","","","WEST LIBERTY","KY","41472","MORGAN","6067433186","Critical Access Hospitals","Voluntary non-profit - Private","Yes","181307","37.9239517","-83.2737903"
"181308","BLUEGRASS COMMUNITY HOSPITAL","360 AMSDEN AVENUE","","","VERSAILLES","KY","40383","WOODFORD","8598792300","Critical Access Hospitals","Proprietary","Yes","181308","38.0542685","-84.7250123"
"181309","CASEY COUNTY HOSPITAL","187 WOLFORD AVENUE","","","LIBERTY","KY","42539","CASEY","6067876275","Critical Access Hospitals","Government - Hospital District or Authority","Yes","181309","37.3180675","-84.9314954"
"181310","CARROLL COUNTY HOSPITAL","309 ELEVENTH STREET","","","CARROLLTON","KY","41008","CARROLL","5027324321","Critical Access Hospitals","Government - Local","Yes","181310","38.6797924","-85.1692887"
"181311","ST ELIZABETH GRANT","238 BARNES ROAD","","","WILLIAMSTOWN","KY","41097","GRANT","8598248240","Critical Access Hospitals","Voluntary non-profit - Church","Yes","181311","38.6495607","-84.5756053"
"181312","NEW HORIZONS MEDICAL CENTER","330 ROLAND AVENUE","","","OWENTON","KY","40359","OWEN","5024844656","Critical Access Hospitals","Proprietary","Yes","181312","38.541585","-84.8410125"
"181314","CAVERNA MEMORIAL HOSPITAL","1501 SOUTH DIXIE STREET","","","HORSE CAVE","KY","42749","HART","2707862191","Critical Access Hospitals","Voluntary non-profit - Private","Yes","181314","37.1582143","-85.9255493"
"181315","EPHRAIM MCDOWELL FORT LOGAN HOSPITAL","110 METKER TRAIL","","","STANFORD","KY","40484","LINCOLN","6063654600","Critical Access Hospitals","Voluntary non-profit - Private","Yes","181315","37.543647","-84.654107"
"181316","MARY BRECKINRIDGE HOSPITAL","130 KATE IRELAND DRIVE","","","HYDEN","KY","41749","LESLIE","6066722901","Critical Access Hospitals","Voluntary non-profit - Private","Yes","181316","37.1631897","-83.3779755"
"181317","CUMBERLAND COUNTY HOSPITAL","299 GLASGOW ROAD","","","BURKESVILLE","KY","42717","CUMBERLAND","2708642511","Critical Access Hospitals","Voluntary non-profit - Other","Yes","181317","36.7939184","-85.3699341"
"181318","THE MEDICAL CENTER AT FRANKLIN","1100 BROOKHAVEN ROAD","","","FRANKLIN","KY","42135","SIMPSON","2705984800","Critical Access Hospitals","Voluntary non-profit - Private","Yes","181318","36.6998922","-86.5755691"
"181319","BRECKINRIDGE MEMORIAL HOSPITAL","1011 OLD HIGHWAY 60","","","HARDINSBURG","KY","40143","BRECKINRIDGE","2707567000","Critical Access Hospitals","Voluntary non-profit - Private","Yes","181319","37.8133622","-86.3188837"
"181320","LIVINGSTON HOSPITAL AND HEALTHCARE","131 HOSPITAL DRIVE","","","SALEM","KY","42078","LIVINGSTON","2709882299","Critical Access Hospitals","Proprietary","Yes","181320","37.2634168","-88.2290942"
"181321","WAYNE COUNTY HOSPITAL","166 HOSPITAL STREET","","","MONTICELLO","KY","42633","WAYNE","6063489343","Critical Access Hospitals","Voluntary non-profit - Other","Yes","181321","36.8207692","-84.8695037"
"181322","CALDWELL MEDICAL CENTER","100 MEDICAL CENTER DRIVE","","","PRINCETON","KY","42445","CALDWELL","2703650300","Critical Access Hospitals","Government - Hospital District or Authority","Yes","181322","37.1169059","-87.870264"
"181323","OHIO COUNTY HOSPITAL","1211 OLD MAIN STREET","","","HARTFORD","KY","42347","OHIO","2702987411","Critical Access Hospitals","Proprietary","Yes","181323","37.4476555","-86.8963241"
"181324","THE MEDICAL CENTER AT SCOTTSVILLE","456 BURNLEY ROAD","","","SCOTTSVILLE","KY","42164","ALLEN","2706222800","Critical Access Hospitals","Voluntary non-profit - Private","Yes","181324","36.761693","-86.2166478"
"181325","JANE TODD CRAWFORD HOSPITAL","202-206 MILBY STREET PO BOX 220","","","GREENSBURG","KY","42743","GREEN","2709324211","Critical Access Hospitals","Voluntary non-profit - Private","Yes","181325","37.2420864","-85.4965934"
"181327","MARSHALL COUNTY HOSPITAL","615 OLD SYMSONIA ROAD","","","BENTON","KY","42025","MARSHALL","2705274800","Critical Access Hospitals","Government - Hospital District or Authority","Yes","181327","36.8671414","-88.3701181"
"181328","KNOX COUNTY HOSPITAL","80 HOSPITAL DRIVE","","","BARBOURVILLE","KY","40906","KNOX","6065464175","Critical Access Hospitals","Proprietary","Yes","181328","36.8515035","-83.8694029"
"181329","SAINT JOSEPH BEREA","305 ESTILL STREET","","","BEREA","KY","40403","MADISON","8599866500","Critical Access Hospitals","Voluntary non-profit - Private","Yes","181329","37.5735797","-84.287343"
"181330","RUSSELL COUNTY HOSPITAL","153 DOWELL ROAD PO BOX 1610","","","RUSSELL SPRINGS","KY","42642","RUSSELL","2708664141","Critical Access Hospitals","Government - Hospital District or Authority","Yes","181330","37.0566698","-85.0670332"
"181331","MCDOWELL ARH HOSPITAL","9879 KENTUCKY ROUTE 122 PO BOX 247","","","MC DOWELL","KY","41647","FLOYD","6063773400","Critical Access Hospitals","Voluntary non-profit - Private","Yes","181331","37.4596335","-82.7534822"
"190001","WASHINGTON ST TAMMANY  REGIONAL MEDICAL CENTER","433 PLAZA ST","","","BOGALUSA","LA","70427","WASHINGTON","9857351322","Acute Care Hospitals","Government - State","Yes","190001","30.7791377","-89.8679512"
"190002","LAFAYETTE GENERAL MEDICAL CENTER","1214 COOLIDGE AVENUE","","","LAFAYETTE","LA","70503","LAFAYETTE","3372897991","Acute Care Hospitals","Voluntary non-profit - Other","Yes","190002","30.2022268","-92.0186692"
"190003","DAUTERIVE HOSPITAL","600 NORTH LEWIS STREET","","","NEW IBERIA","LA","70563","IBERIA","3373744101","Acute Care Hospitals","Proprietary","Yes","190003","30.0083988","-91.7950956"
"190004","THIBODAUX REGIONAL MEDICAL CENTER","602 N ACADIA ROAD","","","THIBODAUX","LA","70301","LAFOURCHE","9854475500","Acute Care Hospitals","Government - Federal","Yes","190004","29.7795373","-90.8057096"
"190005","CHARITY HOSPITAL & MED CENTER OF LA AT NO","2021 PERDIDO ST  4FLOOR","","","NEW ORLEANS","LA","70112","ORLEANS","5049035152","Acute Care Hospitals","Government - State","Yes","190005","29.9595769","-90.0770127"
"190006","UNIVERSITY MEDICAL CENTER","2390 WEST CONGRESS","","","LAFAYETTE","LA","70506","LAFAYETTE","3372616001","Acute Care Hospitals","Government - State","Yes","190006","30.217096","-92.046423"
"190007","NATCHITOCHES REGIONAL MEDICAL CENTER","501 KEYSER AVE","","","NATCHITOCHES","LA","71457","NATCHITOCHES","3183521200","Acute Care Hospitals","Government - Hospital District or Authority","Yes","190007","31.7534643","-93.0791059"
"190008","TERREBONNE GENERAL MEDICAL CENTER","8166 MAIN STREET","","","HOUMA","LA","70360","TERREBONNE","9858734141","Acute Care Hospitals","Government - Hospital District or Authority","Yes","190008","29.598511","-90.7140377"
"190009","HUEY P LONG MEDICAL CENTER","352 HOSPITAL BLVD","","","PINEVILLE","LA","71360","RAPIDES","3184736200","Acute Care Hospitals","Government - State","Yes","190009","31.3211848","-92.4411178"
"190011","E A CONWAY MEDICAL CENTER","4864 JACKSON STREET","","","MONROE","LA","71202","OUACHITA","3183307595","Acute Care Hospitals","Government - State","Yes","190011","32.4509702","-92.1054863"
"190013","WEST CALCASIEU CAMERON HOSPITAL","701 EAST CYPRESS STREET","","","SULPHUR","LA","70663","CALCASIEU","3375274240","Acute Care Hospitals","Government - Hospital District or Authority","Yes","190013","30.229815","-93.368672"
"190014","TECHE REGIONAL MEDICAL CENTER","1125 MARGUERITE STREET","","","MORGAN CITY","LA","70381","SAINT MARY","5043842200","Acute Care Hospitals","Proprietary","Yes","190014","29.7069661","-91.2010683"
"190015","NORTH OAKS MEDICAL CENTER","15790 PAUL VEGA MD DRIVE","","","HAMMOND","LA","70403","TANGIPAHOA","9853452700","Acute Care Hospitals","Government - Hospital District or Authority","Yes","190015","30.5043583","-90.4611995"
"190017","OPELOUSAS GENERAL HEALTH SYSTEM","539 EAST PRUDHOMME STREET","","","OPELOUSAS","LA","70570","SAINT LANDRY","3379483011","Acute Care Hospitals","Government - Hospital District or Authority","Yes","190017","30.5435405","-92.0760785"
"190019","CHRISTUS ST FRANCES CABRINI HOSPITAL","3330 MASONIC DRIVE","","","ALEXANDRIA","LA","71301","RAPIDES","3184486700","Acute Care Hospitals","Voluntary non-profit - Church","Yes","190019","31.28264","-92.46159"
"190020","LANE REGIONAL MEDICAL CENTER","6300 MAIN STREET","","","ZACHARY","LA","70791","EAST BATON ROUGE","2256584303","Acute Care Hospitals","Government - Hospital District or Authority","Yes","190020","30.6501229","-91.1380773"
"190025","SAVOY MEDICAL CENTER","801 POINCIANA AVENUE","","","MAMOU","LA","70554","EVANGELINE","3374685261","Acute Care Hospitals","Proprietary","Yes","190025","30.6410842","-92.418416"
"190026","RAPIDES REGIONAL MEDICAL CENTER","211 4TH STREET","","","ALEXANDRIA","LA","71301","RAPIDES","3184733150","Acute Care Hospitals","Voluntary non-profit - Other","Yes","190026","31.31495","-92.44946"
"190027","CHRISTUS ST PATRICK HOSPITAL","524 DR MICHAEL DEBAKEY STREET","","","LAKE CHARLES","LA","70601","CALCASIEU","3374917730","Acute Care Hospitals","Voluntary non-profit - Church","Yes","190027","30.2155861","-93.2274389"
"190034","ABBEVILLE GENERAL HOSPITAL","118 N HOSPITAL DR","","","ABBEVILLE","LA","70510","VERMILION","3378986501","Acute Care Hospitals","Government - Hospital District or Authority","Yes","190034","29.9721599","-92.1070004"
"190036","OCHSNER FOUNDATION HOSPITAL","1516 JEFFERSON HWY","","","NEW ORLEANS","LA","70121","JEFFERSON","5048425898","Acute Care Hospitals","Voluntary non-profit - Private","Yes","190036","29.9626976","-90.1449749"
"190037","SOUTH CAMERON MEMORIAL HOSPITAL","5360 WEST CREOLE HIGHWAY","","","CAMERON","LA","70631","CAMERON","3375424111","Acute Care Hospitals","Proprietary","Yes","190037","29.8158952","-93.1271723"
"190039","WEST JEFFERSON MEDICAL CENTER","1101 MEDICAL CENTER BLVD","","","MARRERO","LA","70072","JEFFERSON","5043475511","Acute Care Hospitals","Government - Hospital District or Authority","Yes","190039","29.891263","-90.0957727"
"190040","SLIDELL MEMORIAL HOSPITAL","1001 GAUSE BLVD","","","SLIDELL","LA","70458","SAINT TAMMANY","9856432200","Acute Care Hospitals","Government - Hospital District or Authority","Yes","190040","30.2845611","-89.7703771"
"190041","CHRISTUS SCHUMPERT HEALTH SYSTEM","ONE ST MARY PLACE","","","SHREVEPORT","LA","71101","CADDO","3186814215","Acute Care Hospitals","Voluntary non-profit - Church","Yes","190041","32.494396","-93.750158"
"190044","AMERICAN LEGION HOSPITAL","1305 CROWLEY RAYNE HIGHWAY","","","CROWLEY","LA","70526","ACADIA","3377886400","Acute Care Hospitals","Government - Federal","No","190044","30.2276134","-92.3624955"
"190045","ST TAMMANY PARISH HOSPITAL","1202 S TYLER STREET","","","COVINGTON","LA","70433","SAINT TAMMANY","9858984000","Acute Care Hospitals","Government - Hospital District or Authority","Yes","190045","30.468666","-90.112846"
"190046","TOURO INFIRMARY","1401 FOUCHER STREET","","","NEW ORLEANS","LA","70115","ORLEANS","5048978246","Acute Care Hospitals","Voluntary non-profit - Private","Yes","190046","29.925647","-90.092282"
"190050","BEAUREGARD MEMORIAL HOSPITAL","600 S PINE STREET","","","DERIDDER","LA","70634","BEAUREGARD","3374627106","Acute Care Hospitals","Government - Hospital District or Authority","Yes","190050","30.8418916","-93.2890518"
"190053","JENNINGS AMERICAN LEGION HOSPITAL","1634 ELTON ROAD","","","JENNINGS","LA","70546","JEFFERSON DAVIS","3376167030","Acute Care Hospitals","Voluntary non-profit - Private","Yes","190053","30.238541","-92.6634172"
"190054","IBERIA GENERAL HOSPITAL AND MEDICAL CENTER","2315 E MAIN STREET","","","NEW IBERIA","LA","70562","IBERIA","3373747104","Acute Care Hospitals","Government - Hospital District or Authority","Yes","190054","29.988155","-91.784713"
"190060","LAKE CHARLES MEMORIAL HOSPITAL","1701 OAK PARK BLVD","","","LAKE CHARLES","LA","70601","CALCASIEU","3374943200","Acute Care Hospitals","Voluntary non-profit - Other","Yes","190060","30.204576","-93.197737"
"190064","OUR LADY OF THE LAKE REGIONAL MEDICAL CENTER","5000 HENNESSY BLVD","","","BATON ROUGE","LA","70808","EAST BATON ROUGE","2257658902","Acute Care Hospitals","Voluntary non-profit - Church","Yes","190064","30.40118","-91.111603"
"190065","BATON ROUGE GENERAL MEDICAL CENTER","3600 FLORIDA STREET","","","BATON ROUGE","LA","70806","EAST BATON ROUGE","2253877767","Acute Care Hospitals","Voluntary non-profit - Private","Yes","190065","30.4503576","-91.1532003"
"190078","ACADIAN MEDICAL CENTER","3501 HIGHWAY 190","","","EUNICE","LA","70535","SAINT LANDRY","3375807504","Acute Care Hospitals","Proprietary","Yes","190078","30.496905","-92.386265"
"190079","ST CHARLES PARISH HOSPITAL","1057 PAUL MAILLARD ROAD","","","LULING","LA","70070","SAINT CHARLES","9857856242","Acute Care Hospitals","Government - Hospital District or Authority","Yes","190079","29.9255774","-90.3709306"
"190081","WEST CARROLL MEMORIAL HOSPITAL","522 ROSS STREET","","","OAK GROVE","LA","71263","WEST CARROLL","3184283237","Acute Care Hospitals","Proprietary","Yes","190081","32.867853","-91.3832198"
"190086","NORTHERN LOUISIANA MEDICAL CENTER","401 EAST VAUGHN AVENUE","","","RUSTON","LA","71270","LINCOLN","3182542453","Acute Care Hospitals","Voluntary non-profit - Other","Yes","190086","32.5154386","-92.6334353"
"190088","SPRINGHILL MEDICAL CENTER","2001 DOCTORS DRIVE","","","SPRINGHILL","LA","71075","WEBSTER","3185391014","Acute Care Hospitals","Proprietary","Yes","190088","33.010286","-93.44389"
"190090","WINN PARISH MEDICAL CENTER","301 W BOUNDARY STREET","","","WINNFIELD","LA","71483","WINN","3186483007","Acute Care Hospitals","Proprietary","Yes","190090","31.9249972","-92.6450604"
"190098","LSU HEALTH SCIENCES CENTER - SHREVEPORT","1541 KINGS HIGHWAY","","","SHREVEPORT","LA","71130","CADDO","3186755058","Acute Care Hospitals","Government - State","Yes","190098","32.4817616","-93.7626361"
"190099","AVOYELLES HOSPITAL","4231 HIGHWAY 1192","","","MARKSVILLE","LA","71351","AVOYELLES","3182406000","Acute Care Hospitals","Proprietary","Yes","190099","31.1434405","-92.0645271"
"190102","OUR LADY OF LOURDES REGIONAL MEDICAL CENTER INC","611 ST LANDRY STREET","","","LAFAYETTE","LA","70506","LAFAYETTE","3372892000","Acute Care Hospitals","Voluntary non-profit - Church","Yes","190102","30.215868","-92.027227"
"190106","OAKDALE COMMUNITY HOSPITAL","130 N HOSPITAL DR","","","OAKDALE","LA","71463","ALLEN","3183353700","Acute Care Hospitals","Voluntary non-profit - Other","Yes","190106","30.815684","-92.644548"
"190111","WILLIS KNIGHTON MEDICAL CENTER","2600 GREENWOOD ROAD","","","SHREVEPORT","LA","71103","CADDO","3186324000","Acute Care Hospitals","Voluntary non-profit - Private","Yes","190111","32.4839363","-93.7788456"
"190114","HOMER MEMORIAL HOSPITAL","620 EAST COLLEGE STREET","","","HOMER","LA","71040","CLAIBORNE","3189272024","Acute Care Hospitals","Government - Local","Yes","190114","32.7939062","-93.0624524"
"190116","MOREHOUSE GENERAL HOSPITAL","323 W WALNUT","","","BASTROP","LA","71220","MOREHOUSE","3182833601","Acute Care Hospitals","Government - Hospital District or Authority","Yes","190116","32.7754364","-91.9173418"
